GNIS ID,GEOID,Name,Short Name,State,FIPS Class,Latitude,Longitude
1008531,37001,Alamance County,Alamance,NC,H1,36.0437099,-79.3994248
1008532,37003,Alexander County,Alexander,NC,H1,35.9210263,-81.1770268
1008533,37005,Alleghany County,Alleghany,NC,H1,36.4915415,-81.127016
1008534,37007,Anson County,Anson,NC,H1,34.9737894,-80.102712
1008535,37009,Ashe County,Ashe,NC,H1,36.4340929,-81.5003845
1008536,37011,Avery County,Avery,NC,H1,36.076605,-81.9226014
1008538,37021,Buncombe County,Buncombe,NC,H1,35.6111779,-82.5301071
1008539,37023,Burke County,Burke,NC,H1,35.7496106,-81.7047785
1008540,37025,Cabarrus County,Cabarrus,NC,H1,35.3867839,-80.5518792
1008541,37027,Caldwell County,Caldwell,NC,H1,35.9530388,-81.5464373
1008542,37033,Caswell County,Caswell,NC,H1,36.3932742,-79.3335235
1008543,37035,Catawba County,Catawba,NC,H1,35.6620424,-81.2150706
1008544,37037,Chatham County,Chatham,NC,H1,35.7025819,-79.2553042
1008545,37039,Cherokee County,Cherokee,NC,H1,35.1338575,-84.0634442
1008546,37043,Clay County,Clay,NC,H1,35.0571811,-83.7501767
1008547,37045,Cleveland County,Cleveland,NC,H1,35.3340898,-81.5555433
1008548,37057,Davidson County,Davidson,NC,H1,35.7933323,-80.2127569
1008549,37059,Davie County,Davie,NC,H1,35.929093,-80.5444759
1008550,37063,Durham County,Durham,NC,H1,36.036029,-78.8765927
1008551,37065,Edgecombe County,Edgecombe,NC,H1,35.9128807,-77.5970589
1008552,37067,Forsyth County,Forsyth,NC,H1,36.1306245,-80.25632
1008553,37069,Franklin County,Franklin,NC,H1,36.0827734,-78.2856966
1008554,37071,Gaston County,Gaston,NC,H1,35.2943489,-81.1802416
1008555,37075,Graham County,Graham,NC,H1,35.350172,-83.8335818
1008556,37077,Granville County,Granville,NC,H1,36.3040698,-78.6527194
1008557,37079,Greene County,Greene,NC,H1,35.4849957,-77.6757627
1008558,37081,Guilford County,Guilford,NC,H1,36.079469,-79.7889168
1008559,37083,Halifax County,Halifax,NC,H1,36.2574485,-77.651733
1008560,37085,Harnett County,Harnett,NC,H1,35.3688186,-78.8693115
1008561,37087,Haywood County,Haywood,NC,H1,35.5560557,-82.982173
1008562,37089,Henderson County,Henderson,NC,H1,35.3362263,-82.4799464
1008563,37093,Hoke County,Hoke,NC,H1,35.0175396,-79.2372793
1008564,37095,Hyde County,Hyde,NC,H1,35.4081187,-76.1449651
1008565,37097,Iredell County,Iredell,NC,H1,35.8070436,-80.8734472
1008566,37099,Jackson County,Jackson,NC,H1,35.2875866,-83.1408496
1008567,37105,Lee County,Lee,NC,H1,35.4751864,-79.1714836
1008568,37107,Lenoir County,Lenoir,NC,H1,35.2387732,-77.6412486
1008569,37109,Lincoln County,Lincoln,NC,H1,35.485595,-81.2235326
1008570,37119,Mecklenburg County,Mecklenburg,NC,H1,35.246767,-80.8327311
1008571,37121,Mitchell County,Mitchell,NC,H1,36.0132039,-82.1635815
1008572,37123,Montgomery County,Montgomery,NC,H1,35.3324669,-79.9054791
1008573,37125,Moore County,Moore,NC,H1,35.310654,-79.4813749
1008574,37127,Nash County,Nash,NC,H1,35.9672503,-77.9864448
1008575,37131,Northampton County,Northampton,NC,H1,36.4177312,-77.3968212
1008576,37135,Orange County,Orange,NC,H1,36.0611189,-79.1206491
1008577,37145,Person County,Person,NC,H1,36.3900951,-78.9718051
1008578,37147,Pitt County,Pitt,NC,H1,35.593299,-77.3744966
1008579,37149,Polk County,Polk,NC,H1,35.279279,-82.1696779
1008580,37151,Randolph County,Randolph,NC,H1,35.7103367,-79.8060032
1008581,37153,Richmond County,Richmond,NC,H1,35.0060484,-79.747778
1008582,37157,Rockingham County,Rockingham,NC,H1,36.3960128,-79.7749872
1008583,37159,Rowan County,Rowan,NC,H1,35.6394263,-80.5247503
1008584,37161,Rutherford County,Rutherford,NC,H1,35.4025956,-81.9198335
1008585,37165,Scotland County,Scotland,NC,H1,34.8408848,-79.4804292
1008586,37169,Stokes County,Stokes,NC,H1,36.4019104,-80.2396655
1008587,37171,Surry County,Surry,NC,H1,36.4146504,-80.6879245
1008588,37173,Swain County,Swain,NC,H1,35.4868151,-83.4927394
1008589,37175,Transylvania County,Transylvania,NC,H1,35.2021778,-82.7983001
1008590,37179,Union County,Union,NC,H1,34.9883575,-80.53074
1008591,37181,Vance County,Vance,NC,H1,36.3649169,-78.4079289
1008592,37183,Wake County,Wake,NC,H1,35.7903134,-78.6502801
1008593,37185,Warren County,Warren,NC,H1,36.3965103,-78.1067171
1008594,37189,Watauga County,Watauga,NC,H1,36.2311071,-81.6964252
1008595,37193,Wilkes County,Wilkes,NC,H1,36.2061903,-81.1629677
1008596,37195,Wilson County,Wilson,NC,H1,35.7051457,-77.918663
1008597,37197,Yadkin County,Yadkin,NC,H1,36.1605278,-80.6652341
1008598,37199,Yancey County,Yancey,NC,H1,35.898948,-82.307628
1023355,37137,Pamlico County,Pamlico,NC,H1,35.1510212,-76.6694598
1025822,37041,Chowan County,Chowan,NC,H1,36.1265615,-76.6021304
1025833,37113,Macon County,Macon,NC,H1,35.1504672,-83.4221767
1025834,37115,Madison County,Madison,NC,H1,35.8580358,-82.7057583
1025836,37111,McDowell County,McDowell,NC,H1,35.6816925,-82.0493124
1025841,37143,Perquimans County,Perquimans,NC,H1,36.1772229,-76.40762
1025844,37167,Stanly County,Stanly,NC,H1,35.3119228,-80.2509952
1026123,37049,Craven County,Craven,NC,H1,35.1176858,-77.0820038
1026124,37051,Cumberland County,Cumberland,NC,H1,35.0487306,-78.8276794
1026125,37053,Currituck County,Currituck,NC,H1,36.3672995,-75.9369492
1026126,37073,Gates County,Gates,NC,H1,36.4449436,-76.7005267
1026127,37091,Hertford County,Hertford,NC,H1,36.358636,-76.9807148
1026128,37191,Wayne County,Wayne,NC,H1,35.36396,-78.0039971
1026129,37141,Pender County,Pender,NC,H1,34.5150997,-77.8884356
1026130,37155,Robeson County,Robeson,NC,H1,34.6402461,-79.1038615
1026131,37163,Sampson County,Sampson,NC,H1,34.9915895,-78.3714377
1026132,37061,Duplin County,Duplin,NC,H1,34.9365348,-77.9330277
1026133,37055,Dare County,Dare,NC,H1,35.6649367,-75.6852333
1026327,37101,Johnston County,Johnston,NC,H1,35.5178225,-78.3657129
1026328,37117,Martin County,Martin,NC,H1,35.8432127,-77.1092332
1026329,37129,New Hanover County,New Hanover,NC,H1,34.1815553,-77.8655976
1026330,37139,Pasquotank County,Pasquotank,NC,H1,36.2650187,-76.2492414
1026331,37187,Washington County,Washington,NC,H1,35.8392646,-76.5693099
1026332,37177,Tyrrell County,Tyrrell,NC,H1,35.869407,-76.1704524
1026333,37013,Beaufort County,Beaufort,NC,H1,35.4869838,-76.8453144
1026334,37015,Bertie County,Bertie,NC,H1,36.0656272,-76.966714
1026335,37029,Camden County,Camden,NC,H1,36.3411216,-76.1609504
1026336,37017,Bladen County,Bladen,NC,H1,34.6146329,-78.5637
1026337,37031,Carteret County,Carteret,NC,H1,34.8612598,-76.5357431
1026338,37103,Jones County,Jones,NC,H1,35.0217248,-77.355168
1026339,37047,Columbus County,Columbus,NC,H1,34.2656451,-78.6550309
1026340,37019,Brunswick County,Brunswick,NC,H1,34.0388756,-78.2274072
1026341,37133,Onslow County,Onslow,NC,H1,34.7098364,-77.4157658
1034203,38083,Sheridan County,Sheridan,ND,H1,47.5754617,-100.3455551
1034204,38103,Wells County,Wells,ND,H1,47.5875229,-99.6609105
1034205,38065,Oliver County,Oliver,ND,H1,47.1152751,-101.3403083
1034206,38043,Kidder County,Kidder,ND,H1,46.9801018,-99.7800914
1034207,38059,Morton County,Morton,ND,H1,46.7160582,-101.2811188
1034208,38085,Sioux County,Sioux,ND,H1,46.1126539,-101.0403053
1034209,38041,Hettinger County,Hettinger,ND,H1,46.4325011,-102.4602804
1034210,38001,Adams County,Adams,ND,H1,46.0968206,-102.5284987
1034211,38051,McIntosh County,McIntosh,ND,H1,46.1117848,-99.4411922
1034212,38067,Pembina County,Pembina,ND,H1,48.7674846,-97.5518181
1034213,38095,Towner County,Towner,ND,H1,48.6856026,-99.2457719
1034214,38099,Walsh County,Walsh,ND,H1,48.369456,-97.7213241
1034215,38071,Ramsey County,Ramsey,ND,H1,48.268943,-98.720105
1034216,38005,Benson County,Benson,ND,H1,48.069397,-99.366013
1034217,38063,Nelson County,Nelson,ND,H1,47.9216812,-98.1920325
1034218,38035,Grand Forks County,Grand Forks,ND,H1,47.9219152,-97.4569239
1034219,38039,Griggs County,Griggs,ND,H1,47.4572804,-98.2369676
1034220,38091,Steele County,Steele,ND,H1,47.4561506,-97.7245909
1034221,38097,Traill County,Traill,ND,H1,47.4541906,-97.1615545
1034222,38027,Eddy County,Eddy,ND,H1,47.7176029,-98.9016467
1034223,38031,Foster County,Foster,ND,H1,47.4570775,-98.8829853
1034224,38093,Stutsman County,Stutsman,ND,H1,46.9792551,-98.9588381
1034225,38003,Barnes County,Barnes,ND,H1,46.9361065,-98.0715401
1034226,38017,Cass County,Cass,ND,H1,46.9329643,-97.248021
1034227,38009,Bottineau County,Bottineau,ND,H1,48.7922155,-100.8333319
1034228,38079,Rolette County,Rolette,ND,H1,48.7724977,-99.8409524
1034229,38075,Renville County,Renville,ND,H1,48.7189896,-101.6577647
1034230,38069,Pierce County,Pierce,ND,H1,48.2496101,-99.9718051
1034231,38101,Ward County,Ward,ND,H1,48.2217206,-101.5418058
1034232,38055,McLean County,McLean,ND,H1,47.6069509,-101.321804
1034233,38057,Mercer County,Mercer,ND,H1,47.3091803,-101.8314892
1034234,38023,Divide County,Divide,ND,H1,48.8149187,-103.4873624
1034235,38013,Burke County,Burke,ND,H1,48.7910184,-102.5181605
1035299,38053,McKenzie County,McKenzie,ND,H1,47.7401606,-103.3952782
1035300,38037,Grant County,Grant,ND,H1,46.3582866,-101.6396657
1035301,38073,Ransom County,Ransom,ND,H1,46.4561549,-97.6574002
1035302,38077,Richland County,Richland,ND,H1,46.2646373,-96.9482619
1035303,38081,Sargent County,Sargent,ND,H1,46.1079383,-97.6307327
1035304,38019,Cavalier County,Cavalier,ND,H1,48.7722867,-98.4648361
1035305,38049,McHenry County,McHenry,ND,H1,48.2345729,-100.6362892
1035306,38105,Williams County,Williams,ND,H1,48.3436752,-103.4801859
1035307,38061,Mountrail County,Mountrail,ND,H1,48.2013151,-102.3556856
1035614,38015,Burleigh County,Burleigh,ND,H1,46.9774521,-100.4687377
1035615,38029,Emmons County,Emmons,ND,H1,46.2850392,-100.2387408
1035616,38007,Billings County,Billings,ND,H1,47.0235841,-103.3763049
1035617,38033,Golden Valley County,Golden Valley,ND,H1,46.9401262,-103.8465657
1035618,38089,Stark County,Stark,ND,H1,46.8106826,-102.6550888
1035619,38011,Bowman County,Bowman,ND,H1,46.1125903,-103.5206711
1035620,38047,Logan County,Logan,ND,H1,46.4573446,-99.4774139
1035621,38045,LaMoure County,LaMoure,ND,H1,46.4569158,-98.5354613
1035622,38021,Dickey County,Dickey,ND,H1,46.1101251,-98.5047044
1035623,38025,Dunn County,Dunn,ND,H1,47.3567863,-102.6182055
1035896,38087,Slope County,Slope,ND,H1,46.4472371,-103.4598757
1065575,39013,Belmont County,Belmont,OH,H1,40.0158002,-80.9885425
1065576,39151,Stark County,Stark,OH,H1,40.8139188,-81.3656253
1074014,39001,Adams County,Adams,OH,H1,38.8455029,-83.4721494
1074015,39003,Allen County,Allen,OH,H1,40.7715207,-84.1057794
1074016,39005,Ashland County,Ashland,OH,H1,40.8460163,-82.2706833
1074017,39007,Ashtabula County,Ashtabula,OH,H1,41.8962289,-80.7589568
1074018,39009,Athens County,Athens,OH,H1,39.3338576,-82.045122
1074019,39011,Auglaize County,Auglaize,OH,H1,40.5609114,-84.2217438
1074020,39015,Brown County,Brown,OH,H1,38.9338279,-83.8672965
1074021,39017,Butler County,Butler,OH,H1,39.4386277,-84.5756256
1074022,39019,Carroll County,Carroll,OH,H1,40.5795915,-81.0897166
1074023,39021,Champaign County,Champaign,OH,H1,40.1376768,-83.7695156
1074024,39023,Clark County,Clark,OH,H1,39.9167164,-83.7843688
1074025,39025,Clermont County,Clermont,OH,H1,39.0475312,-84.1517691
1074026,39027,Clinton County,Clinton,OH,H1,39.4149377,-83.8083998
1074027,39029,Columbiana County,Columbiana,OH,H1,40.7684277,-80.7771866
1074028,39031,Coshocton County,Coshocton,OH,H1,40.3016445,-81.9200554
1074029,39033,Crawford County,Crawford,OH,H1,40.8507726,-82.9197777
1074030,39035,Cuyahoga County,Cuyahoga,OH,H1,41.635059,-81.7001959
1074031,39037,Darke County,Darke,OH,H1,40.1332244,-84.6193186
1074032,39039,Defiance County,Defiance,OH,H1,41.3239161,-84.4904951
1074033,39041,Delaware County,Delaware,OH,H1,40.2783947,-83.0048783
1074034,39043,Erie County,Erie,OH,H1,41.4705999,-82.576346
1074035,39045,Fairfield County,Fairfield,OH,H1,39.7515988,-82.6305889
1074036,39047,Fayette County,Fayette,OH,H1,39.559883,-83.4560973
1074037,39049,Franklin County,Franklin,OH,H1,39.969546,-83.0092923
1074038,39051,Fulton County,Fulton,OH,H1,41.6017989,-84.1300795
1074039,39053,Gallia County,Gallia,OH,H1,38.8246749,-82.3169099
1074040,39055,Geauga County,Geauga,OH,H1,41.4995391,-81.1786514
1074041,39057,Greene County,Greene,OH,H1,39.6915224,-83.8898615
1074042,39059,Guernsey County,Guernsey,OH,H1,40.0520499,-81.4942595
1074043,39061,Hamilton County,Hamilton,OH,H1,39.1955434,-84.542753
1074044,39063,Hancock County,Hancock,OH,H1,41.0019384,-83.6665354
1074045,39065,Hardin County,Hardin,OH,H1,40.661545,-83.6594733
1074046,39067,Harrison County,Harrison,OH,H1,40.2938389,-81.0911359
1074047,39069,Henry County,Henry,OH,H1,41.3338852,-84.0682304
1074048,39071,Highland County,Highland,OH,H1,39.1847403,-83.6009721
1074049,39073,Hocking County,Hocking,OH,H1,39.4970224,-82.4792403
1074050,39075,Holmes County,Holmes,OH,H1,40.5612239,-81.9292879
1074051,39077,Huron County,Huron,OH,H1,41.1462777,-82.5980227
1074052,39079,Jackson County,Jackson,OH,H1,39.0196722,-82.6183829
1074053,39081,Jefferson County,Jefferson,OH,H1,40.3850195,-80.7609723
1074054,39083,Knox County,Knox,OH,H1,40.3987674,-82.421536
1074055,39085,Lake County,Lake,OH,H1,41.9103521,-81.2509392
1074056,39087,Lawrence County,Lawrence,OH,H1,38.5984686,-82.5367462
1074057,39089,Licking County,Licking,OH,H1,40.0916087,-82.483098
1074058,39091,Logan County,Logan,OH,H1,40.3884735,-83.7658522
1074059,39093,Lorain County,Lorain,OH,H1,41.452678,-82.1513543
1074060,39095,Lucas County,Lucas,OH,H1,41.6841907,-83.4682748
1074061,39097,Madison County,Madison,OH,H1,39.8941393,-83.400439
1074062,39099,Mahoning County,Mahoning,OH,H1,41.0146379,-80.7762994
1074063,39101,Marion County,Marion,OH,H1,40.5871853,-83.1609031
1074064,39103,Medina County,Medina,OH,H1,41.1175705,-81.8997238
1074065,39105,Meigs County,Meigs,OH,H1,39.0822409,-82.0229005
1074066,39107,Mercer County,Mercer,OH,H1,40.5400114,-84.6293603
1074067,39109,Miami County,Miami,OH,H1,40.0534592,-84.2288445
1074068,39111,Monroe County,Monroe,OH,H1,39.7273471,-81.0829177
1074069,39113,Montgomery County,Montgomery,OH,H1,39.7546721,-84.2906688
1074070,39115,Morgan County,Morgan,OH,H1,39.6203735,-81.8526619
1074071,39117,Morrow County,Morrow,OH,H1,40.5240865,-82.7940678
1074072,39119,Muskingum County,Muskingum,OH,H1,39.9654219,-81.9443827
1074073,39121,Noble County,Noble,OH,H1,39.7659589,-81.4555606
1074074,39123,Ottawa County,Ottawa,OH,H1,41.5939007,-83.0199779
1074075,39125,Paulding County,Paulding,OH,H1,41.1166208,-84.5801946
1074076,39127,Perry County,Perry,OH,H1,39.7371483,-82.2361379
1074077,39129,Pickaway County,Pickaway,OH,H1,39.6419411,-83.0243916
1074078,39131,Pike County,Pike,OH,H1,39.0773714,-83.0668541
1074079,39133,Portage County,Portage,OH,H1,41.1676889,-81.1974025
1074080,39135,Preble County,Preble,OH,H1,39.7415271,-84.6480147
1074081,39137,Putnam County,Putnam,OH,H1,41.0220807,-84.1317319
1074082,39139,Richland County,Richland,OH,H1,40.7746843,-82.5364844
1074083,39141,Ross County,Ross,OH,H1,39.3376277,-83.0570256
1074084,39143,Sandusky County,Sandusky,OH,H1,41.3574164,-83.1439157
1074085,39145,Scioto County,Scioto,OH,H1,38.8039038,-82.9928889
1074086,39147,Seneca County,Seneca,OH,H1,41.1238796,-83.1277054
1074087,39149,Shelby County,Shelby,OH,H1,40.3315254,-84.2047418
1074088,39153,Summit County,Summit,OH,H1,41.1259792,-81.532167
1074089,39155,Trumbull County,Trumbull,OH,H1,41.3170157,-80.7612724
1074090,39157,Tuscarawas County,Tuscarawas,OH,H1,40.4409451,-81.4737522
1074091,39159,Union County,Union,OH,H1,40.2993986,-83.371578
1074092,39161,Van Wert County,Van Wert,OH,H1,40.8553982,-84.5860991
1074093,39163,Vinton County,Vinton,OH,H1,39.250985,-82.48535
1074094,39165,Warren County,Warren,OH,H1,39.4277011,-84.1667526
1074095,39167,Washington County,Washington,OH,H1,39.4553162,-81.4952544
1074096,39169,Wayne County,Wayne,OH,H1,40.8288539,-81.8880106
1074097,39171,Williams County,Williams,OH,H1,41.5602876,-84.5881379
1074098,39173,Wood County,Wood,OH,H1,41.3617079,-83.6229779
1074099,39175,Wyandot County,Wyandot,OH,H1,40.8423639,-83.3043781
1101788,40001,Adair County,Adair,OK,H1,35.8839341,-94.6587391
1101789,40003,Alfalfa County,Alfalfa,OK,H1,36.7309889,-98.3239782
1101790,40005,Atoka County,Atoka,OK,H1,34.3736483,-96.0378479
1101791,40007,Beaver County,Beaver,OK,H1,36.7497077,-100.4768349
1101792,40009,Beckham County,Beckham,OK,H1,35.2687042,-99.6819565
1101793,40011,Blaine County,Blaine,OK,H1,35.8752484,-98.4334743
1101794,40013,Bryan County,Bryan,OK,H1,33.9622404,-96.2597621
1101795,40015,Caddo County,Caddo,OK,H1,35.174406,-98.3751582
1101796,40017,Canadian County,Canadian,OK,H1,35.5424446,-97.9824013
1101797,40019,Carter County,Carter,OK,H1,34.2508714,-97.285788
1101798,40021,Cherokee County,Cherokee,OK,H1,35.9066679,-94.9996892
1101799,40023,Choctaw County,Choctaw,OK,H1,34.0266235,-95.5521803
1101800,40025,Cimarron County,Cimarron,OK,H1,36.7483051,-102.5177237
1101801,40027,Cleveland County,Cleveland,OK,H1,35.2030564,-97.3264528
1101802,40029,Coal County,Coal,OK,H1,34.5881997,-96.2977786
1101803,40031,Comanche County,Comanche,OK,H1,34.6621224,-98.4716797
1101804,40033,Cotton County,Cotton,OK,H1,34.2902312,-98.3722432
1101805,40035,Craig County,Craig,OK,H1,36.7617782,-95.2084696
1101806,40037,Creek County,Creek,OK,H1,35.9025836,-96.3708562
1101807,40039,Custer County,Custer,OK,H1,35.6388377,-99.0015557
1101808,40041,Delaware County,Delaware,OK,H1,36.4082388,-94.8026125
1101809,40043,Dewey County,Dewey,OK,H1,35.9876528,-99.0079219
1101810,40045,Ellis County,Ellis,OK,H1,36.2183808,-99.7546182
1101811,40047,Garfield County,Garfield,OK,H1,36.3790615,-97.7827228
1101812,40049,Garvin County,Garvin,OK,H1,34.7045811,-97.3093233
1101813,40051,Grady County,Grady,OK,H1,35.0169371,-97.8841202
1101814,40053,Grant County,Grant,OK,H1,36.7961439,-97.7861241
1101815,40055,Greer County,Greer,OK,H1,34.9357371,-99.5607827
1101816,40057,Harmon County,Harmon,OK,H1,34.7441185,-99.8462501
1101817,40059,Harper County,Harper,OK,H1,36.7888025,-99.6674011
1101818,40061,Haskell County,Haskell,OK,H1,35.2247812,-95.1166506
1101819,40063,Hughes County,Hughes,OK,H1,35.0483629,-96.250188
1101820,40065,Jackson County,Jackson,OK,H1,34.587971,-99.4147585
1101821,40067,Jefferson County,Jefferson,OK,H1,34.1110029,-97.8357913
1101822,40069,Johnston County,Johnston,OK,H1,34.3165083,-96.6605949
1101823,40071,Kay County,Kay,OK,H1,36.8180034,-97.143938
1101824,40073,Kingfisher County,Kingfisher,OK,H1,35.9453881,-97.9421091
1101825,40075,Kiowa County,Kiowa,OK,H1,34.916384,-98.9809215
1101826,40077,Latimer County,Latimer,OK,H1,34.8760345,-95.2503733
1101827,40079,Le Flore County,Le Flore,OK,H1,34.9002992,-94.7033501
1101828,40081,Lincoln County,Lincoln,OK,H1,35.7029695,-96.8808914
1101829,40083,Logan County,Logan,OK,H1,35.9193388,-97.4433173
1101830,40085,Love County,Love,OK,H1,33.9498611,-97.244123
1101831,40093,Major County,Major,OK,H1,36.3116475,-98.5359514
1101832,40095,Marshall County,Marshall,OK,H1,34.0245102,-96.7691344
1101833,40097,Mayes County,Mayes,OK,H1,36.3019345,-95.2307391
1101834,40087,McClain County,McClain,OK,H1,35.0093345,-97.4442891
1101835,40089,McCurtain County,McCurtain,OK,H1,34.1153236,-94.7713948
1101836,40091,McIntosh County,McIntosh,OK,H1,35.3736417,-95.6667999
1101837,40099,Murray County,Murray,OK,H1,34.4823142,-97.0679061
1101838,40101,Muskogee County,Muskogee,OK,H1,35.616139,-95.3794738
1101839,40103,Noble County,Noble,OK,H1,36.3885996,-97.2305066
1101840,40105,Nowata County,Nowata,OK,H1,36.7984747,-95.6173556
1101841,40107,Okfuskee County,Okfuskee,OK,H1,35.4654508,-96.322779
1101842,40109,Oklahoma County,Oklahoma,OK,H1,35.5515099,-97.4072334
1101843,40111,Okmulgee County,Okmulgee,OK,H1,35.6466066,-95.9642646
1101844,40113,Osage County,Osage,OK,H1,36.6291867,-96.3984929
1101845,40115,Ottawa County,Ottawa,OK,H1,36.8355137,-94.8104296
1101846,40117,Pawnee County,Pawnee,OK,H1,36.3168767,-96.6991946
1101847,40119,Payne County,Payne,OK,H1,36.0772897,-96.9756359
1101848,40121,Pittsburg County,Pittsburg,OK,H1,34.9238617,-95.7484144
1101849,40123,Pontotoc County,Pontotoc,OK,H1,34.7280451,-96.6843761
1101850,40125,Pottawatomie County,Pottawatomie,OK,H1,35.2066557,-96.94836
1101851,40127,Pushmataha County,Pushmataha,OK,H1,34.4161707,-95.3758624
1101852,40129,Roger Mills County,Roger Mills,OK,H1,35.6883617,-99.6957056
1101853,40131,Rogers County,Rogers,OK,H1,36.3715367,-95.6043401
1101854,40133,Seminole County,Seminole,OK,H1,35.1675046,-96.6154938
1101855,40135,Sequoyah County,Sequoyah,OK,H1,35.495346,-94.7551887
1101856,40137,Stephens County,Stephens,OK,H1,34.4855799,-97.8515307
1101857,40139,Texas County,Texas,OK,H1,36.7479022,-101.4901001
1101858,40141,Tillman County,Tillman,OK,H1,34.3728526,-98.9242422
1101859,40143,Tulsa County,Tulsa,OK,H1,36.1210986,-95.9414756
1101860,40145,Wagoner County,Wagoner,OK,H1,35.9610903,-95.5212032
1101861,40147,Washington County,Washington,OK,H1,36.7152338,-95.9043662
1101862,40149,Washita County,Washita,OK,H1,35.2903673,-98.9922233
1101863,40151,Woods County,Woods,OK,H1,36.7669322,-98.8651275
1101864,40153,Woodward County,Woodward,OK,H1,36.4227189,-99.2650807
1135845,41001,Baker County,Baker,OR,H1,44.7091743,-117.6753635
1135846,41007,Clatsop County,Clatsop,OR,H1,46.0175262,-123.7169992
1135847,41009,Columbia County,Columbia,OR,H1,45.9437814,-123.0882557
1135848,41011,Coos County,Coos,OR,H1,43.1851622,-124.0933188
1135849,41019,Douglas County,Douglas,OR,H1,43.2853462,-123.1795569
1135850,41021,Gilliam County,Gilliam,OR,H1,45.3782691,-120.2106853
1135851,41023,Grant County,Grant,OR,H1,44.4915007,-119.0073541
1135852,41025,Harney County,Harney,OR,H1,43.064085,-118.9678886
1135853,41029,Jackson County,Jackson,OR,H1,42.4321559,-122.7285179
1135854,41037,Lake County,Lake,OR,H1,42.7934614,-120.3873376
1135855,41039,Lane County,Lane,OR,H1,43.9415555,-122.8766376
1135856,41041,Lincoln County,Lincoln,OR,H1,44.6458436,-123.9076547
1135857,41043,Linn County,Linn,OR,H1,44.4887,-122.5343618
1135858,41045,Malheur County,Malheur,OR,H1,43.1934753,-117.6230981
1135859,41047,Marion County,Marion,OR,H1,44.9033165,-122.5846695
1135860,41049,Morrow County,Morrow,OR,H1,45.4190045,-119.584275
1135861,41051,Multnomah County,Multnomah,OR,H1,45.5467916,-122.4151001
1135862,41053,Polk County,Polk,OR,H1,44.9035251,-123.4132333
1135863,41055,Sherman County,Sherman,OR,H1,45.4052566,-120.6893717
1135864,41057,Tillamook County,Tillamook,OR,H1,45.4566725,-123.7586647
1135865,41069,Wheeler County,Wheeler,OR,H1,44.7261189,-120.0275662
1135866,41071,Yamhill County,Yamhill,OR,H1,45.2326663,-123.3081651
1155126,41003,Benton County,Benton,OR,H1,44.491799,-123.4292491
1155127,41005,Clackamas County,Clackamas,OR,H1,45.1880464,-122.2208448
1155128,41013,Crook County,Crook,OR,H1,44.1421798,-120.3565809
1155129,41015,Curry County,Curry,OR,H1,42.4665807,-124.2152207
1155130,41017,Deschutes County,Deschutes,OR,H1,43.9150098,-121.2281418
1155131,41027,Hood River County,Hood River,OR,H1,45.519063,-121.6511632
1155132,41031,Jefferson County,Jefferson,OR,H1,44.62938,-121.1760486
1155133,41033,Josephine County,Josephine,OR,H1,42.3654992,-123.5554977
1155134,41035,Klamath County,Klamath,OR,H1,42.6864089,-121.650121
1155135,41063,Wallowa County,Wallowa,OR,H1,45.5798654,-117.18102
1155136,41065,Wasco County,Wasco,OR,H1,45.1600235,-121.1677746
1155137,41067,Washington County,Washington,OR,H1,45.5600908,-123.0983217
1156673,41059,Umatilla County,Umatilla,OR,H1,45.5919772,-118.7367849
1164165,41061,Union County,Union,OR,H1,45.3102251,-118.0087776
1209171,42009,Bedford County,Bedford,PA,H1,40.006548,-78.4903127
1209172,42011,Berks County,Berks,PA,H1,40.4162957,-75.9259989
1209173,42017,Bucks County,Bucks,PA,H1,40.3369483,-75.1068734
1209174,42029,Chester County,Chester,PA,H1,39.9731487,-75.7484409
1209175,42033,Clearfield County,Clearfield,PA,H1,41.0000453,-78.4742342
1209176,42041,Cumberland County,Cumberland,PA,H1,40.1636519,-77.2654841
1209177,42045,Delaware County,Delaware,PA,H1,39.9168074,-75.3988998
1209178,42049,Erie County,Erie,PA,H1,42.1174962,-80.0981535
1209179,42051,Fayette County,Fayette,PA,H1,39.920117,-79.6474257
1209180,42067,Juniata County,Juniata,PA,H1,40.5310651,-77.402162
1209181,42071,Lancaster County,Lancaster,PA,H1,40.0424303,-76.2476968
1209182,42077,Lehigh County,Lehigh,PA,H1,40.6127008,-75.5923695
1209183,42079,Luzerne County,Luzerne,PA,H1,41.1770046,-75.9891743
1209184,42089,Monroe County,Monroe,PA,H1,41.0580689,-75.3395255
1209185,42095,Northampton County,Northampton,PA,H1,40.7541667,-75.3075869
1209186,42097,Northumberland County,Northumberland,PA,H1,40.8519342,-76.7094519
1209187,42101,Philadelphia County,Philadelphia,PA,H6,40.007636,-75.1339447
1209188,42111,Somerset County,Somerset,PA,H1,39.9725008,-79.0283399
1209189,42117,Tioga County,Tioga,PA,H1,41.7721818,-77.2542548
1209190,42125,Washington County,Washington,PA,H1,40.1894257,-80.2483181
1209191,42129,Westmoreland County,Westmoreland,PA,H1,40.3109291,-79.4667796
1209192,42131,Wyoming County,Wyoming,PA,H1,41.5183908,-76.016361
1209193,42133,York County,York,PA,H1,39.9199583,-76.7265141
1210234,42031,Clarion County,Clarion,PA,H1,41.1923895,-79.4209635
1210235,42083,McKean County,McKean,PA,H1,41.807686,-78.5690509
1213656,42001,Adams County,Adams,PA,H1,39.871452,-77.2178798
1213657,42003,Allegheny County,Allegheny,PA,H1,40.4687889,-79.9812171
1213658,42005,Armstrong County,Armstrong,PA,H1,40.8120972,-79.464584
1213659,42013,Blair County,Blair,PA,H1,40.4810929,-78.3483867
1213660,42015,Bradford County,Bradford,PA,H1,41.7886578,-76.5154218
1213661,42019,Butler County,Butler,PA,H1,40.912014,-79.9133063
1213662,42021,Cambria County,Cambria,PA,H1,40.4952586,-78.7134669
1213663,42023,Cameron County,Cameron,PA,H1,41.4367928,-78.2038732
1213664,42025,Carbon County,Carbon,PA,H1,40.9181862,-75.7088415
1213665,42037,Columbia County,Columbia,PA,H1,41.0485423,-76.4051438
1213666,42039,Crawford County,Crawford,PA,H1,41.6847068,-80.1062206
1213667,42043,Dauphin County,Dauphin,PA,H1,40.4154439,-76.7794575
1213668,42047,Elk County,Elk,PA,H1,41.4251212,-78.6490722
1213669,42053,Forest County,Forest,PA,H1,41.5130709,-79.2360157
1213670,42055,Franklin County,Franklin,PA,H1,39.9274147,-77.7212449
1213671,42057,Fulton County,Fulton,PA,H1,39.9253436,-78.1126837
1213672,42061,Huntingdon County,Huntingdon,PA,H1,40.4169142,-77.9812263
1213673,42063,Indiana County,Indiana,PA,H1,40.6519574,-79.0875639
1213674,42065,Jefferson County,Jefferson,PA,H1,41.1281451,-78.9994215
1213675,42069,Lackawanna County,Lackawanna,PA,H1,41.4366907,-75.6092107
1213676,42073,Lawrence County,Lawrence,PA,H1,40.9912144,-80.3347071
1213677,42081,Lycoming County,Lycoming,PA,H1,41.3433663,-77.0644848
1213678,42085,Mercer County,Mercer,PA,H1,41.302195,-80.2577062
1213679,42087,Mifflin County,Mifflin,PA,H1,40.6104149,-77.6170296
1213680,42091,Montgomery County,Montgomery,PA,H1,40.2108261,-75.3672936
1213681,42093,Montour County,Montour,PA,H1,41.0279222,-76.6585627
1213682,42099,Perry County,Perry,PA,H1,40.3984101,-77.2622951
1213683,42103,Pike County,Pike,PA,H1,41.3320276,-75.0338337
1213684,42105,Potter County,Potter,PA,H1,41.7448916,-77.895821
1213685,42107,Schuylkill County,Schuylkill,PA,H1,40.7057868,-76.2159423
1213686,42109,Snyder County,Snyder,PA,H1,40.7698325,-77.0701714
1213687,42113,Sullivan County,Sullivan,PA,H1,41.4461593,-76.5121414
1213688,42115,Susquehanna County,Susquehanna,PA,H1,41.8213255,-75.8006865
1213689,42119,Union County,Union,PA,H1,40.9629667,-77.0622755
1213690,42121,Venango County,Venango,PA,H1,41.4009659,-79.7579538
1213691,42123,Warren County,Warren,PA,H1,41.8146009,-79.2740907
1213692,42127,Wayne County,Wayne,PA,H1,41.6487874,-75.3032368
1214033,42059,Greene County,Greene,PA,H1,39.8537998,-80.2228739
1214034,42075,Lebanon County,Lebanon,PA,H1,40.3672315,-76.4577128
1214112,42007,Beaver County,Beaver,PA,H1,40.6822623,-80.3492954
1214720,42027,Centre County,Centre,PA,H1,40.918954,-77.8199637
1214721,42035,Clinton County,Clinton,PA,H1,41.2339557,-77.6384862
1219777,44001,Bristol County,Bristol,RI,H4,41.7055177,-71.2860712
1219778,44003,Kent County,Kent,RI,H4,41.6733546,-71.5790219
1219779,44005,Newport County,Newport,RI,H4,41.4998109,-71.2809787
1219781,44007,Providence County,Providence,RI,H4,41.8713684,-71.5785202
1219782,44009,Washington County,Washington,RI,H4,41.3964956,-71.6196574
1244251,45063,Lexington County,Lexington,SC,H1,33.9022892,-81.272182
1244717,45085,Sumter County,Sumter,SC,H1,33.9161722,-80.382316
1244832,45073,Oconee County,Oconee,SC,H1,34.7535006,-83.0659021
1245489,45045,Greenville County,Greenville,SC,H1,34.8940644,-82.3706203
1245652,45061,Lee County,Lee,SC,H1,34.1632936,-80.2545239
1245666,45001,Abbeville County,Abbeville,SC,H1,34.2226276,-82.4592739
1247979,45003,Aiken County,Aiken,SC,H1,33.5442953,-81.6346948
1247980,45005,Allendale County,Allendale,SC,H1,32.98811,-81.3582013
1247981,45007,Anderson County,Anderson,SC,H1,34.5193016,-82.6377584
1247982,45009,Bamberg County,Bamberg,SC,H1,33.214771,-81.0542338
1247983,45011,Barnwell County,Barnwell,SC,H1,33.2660636,-81.4350228
1247984,45013,Beaufort County,Beaufort,SC,H1,32.3570482,-80.6921989
1247985,45015,Berkeley County,Berkeley,SC,H1,33.1973237,-79.9521612
1247986,45017,Calhoun County,Calhoun,SC,H1,33.674855,-80.7802801
1247987,45021,Cherokee County,Cherokee,SC,H1,35.0481425,-81.6205503
1247988,45023,Chester County,Chester,SC,H1,34.6920573,-81.1595313
1247989,45025,Chesterfield County,Chesterfield,SC,H1,34.639756,-80.1586831
1247990,45027,Clarendon County,Clarendon,SC,H1,33.6658061,-80.216405
1247991,45029,Colleton County,Colleton,SC,H1,32.8434262,-80.6496843
1247992,45031,Darlington County,Darlington,SC,H1,34.3325069,-79.9577199
1247993,45033,Dillon County,Dillon,SC,H1,34.3915832,-79.3788986
1247998,45035,Dorchester County,Dorchester,SC,H1,33.0793349,-80.406731
1247999,45037,Edgefield County,Edgefield,SC,H1,33.7722263,-81.966438
1248000,45039,Fairfield County,Fairfield,SC,H1,34.3951111,-81.1212292
1248001,45041,Florence County,Florence,SC,H1,34.024491,-79.7029792
1248002,45043,Georgetown County,Georgetown,SC,H1,33.4127751,-79.2992739
1248003,45047,Greenwood County,Greenwood,SC,H1,34.1537009,-82.1259255
1248004,45049,Hampton County,Hampton,SC,H1,32.7762763,-81.1407026
1248005,45051,Horry County,Horry,SC,H1,33.9045253,-78.9761582
1248006,45053,Jasper County,Jasper,SC,H1,32.4205841,-81.0221138
1248007,45055,Kershaw County,Kershaw,SC,H1,34.3387989,-80.5902184
1248008,45057,Lancaster County,Lancaster,SC,H1,34.6866818,-80.7054233
1248009,45059,Laurens County,Laurens,SC,H1,34.4833987,-82.005684
1248010,45067,Marion County,Marion,SC,H1,34.0800586,-79.3625101
1248011,45069,Marlboro County,Marlboro,SC,H1,34.6020603,-79.6787226
1248012,45065,McCormick County,McCormick,SC,H1,33.8994879,-82.309982
1248013,45071,Newberry County,Newberry,SC,H1,34.2898118,-81.6001199
1248014,45075,Orangeburg County,Orangeburg,SC,H1,33.4389915,-80.8002997
1248015,45077,Pickens County,Pickens,SC,H1,34.8873185,-82.7252716
1248016,45081,Saluda County,Saluda,SC,H1,34.0060829,-81.7267977
1248017,45087,Union County,Union,SC,H1,34.6895381,-81.6190873
1248018,45089,Williamsburg County,Williamsburg,SC,H1,33.6199255,-79.727712
1248019,45091,York County,York,SC,H1,34.9748105,-81.1844382
1248592,45083,Spartanburg County,Spartanburg,SC,H1,34.9309091,-81.9907623
1249299,45079,Richland County,Richland,SC,H1,34.0218439,-80.9030896
1252740,45019,Charleston County,Charleston,SC,H1,32.8250488,-79.8968313
1265759,46091,Marshall County,Marshall,SD,H1,45.7586708,-97.5985004
1265760,46049,Faulk County,Faulk,SD,H1,45.0710106,-99.1452534
1265761,46107,Potter County,Potter,SD,H1,45.0645016,-99.9572519
1265762,46089,McPherson County,McPherson,SD,H1,45.7663736,-99.2214554
1265763,46127,Union County,Union,SD,H1,42.8324863,-96.6560904
1265764,46027,Clay County,Clay,SD,H1,42.9145713,-96.9756376
1265765,46053,Gregory County,Gregory,SD,H1,43.1923769,-99.1856122
1265766,46057,Hamlin County,Hamlin,SD,H1,44.6737589,-97.1883337
1265767,46017,Buffalo County,Buffalo,SD,H1,44.07635,-99.2049558
1265768,46015,Brule County,Brule,SD,H1,43.7180589,-99.0809354
1265769,46083,Lincoln County,Lincoln,SD,H1,43.2789221,-96.7218243
1265770,46125,Turner County,Turner,SD,H1,43.3108678,-97.1486602
1265771,46067,Hutchinson County,Hutchinson,SD,H1,43.3348467,-97.7544162
1265772,46099,Minnehaha County,Minnehaha,SD,H1,43.6741782,-96.7914365
1265773,46087,McCook County,McCook,SD,H1,43.6743108,-97.3684432
1265774,46065,Hughes County,Hughes,SD,H1,44.3890321,-99.9960504
1265775,46101,Moody County,Moody,SD,H1,44.0220114,-96.670922
1265776,46079,Lake County,Lake,SD,H1,44.0220443,-97.1293764
1265777,46097,Miner County,Miner,SD,H1,44.0219512,-97.6102452
1265778,46073,Jerauld County,Jerauld,SD,H1,44.0663458,-98.629675
1265779,46011,Brookings County,Brookings,SD,H1,44.3696796,-96.790421
1265780,46077,Kingsbury County,Kingsbury,SD,H1,44.3695853,-97.4914761
1265781,46039,Deuel County,Deuel,SD,H1,44.760058,-96.6679741
1265782,46051,Grant County,Grant,SD,H1,45.1719349,-96.7676947
1265783,46059,Hand County,Hand,SD,H1,44.5477641,-99.0049302
1265784,46123,Tripp County,Tripp,SD,H1,43.3458811,-99.8839653
1265785,46013,Brown County,Brown,SD,H1,45.589723,-98.3516118
1265786,46109,Roberts County,Roberts,SD,H1,45.6296436,-96.9461134
1265787,46047,Fall River County,Fall River,SD,H1,43.239378,-103.5275408
1265788,46033,Custer County,Custer,SD,H1,43.6776345,-103.451556
1265789,46085,Lyman County,Lyman,SD,H1,43.8958184,-99.8473855
1265790,46037,Day County,Day,SD,H1,45.3671516,-97.607409
1265791,46029,Codington County,Codington,SD,H1,44.9778528,-97.1886184
1265792,46063,Harding County,Harding,SD,H1,45.5803503,-103.4957675
1265793,46019,Butte County,Butte,SD,H1,44.9058408,-103.5080403
1265794,46071,Jackson County,Jackson,SD,H1,43.6942207,-101.6281372
1265811,46031,Corson County,Corson,SD,H1,45.7086009,-101.1968693
1265812,46007,Bennett County,Bennett,SD,H1,43.1949168,-101.6639891
1266972,46045,Edmunds County,Edmunds,SD,H1,45.4187968,-99.2153258
1266973,46129,Walworth County,Walworth,SD,H1,45.4299476,-100.0315544
1266974,46021,Campbell County,Campbell,SD,H1,45.7711314,-100.0516285
1266975,46135,Yankton County,Yankton,SD,H1,43.0089657,-97.3947651
1266976,46023,Charles Mix County,Charles Mix,SD,H1,43.2079071,-98.5878939
1266977,46111,Sanborn County,Sanborn,SD,H1,44.023445,-98.091375
1266978,46043,Douglas County,Douglas,SD,H1,43.3869242,-98.3660984
1266979,46061,Hanson County,Hanson,SD,H1,43.6748244,-97.7873313
1266980,46035,Davison County,Davison,SD,H1,43.6747378,-98.1459869
1266981,46075,Jones County,Jones,SD,H1,43.9606083,-100.6897198
1266982,46119,Sully County,Sully,SD,H1,44.715564,-100.1322456
1266983,46003,Aurora County,Aurora,SD,H1,43.7180195,-98.5615629
1266984,46069,Hyde County,Hyde,SD,H1,44.5473946,-99.4871293
1266985,46025,Clark County,Clark,SD,H1,44.8582539,-97.7294963
1266986,46005,Beadle County,Beadle,SD,H1,44.4144805,-98.2781096
1266987,46115,Spink County,Spink,SD,H1,44.9380154,-98.34619
1266988,46055,Haakon County,Haakon,SD,H1,44.2944277,-101.5399857
1266989,46121,Todd County,Todd,SD,H1,43.1934038,-100.7184285
1266990,46105,Perkins County,Perkins,SD,H1,45.4905021,-102.4756359
1266991,46093,Meade County,Meade,SD,H1,44.5668319,-102.716866
1266992,46102,Oglala Lakota County,Oglala Lakota,SD,H1,43.3355805,-102.5516174
1266993,46137,Ziebach County,Ziebach,SD,H1,44.9804119,-101.6658571
1266994,46041,Dewey County,Dewey,SD,H1,45.1566166,-100.8718617
1266995,46103,Pennington County,Pennington,SD,H1,44.0037136,-102.823815
1266996,46081,Lawrence County,Lawrence,SD,H1,44.3586272,-103.7922245
1266997,46009,Bon Homme County,Bon Homme,SD,H1,42.9883723,-97.8846509
1266998,46117,Stanley County,Stanley,SD,H1,44.4123214,-100.7359432
1267177,46095,Mellette County,Mellette,SD,H1,43.5812588,-100.7600062
1383786,48001,Anderson County,Anderson,TX,H1,31.8133257,-95.6525472
1383787,48003,Andrews County,Andrews,TX,H1,32.3050357,-102.6378151
1383788,48005,Angelina County,Angelina,TX,H1,31.2547831,-94.6118635
1383789,48007,Aransas County,Aransas,TX,H1,28.0847204,-96.9914387
1383790,48009,Archer County,Archer,TX,H1,33.6152942,-98.6876748
1383791,48011,Armstrong County,Armstrong,TX,H1,34.9649256,-101.3574043
1383792,48013,Atascosa County,Atascosa,TX,H1,28.893525,-98.5271323
1383793,48015,Austin County,Austin,TX,H1,29.8870241,-96.2779089
1383794,48017,Bailey County,Bailey,TX,H1,34.068527,-102.8299131
1383795,48019,Bandera County,Bandera,TX,H1,29.747205,-99.2462441
1383796,48021,Bastrop County,Bastrop,TX,H1,30.1036109,-97.3120144
1383797,48023,Baylor County,Baylor,TX,H1,33.6164895,-99.2135151
1383798,48025,Bee County,Bee,TX,H1,28.4173932,-97.7411901
1383799,48027,Bell County,Bell,TX,H1,31.0373452,-97.478744
1383800,48029,Bexar County,Bexar,TX,H1,29.4489578,-98.5200259
1383801,48031,Blanco County,Blanco,TX,H1,30.2663769,-98.399865
1383802,48033,Borden County,Borden,TX,H1,32.7436942,-101.4317488
1383803,48035,Bosque County,Bosque,TX,H1,31.900417,-97.6343428
1383804,48037,Bowie County,Bowie,TX,H1,33.4457571,-94.4233324
1383805,48039,Brazoria County,Brazoria,TX,H1,29.1678447,-95.4342678
1383806,48041,Brazos County,Brazos,TX,H1,30.660799,-96.3023849
1383807,48043,Brewster County,Brewster,TX,H1,29.8119498,-103.2517559
1383808,48045,Briscoe County,Briscoe,TX,H1,34.5302641,-101.2085933
1383809,48047,Brooks County,Brooks,TX,H1,27.0315726,-98.2187211
1383810,48049,Brown County,Brown,TX,H1,31.7742624,-98.9997942
1383811,48051,Burleson County,Burleson,TX,H1,30.4924851,-96.6214707
1383812,48053,Burnet County,Burnet,TX,H1,30.7883727,-98.1823404
1383813,48055,Caldwell County,Caldwell,TX,H1,29.8368441,-97.6199194
1383814,48057,Calhoun County,Calhoun,TX,H1,28.4391093,-96.6150737
1383815,48059,Callahan County,Callahan,TX,H1,32.2976557,-99.3734881
1383816,48061,Cameron County,Cameron,TX,H1,26.1513412,-97.452968
1383817,48063,Camp County,Camp,TX,H1,32.9732247,-94.978477
1383818,48065,Carson County,Carson,TX,H1,35.4035079,-101.354183
1383819,48067,Cass County,Cass,TX,H1,33.0775346,-94.3435984
1383820,48069,Castro County,Castro,TX,H1,34.5299582,-102.2616699
1383821,48071,Chambers County,Chambers,TX,H1,29.708267,-94.6713632
1383822,48073,Cherokee County,Cherokee,TX,H1,31.8369546,-95.1651831
1383823,48075,Childress County,Childress,TX,H1,34.5292015,-100.2075749
1383824,48077,Clay County,Clay,TX,H1,33.785531,-98.2085033
1383825,48079,Cochran County,Cochran,TX,H1,33.6041424,-102.8284356
1383826,48081,Coke County,Coke,TX,H1,31.888531,-100.5299108
1383827,48083,Coleman County,Coleman,TX,H1,31.7732069,-99.4536377
1383828,48085,Collin County,Collin,TX,H1,33.1879921,-96.5724309
1383829,48087,Collingsworth County,Collingsworth,TX,H1,34.9648839,-100.2700659
1383830,48089,Colorado County,Colorado,TX,H1,29.6208209,-96.5262754
1383831,48091,Comal County,Comal,TX,H1,29.8081801,-98.2782455
1383832,48093,Comanche County,Comanche,TX,H1,31.9479781,-98.5582573
1383833,48095,Concho County,Concho,TX,H1,31.3264967,-99.8639623
1383834,48097,Cooke County,Cooke,TX,H1,33.6392003,-97.2126261
1383835,48099,Coryell County,Coryell,TX,H1,31.3909054,-97.7992197
1383836,48101,Cottle County,Cottle,TX,H1,34.0776482,-100.2787438
1383837,48103,Crane County,Crane,TX,H1,31.4284975,-102.5155684
1383838,48105,Crockett County,Crockett,TX,H1,30.7229831,-101.4121477
1383839,48107,Crosby County,Crosby,TX,H1,33.614625,-101.2999585
1383840,48109,Culberson County,Culberson,TX,H1,31.4470738,-104.51737
1383841,48111,Dallam County,Dallam,TX,H1,36.2778879,-102.6021856
1383842,48113,Dallas County,Dallas,TX,H1,32.766579,-96.7777941
1383843,48115,Dawson County,Dawson,TX,H1,32.7425261,-101.9476844
1383844,48123,DeWitt County,DeWitt,TX,H1,29.0820813,-97.3567784
1383845,48117,Deaf Smith County,Deaf Smith,TX,H1,34.966019,-102.6049268
1383846,48119,Delta County,Delta,TX,H1,33.3862927,-95.6722708
1383847,48121,Denton County,Denton,TX,H1,33.2055312,-97.1168152
1383848,48125,Dickens County,Dickens,TX,H1,33.6166121,-100.7788607
1383849,48127,Dimmit County,Dimmit,TX,H1,28.422536,-99.7567261
1383850,48129,Donley County,Donley,TX,H1,34.9654176,-100.8139916
1383851,48131,Duval County,Duval,TX,H1,27.681333,-98.5089061
1383852,48133,Eastland County,Eastland,TX,H1,32.3270731,-98.8323223
1383853,48135,Ector County,Ector,TX,H1,31.8691725,-102.5427492
1383854,48137,Edwards County,Edwards,TX,H1,29.9826329,-100.3047417
1383855,48141,El Paso County,El Paso,TX,H1,31.7686274,-106.2348175
1383856,48139,Ellis County,Ellis,TX,H1,32.3484352,-96.7946399
1383857,48143,Erath County,Erath,TX,H1,32.2362587,-98.2179667
1383858,48145,Falls County,Falls,TX,H1,31.2532621,-96.9358509
1383859,48147,Fannin County,Fannin,TX,H1,33.5938098,-96.1068277
1383860,48149,Fayette County,Fayette,TX,H1,29.8767868,-96.9197617
1383861,48151,Fisher County,Fisher,TX,H1,32.7428202,-100.4021681
1383862,48153,Floyd County,Floyd,TX,H1,34.0724246,-101.3032345
1383863,48155,Foard County,Foard,TX,H1,33.9746151,-99.7779849
1383864,48157,Fort Bend County,Fort Bend,TX,H1,29.5275114,-95.7709496
1383865,48159,Franklin County,Franklin,TX,H1,33.1755487,-95.2184194
1383866,48161,Freestone County,Freestone,TX,H1,31.7048941,-96.1490923
1383867,48163,Frio County,Frio,TX,H1,28.8678176,-99.1082668
1383868,48165,Gaines County,Gaines,TX,H1,32.7407277,-102.6351738
1383869,48167,Galveston County,Galveston,TX,H1,29.3799857,-94.8627217
1383870,48169,Garza County,Garza,TX,H1,33.1798757,-101.2984241
1383871,48171,Gillespie County,Gillespie,TX,H1,30.3180548,-98.94648
1383872,48173,Glasscock County,Glasscock,TX,H1,31.8694627,-101.5208022
1383873,48175,Goliad County,Goliad,TX,H1,28.6570952,-97.4264923
1383874,48177,Gonzales County,Gonzales,TX,H1,29.4567333,-97.4925238
1383875,48179,Gray County,Gray,TX,H1,35.4011633,-100.812558
1383876,48181,Grayson County,Grayson,TX,H1,33.6268086,-96.6777254
1383877,48183,Gregg County,Gregg,TX,H1,32.4804706,-94.8169478
1383878,48185,Grimes County,Grimes,TX,H1,30.5434715,-95.985503
1383879,48187,Guadalupe County,Guadalupe,TX,H1,29.583051,-97.9485847
1383880,48189,Hale County,Hale,TX,H1,34.0705125,-101.8268813
1383881,48191,Hall County,Hall,TX,H1,34.5307791,-100.6811286
1383882,48193,Hamilton County,Hamilton,TX,H1,31.7048031,-98.1107258
1383883,48195,Hansford County,Hansford,TX,H1,36.2774545,-101.3545392
1383884,48197,Hardeman County,Hardeman,TX,H1,34.2902939,-99.7457167
1383885,48199,Hardin County,Hardin,TX,H1,30.3323773,-94.3902288
1383886,48201,Harris County,Harris,TX,H1,29.8572825,-95.3923159
1383887,48203,Harrison County,Harrison,TX,H1,32.5481332,-94.3714866
1383888,48205,Hartley County,Hartley,TX,H1,35.840026,-102.6028628
1383889,48207,Haskell County,Haskell,TX,H1,33.1782313,-99.7303
1383890,48209,Hays County,Hays,TX,H1,30.0578875,-98.0311552
1383891,48211,Hemphill County,Hemphill,TX,H1,35.8375699,-100.2704733
1383892,48213,Henderson County,Henderson,TX,H1,32.2119087,-95.853617
1383893,48215,Hidalgo County,Hidalgo,TX,H1,26.3967285,-98.1810872
1383894,48217,Hill County,Hill,TX,H1,31.9906865,-97.1324269
1383895,48219,Hockley County,Hockley,TX,H1,33.6076427,-102.3431972
1383896,48221,Hood County,Hood,TX,H1,32.4299263,-97.832258
1383897,48223,Hopkins County,Hopkins,TX,H1,33.1495559,-95.5639502
1383898,48225,Houston County,Houston,TX,H1,31.3177326,-95.4226772
1383899,48227,Howard County,Howard,TX,H1,32.3061695,-101.4355055
1383900,48229,Hudspeth County,Hudspeth,TX,H1,31.4561407,-105.3864561
1383901,48231,Hunt County,Hunt,TX,H1,33.1235953,-96.0854546
1383902,48233,Hutchinson County,Hutchinson,TX,H1,35.840026,-101.3546994
1383903,48235,Irion County,Irion,TX,H1,31.303925,-100.9824193
1383904,48237,Jack County,Jack,TX,H1,33.2334606,-98.1724586
1383905,48239,Jackson County,Jackson,TX,H1,28.9542442,-96.5776809
1383906,48241,Jasper County,Jasper,TX,H1,30.7439606,-94.025085
1383907,48243,Jeff Davis County,Jeff Davis,TX,H1,30.7154778,-104.1400198
1383908,48245,Jefferson County,Jefferson,TX,H1,29.8537453,-94.1534362
1383909,48247,Jim Hogg County,Jim Hogg,TX,H1,27.0433971,-98.6973051
1383910,48249,Jim Wells County,Jim Wells,TX,H1,27.731338,-98.0898862
1383911,48251,Johnson County,Johnson,TX,H1,32.3790004,-97.3665472
1383912,48253,Jones County,Jones,TX,H1,32.7399039,-99.8787442
1383913,48255,Karnes County,Karnes,TX,H1,28.905739,-97.8594018
1383914,48257,Kaufman County,Kaufman,TX,H1,32.5993091,-96.2877948
1383915,48259,Kendall County,Kendall,TX,H1,29.9446889,-98.7115552
1383916,48261,Kenedy County,Kenedy,TX,H1,26.9280229,-97.6364612
1383917,48263,Kent County,Kent,TX,H1,33.1814152,-100.7775694
1383918,48265,Kerr County,Kerr,TX,H1,30.0614838,-99.3501598
1383919,48267,Kimble County,Kimble,TX,H1,30.4867787,-99.7486956
1383920,48269,King County,King,TX,H1,33.6164758,-100.2558501
1383921,48271,Kinney County,Kinney,TX,H1,29.3502076,-100.4179466
1383922,48273,Kleberg County,Kleberg,TX,H1,27.4267108,-97.6683878
1383923,48275,Knox County,Knox,TX,H1,33.6061291,-99.741427
1383924,48283,La Salle County,La Salle,TX,H1,28.3450693,-99.0996627
1383925,48277,Lamar County,Lamar,TX,H1,33.667262,-95.5712007
1383926,48279,Lamb County,Lamb,TX,H1,34.0686231,-102.3517105
1383927,48281,Lampasas County,Lampasas,TX,H1,31.1962339,-98.2414397
1383928,48285,Lavaca County,Lavaca,TX,H1,29.3843544,-96.9301525
1383929,48287,Lee County,Lee,TX,H1,30.3106797,-96.9657045
1383930,48289,Leon County,Leon,TX,H1,31.2965068,-95.9956907
1383931,48291,Liberty County,Liberty,TX,H1,30.1516121,-94.8122123
1383932,48293,Limestone County,Limestone,TX,H1,31.5454642,-96.5805297
1383933,48295,Lipscomb County,Lipscomb,TX,H1,36.2777169,-100.2731154
1383934,48297,Live Oak County,Live Oak,TX,H1,28.3513711,-98.1247856
1383935,48299,Llano County,Llano,TX,H1,30.70574,-98.6840973
1383936,48301,Loving County,Loving,TX,H1,31.8491922,-103.5798991
1383937,48303,Lubbock County,Lubbock,TX,H1,33.6102061,-101.8205458
1383938,48305,Lynn County,Lynn,TX,H1,33.1768244,-101.8161238
1383939,48313,Madison County,Madison,TX,H1,30.9655386,-95.9284101
1383940,48315,Marion County,Marion,TX,H1,32.7979818,-94.3572222
1383941,48317,Martin County,Martin,TX,H1,32.3060301,-101.9512168
1383942,48319,Mason County,Mason,TX,H1,30.7177158,-99.2261274
1383943,48321,Matagorda County,Matagorda,TX,H1,28.7856506,-96.0039808
1383944,48323,Maverick County,Maverick,TX,H1,28.7425901,-100.3145142
1383945,48307,McCulloch County,McCulloch,TX,H1,31.1988711,-99.3474784
1383946,48309,McLennan County,McLennan,TX,H1,31.5523801,-97.2017866
1383947,48311,McMullen County,McMullen,TX,H1,28.352688,-98.5678411
1383948,48325,Medina County,Medina,TX,H1,29.355696,-99.110131
1383949,48327,Menard County,Menard,TX,H1,30.889782,-99.8206359
1383950,48329,Midland County,Midland,TX,H1,31.8691599,-102.0316093
1383951,48331,Milam County,Milam,TX,H1,30.7863024,-96.9768264
1383952,48333,Mills County,Mills,TX,H1,31.4951912,-98.5954584
1383953,48335,Mitchell County,Mitchell,TX,H1,32.3062118,-100.9212287
1383954,48337,Montague County,Montague,TX,H1,33.6756266,-97.7246531
1383955,48339,Montgomery County,Montgomery,TX,H1,30.3002081,-95.5030086
1383956,48341,Moore County,Moore,TX,H1,35.8376873,-101.8929228
1383957,48343,Morris County,Morris,TX,H1,33.1134826,-94.7326504
1383958,48345,Motley County,Motley,TX,H1,34.0740948,-100.779829
1383959,48347,Nacogdoches County,Nacogdoches,TX,H1,31.6159522,-94.6158692
1383960,48349,Navarro County,Navarro,TX,H1,32.0469429,-96.4724864
1383961,48351,Newton County,Newton,TX,H1,30.7863092,-93.744741
1383962,48353,Nolan County,Nolan,TX,H1,32.3034903,-100.4060525
1383963,48355,Nueces County,Nueces,TX,H1,27.7350488,-97.5162347
1383964,48357,Ochiltree County,Ochiltree,TX,H1,36.2784137,-100.815654
1383965,48359,Oldham County,Oldham,TX,H1,35.4050346,-102.6028706
1383966,48361,Orange County,Orange,TX,H1,30.1213135,-93.8938761
1383967,48363,Palo Pinto County,Palo Pinto,TX,H1,32.7531804,-98.3130214
1383968,48365,Panola County,Panola,TX,H1,32.1623552,-94.3056399
1383969,48367,Parker County,Parker,TX,H1,32.7776458,-97.8050967
1383970,48369,Parmer County,Parmer,TX,H1,34.5301129,-102.7845389
1383971,48371,Pecos County,Pecos,TX,H1,30.7810605,-102.7235703
1383972,48373,Polk County,Polk,TX,H1,30.7927198,-94.8300249
1383973,48375,Potter County,Potter,TX,H1,35.4012758,-101.8940049
1383974,48377,Presidio County,Presidio,TX,H1,29.9998027,-104.2405217
1383975,48379,Rains County,Rains,TX,H1,32.8703394,-95.7933763
1383976,48381,Randall County,Randall,TX,H1,34.965857,-101.8969445
1383977,48383,Reagan County,Reagan,TX,H1,31.3661921,-101.5230084
1383978,48385,Real County,Real,TX,H1,29.8317429,-99.8221669
1383979,48387,Red River County,Red River,TX,H1,33.6206818,-95.0503607
1383980,48389,Reeves County,Reeves,TX,H1,31.3231862,-103.6931673
1383981,48391,Refugio County,Refugio,TX,H1,28.3215753,-97.1595215
1383982,48393,Roberts County,Roberts,TX,H1,35.8384917,-100.8134441
1383983,48395,Robertson County,Robertson,TX,H1,31.027013,-96.5128812
1383984,48397,Rockwall County,Rockwall,TX,H1,32.897852,-96.4078833
1383985,48399,Runnels County,Runnels,TX,H1,31.8310952,-99.9762313
1383986,48401,Rusk County,Rusk,TX,H1,32.1076792,-94.7618456
1383987,48403,Sabine County,Sabine,TX,H1,31.3431999,-93.8518024
1383988,48405,San Augustine County,San Augustine,TX,H1,31.3942198,-94.1681937
1383989,48407,San Jacinto County,San Jacinto,TX,H1,30.5795336,-95.1669012
1383990,48409,San Patricio County,San Patricio,TX,H1,28.0088111,-97.5183058
1383991,48411,San Saba County,San Saba,TX,H1,31.1551946,-98.8175511
1383992,48413,Schleicher County,Schleicher,TX,H1,30.8974526,-100.538546
1383993,48415,Scurry County,Scurry,TX,H1,32.7463149,-100.9164071
1383994,48417,Shackelford County,Shackelford,TX,H1,32.7359729,-99.3540669
1383995,48419,Shelby County,Shelby,TX,H1,31.7924089,-94.1450176
1383996,48421,Sherman County,Sherman,TX,H1,36.2776669,-101.893467
1383997,48423,Smith County,Smith,TX,H1,32.3750354,-95.2691827
1383998,48425,Somervell County,Somervell,TX,H1,32.2222153,-97.7745534
1383999,48427,Starr County,Starr,TX,H1,26.562153,-98.7383996
1384000,48429,Stephens County,Stephens,TX,H1,32.735865,-98.8361732
1384001,48431,Sterling County,Sterling,TX,H1,31.8278792,-101.050008
1384002,48433,Stonewall County,Stonewall,TX,H1,33.1791244,-100.2533055
1384003,48435,Sutton County,Sutton,TX,H1,30.498293,-100.5381875
1384004,48437,Swisher County,Swisher,TX,H1,34.530385,-101.7350268
1384005,48439,Tarrant County,Tarrant,TX,H1,32.7719235,-97.2911312
1384006,48441,Taylor County,Taylor,TX,H1,32.301472,-99.8901221
1384007,48443,Terrell County,Terrell,TX,H1,30.2249616,-102.0764865
1384008,48445,Terry County,Terry,TX,H1,33.1738127,-102.3351966
1384009,48447,Throckmorton County,Throckmorton,TX,H1,33.1774899,-99.2123699
1384010,48449,Titus County,Titus,TX,H1,33.216603,-94.9656722
1384011,48451,Tom Green County,Tom Green,TX,H1,31.4043993,-100.4620728
1384012,48453,Travis County,Travis,TX,H1,30.3343762,-97.7819573
1384013,48455,Trinity County,Trinity,TX,H1,31.0888152,-95.1355105
1384014,48457,Tyler County,Tyler,TX,H1,30.7712321,-94.3765939
1384015,48459,Upshur County,Upshur,TX,H1,32.7362765,-94.9414845
1384016,48461,Upton County,Upton,TX,H1,31.3687302,-102.0430349
1384017,48463,Uvalde County,Uvalde,TX,H1,29.3573362,-99.7622053
1384018,48465,Val Verde County,Val Verde,TX,H1,29.8929601,-101.1517152
1384019,48467,Van Zandt County,Van Zandt,TX,H1,32.5637167,-95.8365161
1384020,48469,Victoria County,Victoria,TX,H1,28.7963515,-96.9715253
1384021,48471,Walker County,Walker,TX,H1,30.7390449,-95.5722839
1384022,48473,Waller County,Waller,TX,H1,30.0107893,-95.9876415
1384023,48475,Ward County,Ward,TX,H1,31.5094656,-103.1024252
1384024,48477,Washington County,Washington,TX,H1,30.2145304,-96.4034438
1384025,48479,Webb County,Webb,TX,H1,27.7610624,-99.3315653
1384026,48481,Wharton County,Wharton,TX,H1,29.2778616,-96.2221042
1384027,48483,Wheeler County,Wheeler,TX,H1,35.4012788,-100.2696475
1384028,48485,Wichita County,Wichita,TX,H1,33.987997,-98.7035508
1384029,48487,Wilbarger County,Wilbarger,TX,H1,34.0807261,-99.2410548
1384030,48489,Willacy County,Willacy,TX,H1,26.4769663,-97.5916576
1384031,48491,Williamson County,Williamson,TX,H1,30.6475226,-97.6004038
1384032,48493,Wilson County,Wilson,TX,H1,29.1740061,-98.0865733
1384033,48495,Winkler County,Winkler,TX,H1,31.8500446,-103.0481691
1384034,48497,Wise County,Wise,TX,H1,33.2158996,-97.6544621
1384035,48499,Wood County,Wood,TX,H1,32.7864051,-95.382062
1384036,48501,Yoakum County,Yoakum,TX,H1,33.1729746,-102.8277961
1384037,48503,Young County,Young,TX,H1,33.1766958,-98.6877666
1384038,48505,Zapata County,Zapata,TX,H1,27.0007782,-99.1686128
1384039,48507,Zavala County,Zavala,TX,H1,28.8662114,-99.7605957
1416061,02020,Anchorage Municipality,Anchorage,AK,H6,61.1483033,-149.1900081
1419964,02013,Aleutians East Borough,Aleutians East,AK,H1,55.224521,-161.9472287
1419965,02016,Aleutians West Census Area,Aleutians West,AK,H5,52.2586699,-174.192307
1419966,02050,Bethel Census Area,Bethel,AK,H5,60.8490108,-160.1958336
1419967,02060,Bristol Bay Borough,Bristol Bay,AK,H1,58.7332561,-156.9810152
1419968,02070,Dillingham Census Area,Dillingham,AK,H5,59.7139951,-158.3482702
1419969,02090,Fairbanks North Star Borough,Fairbanks North Star,AK,H1,64.8077662,-146.5654229
1419970,02100,Haines Borough,Haines,AK,H1,59.0758951,-135.4700922
1419971,02110,Juneau City and Borough,Juneau,AK,H6,58.4439352,-134.2303392
1419972,02122,Kenai Peninsula Borough,Kenai Peninsula,AK,H1,60.1194173,-151.6980545
1419973,02130,Ketchikan Gateway Borough,Ketchikan Gateway,AK,H1,55.4885149,-131.0305103
1419974,02150,Kodiak Island Borough,Kodiak Island,AK,H1,57.6628112,-153.7575159
1419975,02164,Lake and Peninsula Borough,Lake and Peninsula,AK,H1,58.2790732,-156.5473173
1419976,02170,Matanuska-Susitna Borough,Matanuska-Susitna,AK,H1,62.3042444,-149.5814755
1419977,02180,Nome Census Area,Nome,AK,H5,64.8354505,-164.2443226
1419978,02185,North Slope Borough,North Slope,AK,H1,69.3634118,-153.5106055
1419979,02188,Northwest Arctic Borough,Northwest Arctic,AK,H1,67.0081724,-160.0069785
1419980,02198,Prince of Wales-Hyder Census Area,Prince of Wales-Hyder,AK,H5,55.7271705,-133.1930259
1419981,02220,Sitka City and Borough,Sitka,AK,H6,57.1797758,-135.3049651
1419983,02240,Southeast Fairbanks Census Area,Southeast Fairbanks,AK,H5,63.8761551,-143.2129807
1419985,02158,Kusilvak Census Area,Kusilvak,AK,H5,62.1600127,-163.5254648
1419986,02282,Yakutat City and Borough,Yakutat,AK,H1,59.8632076,-140.3810186
1419987,02290,Yukon-Koyukuk Census Area,Yukon-Koyukuk,AK,H5,65.5086554,-151.3896144
1419988,02068,Denali Borough,Denali,AK,H1,63.671514,-150.0116573
1448015,49001,Beaver County,Beaver,UT,H1,38.3570138,-113.2357201
1448017,49005,Cache County,Cache,UT,H1,41.7224447,-111.7436181
1448018,49007,Carbon County,Carbon,UT,H1,39.6481447,-110.5887914
1448019,49009,Daggett County,Daggett,UT,H1,40.8873366,-109.5077084
1448020,49011,Davis County,Davis,UT,H1,40.9900668,-112.1113754
1448021,49013,Duchesne County,Duchesne,UT,H1,40.2982636,-110.4252186
1448022,49015,Emery County,Emery,UT,H1,38.9967307,-110.7005974
1448023,49017,Garfield County,Garfield,UT,H1,37.8548922,-111.4432689
1448024,49019,Grand County,Grand,UT,H1,38.9819584,-109.569792
1448025,49021,Iron County,Iron,UT,H1,37.8591935,-113.2894993
1448026,49025,Kane County,Kane,UT,H1,37.2850587,-111.8879148
1448027,49027,Millard County,Millard,UT,H1,39.0732857,-113.1007006
1448028,49029,Morgan County,Morgan,UT,H1,41.0893114,-111.5731647
1448029,49031,Piute County,Piute,UT,H1,38.3366638,-112.1271905
1448030,49033,Rich County,Rich,UT,H1,41.6322742,-111.2445048
1448031,49035,Salt Lake County,Salt Lake,UT,H1,40.6673074,-111.9236058
1448032,49037,San Juan County,San Juan,UT,H1,37.6259203,-109.8046845
1448033,49039,Sanpete County,Sanpete,UT,H1,39.373913,-111.5763635
1448034,49041,Sevier County,Sevier,UT,H1,38.7477758,-111.8045174
1448035,49043,Summit County,Summit,UT,H1,40.8681935,-110.9558934
1448036,49045,Tooele County,Tooele,UT,H1,40.4487483,-113.1310914
1448037,49047,Uintah County,Uintah,UT,H1,40.1248492,-109.5186329
1448038,49049,Utah County,Utah,UT,H1,40.1199502,-111.6703059
1448039,49051,Wasatch County,Wasatch,UT,H1,40.3307946,-111.1682001
1448040,49053,Washington County,Washington,UT,H1,37.2804169,-113.5046737
1448041,49055,Wayne County,Wayne,UT,H1,38.3243717,-110.9036544
1448042,49057,Weber County,Weber,UT,H1,41.26986,-111.9133418
1455158,49023,Juab County,Juab,UT,H1,39.7027045,-112.7847751
1455966,49003,Box Elder County,Box Elder,UT,H1,41.521018,-113.0820227
1461757,50001,Addison County,Addison,VT,H1,44.0308719,-73.1409216
1461758,50003,Bennington County,Bennington,VT,H1,43.0354177,-73.0931561
1461759,50005,Caledonia County,Caledonia,VT,H1,44.4647597,-72.1021133
1461760,50007,Chittenden County,Chittenden,VT,H1,44.4610426,-73.0812499
1461761,50009,Essex County,Essex,VT,H1,44.7275391,-71.7358817
1461762,50011,Franklin County,Franklin,VT,H1,44.857646,-72.9132012
1461763,50013,Grand Isle County,Grand Isle,VT,H1,44.7980467,-73.2948245
1461764,50015,Lamoille County,Lamoille,VT,H1,44.60705,-72.6418533
1461765,50017,Orange County,Orange,VT,H1,44.0056324,-72.3768072
1461766,50019,Orleans County,Orleans,VT,H1,44.829009,-72.2436481
1461767,50021,Rutland County,Rutland,VT,H1,43.5801529,-73.0363742
1461768,50023,Washington County,Washington,VT,H1,44.2735811,-72.6147474
1461769,50025,Windham County,Windham,VT,H1,42.9905558,-72.7139372
1461770,50027,Windsor County,Windsor,VT,H1,43.5798684,-72.5861513
1480091,51001,Accomack County,Accomack,VA,H1,37.764939,-75.7565571
1480095,51009,Amherst County,Amherst,VA,H1,37.6047919,-79.1451431
1480097,51013,Arlington County,Arlington,VA,H1,38.8785835,-77.1009715
1480098,51015,Augusta County,Augusta,VA,H1,38.1644265,-79.1338545
1480107,51033,Caroline County,Caroline,VA,H1,38.0267029,-77.3471376
1480108,51035,Carroll County,Carroll,VA,H1,36.7315541,-80.7339025
1480109,51036,Charles City County,Charles City,VA,H1,37.3543506,-77.0591278
1480111,51041,Chesterfield County,Chesterfield,VA,H1,37.3785177,-77.5869172
1480118,51057,Essex County,Essex,VA,H1,37.9391743,-76.9410653
1480119,51059,Fairfax County,Fairfax,VA,H1,38.8345659,-77.2762195
1480120,51061,Fauquier County,Fauquier,VA,H1,38.7386464,-77.8092394
1480124,51069,Frederick County,Frederick,VA,H1,39.2046115,-78.2625592
1480126,51073,Gloucester County,Gloucester,VA,H1,37.4012086,-76.5229667
1480129,51079,Greene County,Greene,VA,H1,38.297612,-78.4668595
1480132,51085,Hanover County,Hanover,VA,H1,37.7601013,-77.4909549
1480133,51087,Henrico County,Henrico,VA,H1,37.457705,-77.2965863
1480135,51095,James City County,James City,VA,H1,37.3133377,-76.7738671
1480136,51097,King and Queen County,King and Queen,VA,H1,37.7186361,-76.8952825
1480137,51099,King George County,King George,VA,H1,38.2737275,-77.1564527
1480138,51101,King William County,King William,VA,H1,37.7065931,-77.0885219
1480139,51103,Lancaster County,Lancaster,VA,H1,37.7017156,-76.4202281
1480141,51107,Loudoun County,Loudoun,VA,H1,39.0906759,-77.6357054
1480145,51115,Mathews County,Mathews,VA,H1,37.4173109,-76.2712865
1480147,51119,Middlesex County,Middlesex,VA,H1,37.6227078,-76.5059133
1480150,51127,New Kent County,New Kent,VA,H1,37.5052106,-76.9973394
1480151,51131,Northampton County,Northampton,VA,H1,37.3007843,-75.9285418
1480152,51133,Northumberland County,Northumberland,VA,H1,37.8546676,-76.3795214
1480157,51143,Pittsylvania County,Pittsylvania,VA,H1,36.8212977,-79.3971194
1480160,51149,Prince George County,Prince George,VA,H1,37.1865097,-77.2241522
1480161,51153,Prince William County,Prince William,VA,H1,38.7015918,-77.4776851
1480164,51159,Richmond County,Richmond,VA,H1,37.9370591,-76.7296873
1480165,51161,Roanoke County,Roanoke,VA,H1,37.2087995,-80.050863
1480166,51163,Rockbridge County,Rockbridge,VA,H1,37.8144891,-79.4472821
1480171,51175,Southampton County,Southampton,VA,H1,36.7204,-77.1061008
1480172,51177,Spotsylvania County,Spotsylvania,VA,H1,38.185111,-77.6560945
1480173,51179,Stafford County,Stafford,VA,H1,38.420719,-77.4574004
1480174,51181,Surry County,Surry,VA,H1,37.1169122,-76.8883096
1480179,51193,Westmoreland County,Westmoreland,VA,H1,38.112805,-76.7998633
1480182,51199,York County,York,VA,H1,37.2347603,-76.2905178
1488970,51165,Rockingham County,Rockingham,VA,H1,38.51201,-78.8757518
1492239,51111,Lunenburg County,Lunenburg,VA,H1,36.9462101,-78.2405659
1492359,51147,Prince Edward County,Prince Edward,VA,H1,37.2243022,-78.4410828
1492442,51037,Charlotte County,Charlotte,VA,H1,37.0116207,-78.6616436
1493928,51135,Nottoway County,Nottoway,VA,H1,37.1430626,-78.0512637
1493961,51025,Brunswick County,Brunswick,VA,H1,36.7647499,-77.85903
1494061,51065,Fluvanna County,Fluvanna,VA,H1,37.8418946,-78.2771864
1494109,51049,Cumberland County,Cumberland,VA,H1,37.5121008,-78.2449583
1494354,51063,Floyd County,Floyd,VA,H1,36.9316013,-80.3625657
1494434,51067,Franklin County,Franklin,VA,H1,36.9919552,-79.8810639
1494551,51071,Giles County,Giles,VA,H1,37.3142566,-80.7029369
1494590,51113,Madison County,Madison,VA,H1,38.4137038,-78.2792244
1494613,51021,Bland County,Bland,VA,H1,37.1339864,-81.1302139
1494707,51109,Louisa County,Louisa,VA,H1,37.9785736,-77.9629622
1494761,51137,Orange County,Orange,VA,H1,38.246097,-78.0139979
1496538,51105,Lee County,Lee,VA,H1,36.7054264,-83.1286183
1496656,51195,Wise County,Wise,VA,H1,36.9752223,-82.6212047
1496705,51083,Halifax County,Halifax,VA,H1,36.7669858,-78.9366028
1497238,51011,Appomattox County,Appomattox,VA,H1,37.3723569,-78.8125507
1497376,51051,Dickenson County,Dickenson,VA,H1,37.1257911,-82.3503532
1497431,51027,Buchanan County,Buchanan,VA,H1,37.2666156,-82.0360147
1497573,51167,Russell County,Russell,VA,H1,36.9338703,-82.0953584
1497748,51185,Tazewell County,Tazewell,VA,H1,37.124978,-81.5605967
1497770,51007,Amelia County,Amelia,VA,H1,37.336026,-77.9761379
1497831,51047,Culpeper County,Culpeper,VA,H1,38.486039,-77.9558215
1497999,51141,Patrick County,Patrick,VA,H1,36.6783637,-80.2842746
1498172,51169,Scott County,Scott,VA,H1,36.7142829,-82.6029223
1498359,51191,Washington County,Washington,VA,H1,36.7244517,-81.9598382
1498415,51510,City of Alexandria,Alexandria (city),VA,C7,38.818453,-77.0862039
1498416,51520,City of Bristol,Bristol (city),VA,C7,36.6180379,-82.1605389
1498417,51530,City of Buena Vista,Buena Vista (city),VA,C7,37.7319276,-79.3568295
1498420,51570,City of Colonial Heights,Colonial Heights (city),VA,C7,37.2650061,-77.3968816
1498421,51590,City of Danville,Danville (city),VA,C7,36.5831913,-79.4088068
1498422,51595,City of Emporia,Emporia (city),VA,C7,36.6953299,-77.5356107
1498423,51610,City of Falls Church,Falls Church (city),VA,C7,38.8847267,-77.1751638
1498424,51620,City of Franklin,Franklin (city),VA,C7,36.6830915,-76.9385846
1498425,51630,City of Fredericksburg,Fredericksburg (city),VA,C7,38.2991926,-77.4871505
1498426,51640,City of Galax,Galax (city),VA,C7,36.6660407,-80.917588
1498428,51670,City of Hopewell,Hopewell (city),VA,C7,37.2914862,-77.2984913
1498429,51680,City of Lynchburg,Lynchburg (city),VA,C7,37.4002849,-79.1908563
1498430,51683,City of Manassas,Manassas (city),VA,C7,38.7478618,-77.4838178
1498431,51685,City of Manassas Park,Manassas Park (city),VA,C7,38.7709632,-77.4429711
1498434,51720,City of Norton,Norton (city),VA,C7,36.9315355,-82.6262015
1498435,51730,City of Petersburg,Petersburg (city),VA,C7,37.204266,-77.3913376
1498436,51735,City of Poquoson,Poquoson (city),VA,C7,37.1502783,-76.2705
1498438,51750,City of Radford,Radford (city),VA,C7,37.1228912,-80.558749
1498439,51770,City of Roanoke,Roanoke (city),VA,C7,37.2784856,-79.9580837
1498443,51820,City of Waynesboro,Waynesboro (city),VA,C7,38.0674166,-78.9013542
1498554,51650,City of Hampton,Hampton (city),VA,C7,37.0487627,-76.2953841
1498555,51700,City of Newport News,Newport News (city),VA,C7,37.0760498,-76.5164597
1498556,51740,City of Portsmouth,Portsmouth (city),VA,C7,36.8590008,-76.3567086
1498557,51710,City of Norfolk,Norfolk (city),VA,C7,36.9233401,-76.2456337
1498558,51550,City of Chesapeake,Chesapeake (city),VA,C7,36.6777445,-76.3024183
1498559,51810,City of Virginia Beach,Virginia Beach,VA,C7,36.7777632,-76.0163281
1498560,51800,City of Suffolk,Suffolk (city),VA,C7,36.7018433,-76.634046
1498563,51660,City of Harrisonburg,Harrisonburg (city),VA,C7,38.4361962,-78.8734712
1500440,51139,Page County,Page,VA,H1,38.6194232,-78.484398
1500545,51173,Smyth County,Smyth,VA,H1,36.8437404,-81.5369666
1500747,51117,Mecklenburg County,Mecklenburg,VA,H1,36.680361,-78.3626942
1500936,51125,Nelson County,Nelson,VA,H1,37.7873807,-78.8868222
1501122,51081,Greensville County,Greensville,VA,H1,36.6758561,-77.5595929
1501196,51077,Grayson County,Grayson,VA,H1,36.6565174,-81.2248911
1501379,51197,Wythe County,Wythe,VA,H1,36.9171119,-81.0786676
1501465,51155,Pulaski County,Pulaski,VA,H1,37.0635611,-80.7143856
1501502,51029,Buckingham County,Buckingham,VA,H1,37.5722078,-78.5287073
1502770,51089,Henry County,Henry,VA,H1,36.6847288,-79.9815187
1513272,53029,Island County,Island,WA,H1,48.162897,-122.575263
1513273,53013,Columbia County,Columbia,WA,H1,46.2974983,-117.9078422
1513274,53049,Pacific County,Pacific,WA,H1,46.5514253,-123.7796674
1513275,53069,Wahkiakum County,Wahkiakum,WA,H1,46.2911338,-123.4334699
1513302,53005,Benton County,Benton,WA,H1,46.239861,-119.5111272
1514052,53043,Lincoln County,Lincoln,WA,H1,47.5762161,-118.418729
1529156,53015,Cowlitz County,Cowlitz,WA,H1,46.1932195,-122.6809745
1529157,53051,Pend Oreille County,Pend Oreille,WA,H1,48.5323187,-117.2740016
1529159,53053,Pierce County,Pierce,WA,H1,47.0376054,-122.1372228
1529219,53039,Klickitat County,Klickitat,WA,H1,45.8738054,-120.7892073
1529220,53059,Skamania County,Skamania,WA,H1,46.0229947,-121.9147802
1529221,53045,Mason County,Mason,WA,H1,47.3505351,-123.1830098
1529222,53061,Snohomish County,Snohomish,WA,H1,48.0460953,-121.7223467
1529223,53035,Kitsap County,Kitsap,WA,H1,47.6396466,-122.6491764
1529224,53073,Whatcom County,Whatcom,WA,H1,48.8296162,-121.8728131
1529225,53063,Spokane County,Spokane,WA,H1,47.6207525,-117.4039717
1529226,53067,Thurston County,Thurston,WA,H1,46.9296269,-122.8322937
1531341,53009,Clallam County,Clallam,WA,H1,48.1102917,-123.9342139
1531402,53057,Skagit County,Skagit,WA,H1,48.4820761,-121.8016068
1531601,53001,Adams County,Adams,WA,H1,46.9833438,-118.5606331
1531818,53017,Douglas County,Douglas,WA,H1,47.7361089,-119.6917746
1531819,53071,Walla Walla County,Walla Walla,WA,H1,46.2298432,-118.4784031
1531820,53011,Clark County,Clark,WA,H1,45.7791446,-122.482578
1531821,53019,Ferry County,Ferry,WA,H1,48.4701453,-118.5165862
1531822,53021,Franklin County,Franklin,WA,H1,46.5347308,-118.8988424
1531823,53027,Grays Harbor County,Grays Harbor,WA,H1,47.1444091,-123.8286208
1531924,53025,Grant County,Grant,WA,H1,47.2056647,-119.4517617
1531926,53037,Kittitas County,Kittitas,WA,H1,47.1242662,-120.6796832
1531927,53041,Lewis County,Lewis,WA,H1,46.5777682,-122.3926383
1531928,53047,Okanogan County,Okanogan,WA,H1,48.5487153,-119.7408564
1531929,53077,Yakima County,Yakima,WA,H1,46.4570264,-120.7384904
1531930,53065,Stevens County,Stevens,WA,H1,48.3991067,-117.8551937
1531931,53055,San Juan County,San Juan,WA,H1,48.5631855,-122.9775124
1531932,53007,Chelan County,Chelan,WA,H1,47.8692071,-120.6189735
1531933,53033,King County,King,WA,H1,47.4909232,-121.8359517
1531936,53031,Jefferson County,Jefferson,WA,H1,47.7764367,-123.5764738
1533500,53023,Garfield County,Garfield,WA,H1,46.4315588,-117.5451693
1533501,53075,Whitman County,Whitman,WA,H1,46.901202,-117.5230577
1533502,53003,Asotin County,Asotin,WA,H1,46.191801,-117.203075
1550008,54003,Berkeley County,Berkeley,WV,H1,39.4640665,-78.0275429
1550009,54005,Boone County,Boone,WV,H1,38.0229966,-81.7112126
1550010,54007,Braxton County,Braxton,WV,H1,38.6998727,-80.7192881
1550012,54011,Cabell County,Cabell,WV,H1,38.4202969,-82.2417167
1550014,54015,Clay County,Clay,WV,H1,38.462532,-81.0750875
1550025,54037,Jefferson County,Jefferson,WV,H1,39.3076166,-77.862736
1550026,54039,Kanawha County,Kanawha,WV,H1,38.3365517,-81.5281023
1550027,54041,Lewis County,Lewis,WV,H1,38.9958677,-80.5021593
1550028,54043,Lincoln County,Lincoln,WV,H1,38.1753393,-82.0703918
1550029,54045,Logan County,Logan,WV,H1,37.8315084,-81.9353213
1550036,54059,Mingo County,Mingo,WV,H1,37.726404,-82.1347612
1550037,54061,Monongalia County,Monongalia,WV,H1,39.6302839,-80.0465442
1550040,54067,Nicholas County,Nicholas,WV,H1,38.2917015,-80.7993281
1550042,54071,Pendleton County,Pendleton,WV,H1,38.6807284,-79.3508936
1550044,54075,Pocahontas County,Pocahontas,WV,H1,38.3317953,-80.0077525
1550046,54079,Putnam County,Putnam,WV,H1,38.5086168,-81.9089929
1550047,54081,Raleigh County,Raleigh,WV,H1,37.7713644,-81.2486358
1550048,54083,Randolph County,Randolph,WV,H1,38.7747231,-79.8757956
1550050,54087,Roane County,Roane,WV,H1,38.7140256,-81.3483495
1550056,54099,Wayne County,Wayne,WV,H1,38.1459487,-82.4269496
1550057,54101,Webster County,Webster,WV,H1,38.4947373,-80.4218731
1550061,54109,Wyoming County,Wyoming,WV,H1,37.6096118,-81.5491772
1557518,54025,Greenbrier County,Greenbrier,WV,H1,37.9469326,-80.4529547
1557645,54055,Mercer County,Mercer,WV,H1,37.405515,-81.1114445
1557702,54063,Monroe County,Monroe,WV,H1,37.5603718,-80.550554
1557805,54089,Summers County,Summers,WV,H1,37.6558701,-80.8585747
1557950,54065,Morgan County,Morgan,WV,H1,39.5604331,-78.2577317
1558262,54009,Brooke County,Brooke,WV,H1,40.2738181,-80.5764203
1558642,54077,Preston County,Preston,WV,H1,39.4692969,-79.668162
1559963,54035,Jackson County,Jackson,WV,H1,38.8344683,-81.6747943
1560095,54019,Fayette County,Fayette,WV,H1,38.0287751,-81.0811564
1560254,54053,Mason County,Mason,WV,H1,38.7697358,-82.026538
1560558,54107,Wood County,Wood,WV,H1,39.2111317,-81.5149653
1560574,54029,Hancock County,Hancock,WV,H1,40.5218545,-80.5738922
1581060,55001,Adams County,Adams,WI,H1,43.9695395,-89.7703977
1581061,55003,Ashland County,Ashland,WI,H1,46.7007124,-90.5645054
1581062,55005,Barron County,Barron,WI,H1,45.4237233,-91.848312
1581063,55007,Bayfield County,Bayfield,WI,H1,46.6354343,-91.1806847
1581064,55009,Brown County,Brown,WI,H1,44.4743289,-87.992859
1581065,55011,Buffalo County,Buffalo,WI,H1,44.3798322,-91.7544697
1581066,55013,Burnett County,Burnett,WI,H1,45.8627175,-92.3675652
1581067,55015,Calumet County,Calumet,WI,H1,44.0816035,-88.218058
1581068,55017,Chippewa County,Chippewa,WI,H1,45.069408,-91.279886
1581069,55019,Clark County,Clark,WI,H1,44.734725,-90.6120571
1581070,55021,Columbia County,Columbia,WI,H1,43.466608,-89.3337362
1581071,55023,Crawford County,Crawford,WI,H1,43.2394623,-90.9310478
1581072,55025,Dane County,Dane,WI,H1,43.0672901,-89.4181224
1581073,55027,Dodge County,Dodge,WI,H1,43.4162951,-88.7075067
1581074,55029,Door County,Door,WI,H1,45.0326297,-87.028957
1581075,55031,Douglas County,Douglas,WI,H1,46.4641099,-91.8994025
1581076,55033,Dunn County,Dunn,WI,H1,44.946584,-91.8964036
1581077,55035,Eau Claire County,Eau Claire,WI,H1,44.7267746,-91.2859816
1581078,55037,Florence County,Florence,WI,H1,45.8484477,-88.3981512
1581079,55039,Fond du Lac County,Fond du Lac,WI,H1,43.7535895,-88.4882631
1581080,55041,Forest County,Forest,WI,H1,45.6673208,-88.7703949
1581081,55043,Grant County,Grant,WI,H1,42.8674819,-90.7062204
1581082,55045,Green County,Green,WI,H1,42.6800091,-89.602222
1581083,55047,Green Lake County,Green Lake,WI,H1,43.8003789,-89.0448597
1581084,55049,Iowa County,Iowa,WI,H1,43.0004744,-90.135384
1581085,55051,Iron County,Iron,WI,H1,46.3170556,-90.2644527
1581086,55053,Jackson County,Jackson,WI,H1,44.3191504,-90.8051677
1581087,55055,Jefferson County,Jefferson,WI,H1,43.0208142,-88.7758658
1581088,55057,Juneau County,Juneau,WI,H1,43.9246051,-90.1137916
1581089,55059,Kenosha County,Kenosha,WI,H1,42.5785041,-87.6531182
1581090,55061,Kewaunee County,Kewaunee,WI,H1,44.5059942,-87.3072533
1581091,55063,La Crosse County,La Crosse,WI,H1,43.906569,-91.115218
1581092,55065,Lafayette County,Lafayette,WI,H1,42.6604994,-90.131722
1581093,55067,Langlade County,Langlade,WI,H1,45.2623444,-89.0719088
1581094,55069,Lincoln County,Lincoln,WI,H1,45.3374315,-89.734639
1581095,55071,Manitowoc County,Manitowoc,WI,H1,44.1106889,-87.5123717
1581096,55073,Marathon County,Marathon,WI,H1,44.8982857,-89.7590589
1581097,55075,Marinette County,Marinette,WI,H1,45.3508956,-88.0022205
1581098,55077,Marquette County,Marquette,WI,H1,43.8195819,-89.3987488
1581099,55078,Menominee County,Menominee,WI,H1,45.0043672,-88.7100059
1581100,55079,Milwaukee County,Milwaukee,WI,H1,43.0154569,-87.5805487
1581101,55081,Monroe County,Monroe,WI,H1,43.9457158,-90.6178241
1581102,55083,Oconto County,Oconto,WI,H1,44.9985323,-88.2205851
1581103,55085,Oneida County,Oneida,WI,H1,45.7055577,-89.5218199
1581104,55087,Outagamie County,Outagamie,WI,H1,44.416092,-88.4649323
1581105,55089,Ozaukee County,Ozaukee,WI,H1,43.3656487,-87.594466
1581106,55091,Pepin County,Pepin,WI,H1,44.4826502,-92.1496888
1581107,55093,Pierce County,Pierce,WI,H1,44.7194015,-92.4225035
1581108,55095,Polk County,Polk,WI,H1,45.4614199,-92.441396
1581109,55097,Portage County,Portage,WI,H1,44.4760263,-89.5014007
1581110,55099,Price County,Price,WI,H1,45.6803837,-90.3614492
1581111,55101,Racine County,Racine,WI,H1,42.7511743,-87.696081
1581112,55103,Richland County,Richland,WI,H1,43.3756405,-90.4294834
1581113,55105,Rock County,Rock,WI,H1,42.6712181,-89.0715583
1581114,55107,Rusk County,Rusk,WI,H1,45.4751427,-91.1331319
1581115,55111,Sauk County,Sauk,WI,H1,43.4266634,-89.9482167
1581116,55113,Sawyer County,Sawyer,WI,H1,45.8799718,-91.1446649
1581117,55115,Shawano County,Shawano,WI,H1,44.7891558,-88.7654355
1581118,55117,Sheboygan County,Sheboygan,WI,H1,43.7197074,-87.6347745
1581119,55119,Taylor County,Taylor,WI,H1,45.2115439,-90.5012525
1581120,55121,Trempealeau County,Trempealeau,WI,H1,44.3039701,-91.3584547
1581121,55123,Vernon County,Vernon,WI,H1,43.5938619,-90.8343824
1581122,55125,Vilas County,Vilas,WI,H1,46.0528986,-89.5148456
1581123,55127,Walworth County,Walworth,WI,H1,42.6684853,-88.5419064
1581124,55129,Washburn County,Washburn,WI,H1,45.8991792,-91.7912346
1581125,55131,Washington County,Washington,WI,H1,43.36848,-88.2307625
1581126,55133,Waukesha County,Waukesha,WI,H1,43.0182145,-88.3045083
1581127,55135,Waupaca County,Waupaca,WI,H1,44.4704612,-88.9647928
1581128,55137,Waushara County,Waushara,WI,H1,44.1131203,-89.242879
1581129,55139,Winnebago County,Winnebago,WI,H1,44.0688769,-88.6446588
1581130,55141,Wood County,Wood,WI,H1,44.4553312,-90.0415485
1581833,55109,Saint Croix County,St. Croix,WI,H1,45.0339821,-92.452577
1605066,56001,Albany County,Albany,WY,H1,41.6544687,-105.7239107
1605067,56003,Big Horn County,Big Horn,WY,H1,44.5267152,-107.9951988
1605068,56005,Campbell County,Campbell,WY,H1,44.2483386,-105.5483134
1605069,56007,Carbon County,Carbon,WY,H1,41.6945893,-106.9306102
1605070,56009,Converse County,Converse,WY,H1,42.9723307,-105.5070627
1605071,56011,Crook County,Crook,WY,H1,44.5886036,-104.5699294
1605072,56013,Fremont County,Fremont,WY,H1,43.0405281,-108.6304181
1605073,56015,Goshen County,Goshen,WY,H1,42.0879393,-104.3532645
1605074,56017,Hot Springs County,Hot Springs,WY,H1,43.718929,-108.4420972
1605075,56021,Laramie County,Laramie,WY,H1,41.3070677,-104.6896206
1605076,56023,Lincoln County,Lincoln,WY,H1,42.2638016,-110.6559473
1605077,56025,Natrona County,Natrona,WY,H1,42.9622404,-106.7984938
1605078,56027,Niobrara County,Niobrara,WY,H1,43.0564977,-104.4753764
1605079,56029,Park County,Park,WY,H1,44.5204733,-109.587955
1605080,56031,Platte County,Platte,WY,H1,42.1330537,-104.9658155
1605081,56033,Sheridan County,Sheridan,WY,H1,44.7899893,-106.8793831
1605082,56035,Sublette County,Sublette,WY,H1,42.7669067,-109.9147059
1605083,56039,Teton County,Teton,WY,H1,43.9346374,-110.5898097
1605084,56041,Uinta County,Uinta,WY,H1,41.2874919,-110.5475617
1605085,56043,Washakie County,Washakie,WY,H1,43.904997,-107.6828607
1605086,56045,Weston County,Weston,WY,H1,43.8404851,-104.56783
1609191,56019,Johnson County,Johnson,WY,H1,44.0387746,-106.5846328
1609192,56037,Sweetwater County,Sweetwater,WY,H1,41.6594961,-108.8794308
161526,01001,Autauga County,Autauga,AL,H1,32.5349202,-86.6427492
161527,01003,Baldwin County,Baldwin,AL,H1,30.66097,-87.7498406
161528,01005,Barbour County,Barbour,AL,H1,31.8696032,-85.393197
161529,01007,Bibb County,Bibb,AL,H1,32.9986431,-87.1264396
161530,01009,Blount County,Blount,AL,H1,33.9808674,-86.567371
161531,01011,Bullock County,Bullock,AL,H1,32.1005542,-85.7156972
161532,01013,Butler County,Butler,AL,H1,31.7524339,-86.6802892
161533,01015,Calhoun County,Calhoun,AL,H1,33.7714324,-85.8260309
161534,01017,Chambers County,Chambers,AL,H1,32.9143722,-85.3920429
161535,01019,Cherokee County,Cherokee,AL,H1,34.175956,-85.6037937
161536,01021,Chilton County,Chilton,AL,H1,32.8478485,-86.7188113
161537,01023,Choctaw County,Choctaw,AL,H1,32.0196108,-88.2632013
161538,01025,Clarke County,Clarke,AL,H1,31.6766596,-87.8308099
161539,01027,Clay County,Clay,AL,H1,33.2690859,-85.8605471
161540,01029,Cleburne County,Cleburne,AL,H1,33.6745577,-85.518768
161541,01031,Coffee County,Coffee,AL,H1,31.4026272,-85.9882069
161542,01033,Colbert County,Colbert,AL,H1,34.7004338,-87.8049853
161543,01035,Conecuh County,Conecuh,AL,H1,31.4292715,-86.9936742
161544,01037,Coosa County,Coosa,AL,H1,32.9362268,-86.2476593
161545,01039,Covington County,Covington,AL,H1,31.2484924,-86.4512425
161546,01041,Crenshaw County,Crenshaw,AL,H1,31.7315002,-86.3135389
161547,01043,Cullman County,Cullman,AL,H1,34.1319411,-86.8676195
161548,01045,Dale County,Dale,AL,H1,31.4318271,-85.6110368
161549,01047,Dallas County,Dallas,AL,H1,32.3259737,-87.1064763
161550,01049,DeKalb County,DeKalb,AL,H1,34.4597666,-85.8041437
161551,01051,Elmore County,Elmore,AL,H1,32.596648,-86.1491465
161552,01053,Escambia County,Escambia,AL,H1,31.1261225,-87.1616199
161553,01055,Etowah County,Etowah,AL,H1,34.0452544,-86.0347623
161554,01057,Fayette County,Fayette,AL,H1,33.7212061,-87.738862
161555,01059,Franklin County,Franklin,AL,H1,34.4416706,-87.843812
161556,01061,Geneva County,Geneva,AL,H1,31.0950167,-85.8389849
161557,01063,Greene County,Greene,AL,H1,32.8531388,-87.9522309
161558,01065,Hale County,Hale,AL,H1,32.7626642,-87.6291177
161559,01067,Henry County,Henry,AL,H1,31.5146944,-85.2414063
161560,01069,Houston County,Houston,AL,H1,31.153188,-85.3025274
161561,01071,Jackson County,Jackson,AL,H1,34.7794126,-85.9992951
161562,01073,Jefferson County,Jefferson,AL,H1,33.5543279,-86.8963978
161563,01075,Lamar County,Lamar,AL,H1,33.7792058,-88.0968989
161564,01077,Lauderdale County,Lauderdale,AL,H1,34.9013724,-87.653998
161565,01079,Lawrence County,Lawrence,AL,H1,34.521652,-87.3110445
161566,01081,Lee County,Lee,AL,H1,32.6011363,-85.3555623
161567,01083,Limestone County,Limestone,AL,H1,34.8100783,-86.9813748
161568,01085,Lowndes County,Lowndes,AL,H1,32.15475,-86.6501077
161569,01087,Macon County,Macon,AL,H1,32.3859737,-85.6926687
161570,01089,Madison County,Madison,AL,H1,34.7630897,-86.5502065
161572,01091,Marengo County,Marengo,AL,H1,32.2476134,-87.7895193
161573,01093,Marion County,Marion,AL,H1,34.1365497,-87.8871384
161574,01095,Marshall County,Marshall,AL,H1,34.3669623,-86.3066373
161575,01097,Mobile County,Mobile,AL,H1,30.6851512,-88.1975238
161576,01099,Monroe County,Monroe,AL,H1,31.570834,-87.3654375
161577,01101,Montgomery County,Montgomery,AL,H1,32.220258,-86.2076143
161578,01103,Morgan County,Morgan,AL,H1,34.4534719,-86.852922
161579,01105,Perry County,Perry,AL,H1,32.6384657,-87.2944008
161580,01107,Pickens County,Pickens,AL,H1,33.280877,-88.0886881
161581,01109,Pike County,Pike,AL,H1,31.8027085,-85.9409081
161582,01111,Randolph County,Randolph,AL,H1,33.2937873,-85.4590702
161583,01113,Russell County,Russell,AL,H1,32.2883797,-85.1849626
161584,01117,Shelby County,Shelby,AL,H1,33.2642701,-86.6606385
161585,01119,Sumter County,Sumter,AL,H1,32.5910175,-88.1987896
161586,01121,Talladega County,Talladega,AL,H1,33.3800616,-86.1659037
161587,01123,Tallapoosa County,Tallapoosa,AL,H1,32.8624049,-85.7975022
161588,01125,Tuscaloosa County,Tuscaloosa,AL,H1,33.2895499,-87.5250263
161589,01127,Walker County,Walker,AL,H1,33.8033347,-87.2973574
161590,01129,Washington County,Washington,AL,H1,31.4076038,-88.2078768
161591,01131,Wilcox County,Wilcox,AL,H1,31.9892402,-87.3082018
161592,01133,Winston County,Winston,AL,H1,34.1492251,-87.3736834
1622943,26001,Alcona County,Alcona,MI,H1,44.6836234,-83.1290075
1622944,26003,Alger County,Alger,MI,H1,46.9482692,-86.5721602
1622945,26005,Allegan County,Allegan,MI,H1,42.5936733,-86.2917652
1622946,26007,Alpena County,Alpena,MI,H1,45.0311075,-83.1652011
1622947,26009,Antrim County,Antrim,MI,H1,45.0073838,-85.1758222
1622948,26011,Arenac County,Arenac,MI,H1,44.0428855,-83.7472418
1622949,26013,Baraga County,Baraga,MI,H1,46.6997094,-88.3521803
1622950,26015,Barry County,Barry,MI,H1,42.5950284,-85.3089681
1622951,26017,Bay County,Bay,MI,H1,43.7213656,-83.9418351
1622952,26019,Benzie County,Benzie,MI,H1,44.6445875,-86.3006262
1622953,26021,Berrien County,Berrien,MI,H1,41.9957777,-86.6854212
1622954,26023,Branch County,Branch,MI,H1,41.9161186,-85.0590444
1622955,26025,Calhoun County,Calhoun,MI,H1,42.2465395,-85.0055835
1622956,26027,Cass County,Cass,MI,H1,41.9154003,-85.9934577
1622957,26029,Charlevoix County,Charlevoix,MI,H1,45.5024977,-85.3732502
1622958,26031,Cheboygan County,Cheboygan,MI,H1,45.4729404,-84.4920644
1622959,26033,Chippewa County,Chippewa,MI,H1,46.3281784,-84.5293679
1622960,26035,Clare County,Clare,MI,H1,43.9878919,-84.8478607
1622961,26037,Clinton County,Clinton,MI,H1,42.9436524,-84.6015166
1622962,26039,Crawford County,Crawford,MI,H1,44.6836112,-84.6103371
1622963,26041,Delta County,Delta,MI,H1,45.7916365,-86.8705967
1622964,26043,Dickinson County,Dickinson,MI,H1,46.0092395,-87.8702584
1622965,26045,Eaton County,Eaton,MI,H1,42.5960698,-84.8383148
1622966,26047,Emmet County,Emmet,MI,H1,45.5875425,-84.98147
1622967,26049,Genesee County,Genesee,MI,H1,43.0217229,-83.706711
1622968,26051,Gladwin County,Gladwin,MI,H1,43.9906739,-84.3882463
1622969,26053,Gogebic County,Gogebic,MI,H1,46.4954899,-89.7954718
1622970,26055,Grand Traverse County,Grand Traverse,MI,H1,44.7162391,-85.5522033
1622971,26057,Gratiot County,Gratiot,MI,H1,43.2927327,-84.604911
1622972,26059,Hillsdale County,Hillsdale,MI,H1,41.8877675,-84.5929278
1622973,26061,Houghton County,Houghton,MI,H1,46.9915439,-88.652058
1622974,26063,Huron County,Huron,MI,H1,43.9100684,-82.8555082
1622975,26065,Ingham County,Ingham,MI,H1,42.5970992,-84.373537
1622976,26067,Ionia County,Ionia,MI,H1,42.9450938,-85.0746031
1622977,26069,Iosco County,Iosco,MI,H1,44.3370929,-83.0853007
1622978,26071,Iron County,Iron,MI,H1,46.2086458,-88.5305267
1622979,26073,Isabella County,Isabella,MI,H1,43.6406016,-84.8467966
1622980,26075,Jackson County,Jackson,MI,H1,42.2484874,-84.4234373
1622981,26077,Kalamazoo County,Kalamazoo,MI,H1,42.245454,-85.5311845
1622982,26079,Kalkaska County,Kalkaska,MI,H1,44.6846764,-85.0902501
1622983,26081,Kent County,Kent,MI,H1,43.0321563,-85.5492963
1622984,26083,Keweenaw County,Keweenaw,MI,H1,47.7152823,-88.2521508
1622985,26085,Lake County,Lake,MI,H1,43.9900669,-85.8016452
1622986,26087,Lapeer County,Lapeer,MI,H1,43.0901474,-83.2217837
1622987,26089,Leelanau County,Leelanau,MI,H1,45.1517709,-86.0384961
1622988,26091,Lenawee County,Lenawee,MI,H1,41.8950838,-84.0663667
1622989,26093,Livingston County,Livingston,MI,H1,42.6029174,-83.9115277
1622990,26095,Luce County,Luce,MI,H1,46.7140171,-85.5641189
1622991,26097,Mackinac County,Mackinac,MI,H1,45.9989329,-85.0094166
1622992,26099,Macomb County,Macomb,MI,H1,42.6727951,-82.9101753
1622993,26101,Manistee County,Manistee,MI,H1,44.3428004,-86.3641129
1622994,26103,Marquette County,Marquette,MI,H1,46.662878,-87.5735241
1622995,26105,Mason County,Mason,MI,H1,43.9960677,-86.5450923
1622996,26107,Mecosta County,Mecosta,MI,H1,43.6407682,-85.3246335
1622997,26109,Menominee County,Menominee,MI,H1,45.5251214,-87.509684
1622998,26111,Midland County,Midland,MI,H1,43.6468567,-84.3881091
1622999,26113,Missaukee County,Missaukee,MI,H1,44.3373204,-85.0946817
1623000,26115,Monroe County,Monroe,MI,H1,41.9213775,-83.4942864
1623001,26117,Montcalm County,Montcalm,MI,H1,43.3109397,-85.1524811
1623002,26119,Montmorency County,Montmorency,MI,H1,45.0275449,-84.1272041
1623003,26121,Muskegon County,Muskegon,MI,H1,43.2899299,-86.5352341
1623004,26123,Newaygo County,Newaygo,MI,H1,43.5541676,-85.8009173
1623005,26125,Oakland County,Oakland,MI,H1,42.6603999,-83.3858176
1623006,26127,Oceana County,Oceana,MI,H1,43.6446171,-86.581772
1623007,26129,Ogemaw County,Ogemaw,MI,H1,44.3349393,-84.1264137
1623008,26131,Ontonagon County,Ontonagon,MI,H1,47.0221846,-89.4347315
1623009,26133,Osceola County,Osceola,MI,H1,43.9898287,-85.3252876
1623010,26135,Oscoda County,Oscoda,MI,H1,44.6817582,-84.1297714
1623011,26137,Otsego County,Otsego,MI,H1,45.0214343,-84.5989932
1623012,26139,Ottawa County,Ottawa,MI,H1,42.9485349,-86.4218822
1623013,26141,Presque Isle County,Presque Isle,MI,H1,45.4493131,-83.5277565
1623014,26143,Roscommon County,Roscommon,MI,H1,44.3356086,-84.6115999
1623015,26145,Saginaw County,Saginaw,MI,H1,43.3350287,-84.053187
1623016,26151,Sanilac County,Sanilac,MI,H1,43.4433116,-82.6457539
1623017,26153,Schoolcraft County,Schoolcraft,MI,H1,46.0424798,-86.1772945
1623018,26155,Shiawassee County,Shiawassee,MI,H1,42.9537339,-84.1467311
1623019,26157,Tuscola County,Tuscola,MI,H1,43.4913425,-83.4398686
1623020,26159,Van Buren County,Van Buren,MI,H1,42.2851056,-86.3064149
1623021,26161,Washtenaw County,Washtenaw,MI,H1,42.2532253,-83.8387705
1623022,26163,Wayne County,Wayne,MI,H1,42.2847455,-83.2611329
1623023,26165,Wexford County,Wexford,MI,H1,44.3383668,-85.5784138
1625033,26147,Saint Clair County,St. Clair,MI,H1,42.931122,-82.6643677
1625034,26149,Saint Joseph County,St. Joseph,MI,H1,41.9144142,-85.5277447
1629449,22089,Saint Charles Parish,St. Charles,LA,H1,29.9055278,-90.3582217
1629457,22091,Saint Helena Parish,St. Helena,LA,H1,30.8219177,-90.7103227
1629464,22093,Saint James Parish,St. James,LA,H1,30.02698,-90.7930857
1629472,22095,Saint John the Baptist Parish,St. John the Baptist,LA,H1,30.1263813,-90.4709592
1629479,22097,Saint Landry Parish,St. Landry,LA,H1,30.5989315,-92.0058238
1629486,22099,Saint Martin Parish,St. Martin,LA,H1,30.1290696,-91.6082592
1629492,22101,Saint Mary Parish,St. Mary,LA,H1,29.6346812,-91.4729888
1629503,22103,Saint Tammany Parish,St. Tammany,LA,H1,30.4078552,-89.9546444
1629542,22087,Saint Bernard Parish,St. Bernard,LA,H1,29.9047257,-89.3041274
1637566,30019,Daniels County,Daniels,MT,H1,48.7838327,-105.5486087
1639722,47001,Anderson County,Anderson,TN,H1,36.1184426,-84.198463
1639723,47003,Bedford County,Bedford,TN,H1,35.5137979,-86.4588857
1639724,47005,Benton County,Benton,TN,H1,36.0697842,-88.0682732
1639725,47007,Bledsoe County,Bledsoe,TN,H1,35.5963722,-85.205131
1639726,47009,Blount County,Blount,TN,H1,35.6872038,-83.9255394
1639727,47011,Bradley County,Bradley,TN,H1,35.1541103,-84.8596027
1639728,47013,Campbell County,Campbell,TN,H1,36.4035128,-84.1493846
1639729,47017,Carroll County,Carroll,TN,H1,35.9731784,-88.4502607
1639730,47019,Carter County,Carter,TN,H1,36.2927208,-82.1274783
1639731,47021,Cheatham County,Cheatham,TN,H1,36.2611479,-87.0867796
1639732,47023,Chester County,Chester,TN,H1,35.4217523,-88.6134616
1639733,47025,Claiborne County,Claiborne,TN,H1,36.4858546,-83.6604159
1639734,47029,Cocke County,Cocke,TN,H1,35.9254374,-83.121183
1639735,47031,Coffee County,Coffee,TN,H1,35.490616,-86.0747626
1639736,47035,Cumberland County,Cumberland,TN,H1,35.9503879,-84.9983516
1639737,47037,Davidson County,Davidson,TN,H6,36.1695207,-86.7848508
1639738,47041,DeKalb County,DeKalb,TN,H1,35.9798607,-85.8327517
1639739,47039,Decatur County,Decatur,TN,H1,35.6030198,-88.1087728
1639740,47043,Dickson County,Dickson,TN,H1,36.1490481,-87.3566551
1639741,47045,Dyer County,Dyer,TN,H1,36.059195,-89.4136741
1639742,47047,Fayette County,Fayette,TN,H1,35.1970807,-89.414372
1639743,47049,Fentress County,Fentress,TN,H1,36.3804934,-84.9324585
1639744,47051,Franklin County,Franklin,TN,H1,35.1549608,-86.0921752
1639745,47053,Gibson County,Gibson,TN,H1,35.9966113,-88.9326248
1639746,47055,Giles County,Giles,TN,H1,35.2021509,-87.0347774
1639747,47059,Greene County,Greene,TN,H1,36.1753512,-82.8458267
1639748,47061,Grundy County,Grundy,TN,H1,35.3883667,-85.7225824
1639749,47065,Hamilton County,Hamilton,TN,H1,35.1808087,-85.1647574
1639750,47069,Hardeman County,Hardeman,TN,H1,35.2068683,-88.9930849
1639751,47071,Hardin County,Hardin,TN,H1,35.1986761,-88.1844852
1639752,47073,Hawkins County,Hawkins,TN,H1,36.4411634,-82.9446877
1639753,47075,Haywood County,Haywood,TN,H1,35.5832218,-89.2838358
1639754,47077,Henderson County,Henderson,TN,H1,35.6542571,-88.3879869
1639755,47079,Henry County,Henry,TN,H1,36.3318376,-88.3012136
1639756,47081,Hickman County,Hickman,TN,H1,35.8032507,-87.4733082
1639757,47085,Humphreys County,Humphreys,TN,H1,36.0408189,-87.7756334
1639758,47087,Jackson County,Jackson,TN,H1,36.3592115,-85.6731508
1639759,47089,Jefferson County,Jefferson,TN,H1,36.0509842,-83.4463116
1639760,47091,Johnson County,Johnson,TN,H1,36.4549371,-81.851772
1639761,47093,Knox County,Knox,TN,H1,35.9932064,-83.9370903
1639762,47095,Lake County,Lake,TN,H1,36.3353844,-89.4934668
1639763,47097,Lauderdale County,Lauderdale,TN,H1,35.7605419,-89.6305059
1639764,47099,Lawrence County,Lawrence,TN,H1,35.2172744,-87.3955844
1639765,47101,Lewis County,Lewis,TN,H1,35.5272807,-87.4930956
1639766,47103,Lincoln County,Lincoln,TN,H1,35.1405167,-86.5889416
1639767,47105,Loudon County,Loudon,TN,H1,35.7347792,-84.3118677
1639768,47111,Macon County,Macon,TN,H1,36.5320344,-86.0072701
1639769,47113,Madison County,Madison,TN,H1,35.6081437,-88.8384709
1639770,47115,Marion County,Marion,TN,H1,35.1293327,-85.6219924
1639771,47117,Marshall County,Marshall,TN,H1,35.4688611,-86.7650174
1639772,47119,Maury County,Maury,TN,H1,35.6169396,-87.077014
1639773,47107,McMinn County,McMinn,TN,H1,35.4247445,-84.6174749
1639774,47109,McNairy County,McNairy,TN,H1,35.1754532,-88.5636399
1639775,47121,Meigs County,Meigs,TN,H1,35.5128848,-84.8132941
1639776,47123,Monroe County,Monroe,TN,H1,35.4426449,-84.2528005
1639777,47125,Montgomery County,Montgomery,TN,H1,36.4968581,-87.3828871
1639778,47129,Morgan County,Morgan,TN,H1,36.1350244,-84.6492037
1639779,47131,Obion County,Obion,TN,H1,36.3582327,-89.1487992
1639780,47133,Overton County,Overton,TN,H1,36.3449979,-85.2880812
1639781,47135,Perry County,Perry,TN,H1,35.6426343,-87.8589667
1639782,47139,Polk County,Polk,TN,H1,35.1199027,-84.523323
1639783,47141,Putnam County,Putnam,TN,H1,36.1408328,-85.4951907
1639784,47143,Rhea County,Rhea,TN,H1,35.6086708,-84.9244249
1639785,47145,Roane County,Roane,TN,H1,35.8478552,-84.5232422
1639786,47147,Robertson County,Robertson,TN,H1,36.5254384,-86.8705722
1639787,47149,Rutherford County,Rutherford,TN,H1,35.8427065,-86.4167379
1639788,47151,Scott County,Scott,TN,H1,36.4285386,-84.5035173
1639789,47155,Sevier County,Sevier,TN,H1,35.7846556,-83.5241923
1639790,47157,Shelby County,Shelby,TN,H1,35.1842465,-89.8940619
1639791,47159,Smith County,Smith,TN,H1,36.2505341,-85.9567146
1639792,47161,Stewart County,Stewart,TN,H1,36.5011044,-87.8384576
1639793,47163,Sullivan County,Sullivan,TN,H1,36.5129154,-82.3041429
1639794,47165,Sumner County,Sumner,TN,H1,36.4690511,-86.4605527
1639795,47167,Tipton County,Tipton,TN,H1,35.4973508,-89.7565838
1639796,47177,Warren County,Warren,TN,H1,35.6786827,-85.778498
1639797,47179,Washington County,Washington,TN,H1,36.2932966,-82.4974203
1639798,47181,Wayne County,Wayne,TN,H1,35.2399169,-87.7880132
1639799,47183,Weakley County,Weakley,TN,H1,36.2983027,-88.7177438
1639800,47185,White County,White,TN,H1,35.9263484,-85.4551772
1639801,47187,Williamson County,Williamson,TN,H1,35.8938382,-86.8986536
1639802,47189,Wilson County,Wilson,TN,H1,36.1546944,-86.2973474
1648572,47015,Cannon County,Cannon,TN,H1,35.8086768,-86.0617406
1648573,47027,Clay County,Clay,TN,H1,36.5511571,-85.5438592
1648574,47033,Crockett County,Crockett,TN,H1,35.8135385,-89.1395282
1648575,47057,Grainger County,Grainger,TN,H1,36.2762587,-83.5096204
1648576,47063,Hamblen County,Hamblen,TN,H1,36.2171519,-83.2666627
1648577,47067,Hancock County,Hancock,TN,H1,36.5236457,-83.221826
1648578,47083,Houston County,Houston,TN,H1,36.2859717,-87.7170356
1648579,47127,Moore County,Moore,TN,H6,35.2846174,-86.3587711
1648580,47137,Pickett County,Pickett,TN,H1,36.5584093,-85.0749898
1648581,47169,Trousdale County,Trousdale,TN,H6,36.3920429,-86.1567528
1648582,47171,Unicoi County,Unicoi,TN,H1,36.1107306,-82.4323428
1648583,47173,Union County,Union,TN,H1,36.2878739,-83.8375139
1648584,47175,Van Buren County,Van Buren,TN,H1,35.6959815,-85.4526142
164997,01115,Saint Clair County,St. Clair,AL,H1,33.7157306,-86.3145954
1652643,47153,Sequatchie County,Sequatchie,TN,H1,35.3711477,-85.4105869
1657246,06097,Sonoma County,Sonoma,CA,H1,38.5253814,-122.9227271
1668606,24045,Wicomico County,Wicomico,MD,H1,38.3694103,-75.6315311
1668802,24047,Worcester County,Worcester,MD,H1,38.2165,-75.2966708
1669428,30085,Roosevelt County,Roosevelt,MT,H1,48.2945125,-105.0163913
1671316,13039,Camden County,Camden,GA,H1,30.9225029,-81.6363879
1671513,13127,Glynn County,Glynn,GA,H1,31.2132885,-81.4937155
1671693,13153,Houston County,Houston,GA,H1,32.4589966,-83.6662409
1671894,13151,Henry County,Henry,GA,H1,33.4529921,-84.1541939
1672039,13021,Bibb County,Bibb,GA,H6,32.8064982,-83.69742
1672399,13063,Clayton County,Clayton,GA,H1,33.5419743,-84.3576062
1672699,13059,Clarke County,Clarke,GA,H6,33.9512448,-83.3673401
1673011,13227,Pickens County,Pickens,GA,H1,34.4643198,-84.4656391
1673298,13285,Troup County,Troup,GA,H1,33.0335104,-85.0283368
1673358,13117,Forsyth County,Forsyth,GA,H1,34.2255313,-84.1250524
1673547,13217,Newton County,Newton,GA,H1,33.5550494,-83.8501868
1673638,51017,Bath County,Bath,VA,H1,38.0586888,-79.7410619
1673664,51045,Craig County,Craig,VA,H1,37.4817064,-80.2113954
1673675,51005,Alleghany County,Alleghany,VA,H1,37.7877775,-80.0061752
1673774,51091,Highland County,Highland,VA,H1,38.3623256,-79.5685441
1673918,51171,Shenandoah County,Shenandoah,VA,H1,38.8583044,-78.5708517
1673976,51157,Rappahannock County,Rappahannock,VA,H1,38.6847722,-78.1592302
1674058,51187,Warren County,Warren,VA,H1,38.9086682,-78.2084686
1674225,51145,Powhatan County,Powhatan,VA,H1,37.5501872,-77.9151943
1674271,51075,Goochland County,Goochland,VA,H1,37.7219858,-77.9156865
1674418,51023,Botetourt County,Botetourt,VA,H1,37.5571191,-79.8123171
1674630,51121,Montgomery County,Montgomery,VA,H1,37.1742908,-80.3872154
1674818,51019,Bedford County,Bedford,VA,H1,37.3151524,-79.5241721
1674917,51031,Campbell County,Campbell,VA,H1,37.2053604,-79.0965107
1675170,51003,Albemarle County,Albemarle,VA,H1,38.0228984,-78.5566761
1675839,06001,Alameda County,Alameda,CA,H1,37.6505111,-121.918043
1675840,06003,Alpine County,Alpine,CA,H1,38.5972506,-119.820653
1675841,06005,Amador County,Amador,CA,H1,38.4463895,-120.6511156
1675842,06007,Butte County,Butte,CA,H1,39.6669294,-121.6006717
1675885,06009,Calaveras County,Calaveras,CA,H1,38.2046068,-120.5541321
1675902,06011,Colusa County,Colusa,CA,H1,39.1775731,-122.2370296
1675903,06013,Contra Costa County,Contra Costa,CA,H1,37.9234131,-121.9510346
1676636,24009,Calvert County,Calvert,MD,H1,38.534712,-76.5305645
1676992,24017,Charles County,Charles,MD,H1,38.4736812,-77.0134841
1677577,30091,Sheridan County,Sheridan,MT,H1,48.7211883,-104.5046627
1678557,54073,Pleasants County,Pleasants,WV,H1,39.3709376,-81.1606297
1678706,54095,Tyler County,Tyler,WV,H1,39.4652776,-80.8848252
1678877,54105,Wirt County,Wirt,WV,H1,39.0224215,-81.3786238
1678923,30105,Valley County,Valley,MT,H1,48.3653506,-106.6674488
1681908,06023,Humboldt County,Humboldt,CA,H1,40.7050091,-123.9158194
1682074,06015,Del Norte County,Del Norte,CA,H1,41.7449424,-123.9578014
1682610,06089,Shasta County,Shasta,CA,H1,40.7637666,-122.0405215
1682927,06057,Nevada County,Nevada,CA,H1,39.3013696,-120.7687521
1685718,13057,Cherokee County,Cherokee,GA,H1,34.2439402,-84.4762018
1686112,13067,Cobb County,Cobb,GA,H1,33.941474,-84.5766785
1686467,13097,Douglas County,Douglas,GA,H1,33.701818,-84.7679867
1686953,13139,Hall County,Hall,GA,H1,34.316891,-83.8196862
1687424,13089,DeKalb County,DeKalb,GA,H1,33.7715897,-84.2264004
1687740,13113,Fayette County,Fayette,GA,H1,33.4139143,-84.4942847
1687995,13147,Hart County,Hart,GA,H1,34.3508983,-82.9642476
1687999,13161,Jeff Davis County,Jeff Davis,GA,H1,31.8055958,-82.6369409
1688000,13181,Lincoln County,Lincoln,GA,H1,33.7936596,-82.4512128
1688004,13195,Madison County,Madison,GA,H1,34.1277828,-83.2090361
1688005,13213,Murray County,Murray,GA,H1,34.7884475,-84.7480936
1688166,13135,Gwinnett County,Gwinnett,GA,H1,33.9617185,-84.0236153
1688745,30025,Fallon County,Fallon,MT,H1,46.3339974,-104.4174238
1688746,30011,Carter County,Carter,MT,H1,45.5167569,-104.5361585
1689049,54085,Ritchie County,Ritchie,WV,H1,39.1782674,-81.0629474
1689162,54047,McDowell County,McDowell,WV,H1,37.3785013,-81.6535838
1689423,54093,Tucker County,Tucker,WV,H1,39.1135953,-79.5649742
1689476,54017,Doddridge County,Doddridge,WV,H1,39.2691705,-80.7069659
1689673,54021,Gilmer County,Gilmer,WV,H1,38.9240618,-80.8570836
1689856,54091,Taylor County,Taylor,WV,H1,39.3359933,-80.0461837
1690257,51183,Sussex County,Sussex,VA,H1,36.9217519,-77.2617946
1690562,51043,Clarke County,Clarke,VA,H1,39.1123056,-77.9966883
1690739,51053,Dinwiddie County,Dinwiddie,VA,H1,37.0759384,-77.6322883
1692767,06103,Tehama County,Tehama,CA,H1,40.1257362,-122.2338849
1693324,06035,Lassen County,Lassen,CA,H1,40.6735904,-120.5943328
1694477,13051,Chatham County,Chatham,GA,H1,31.9739511,-81.0939703
1694833,13121,Fulton County,Fulton,GA,H1,33.79024,-84.467014
1695314,24005,Baltimore County,Baltimore,MD,H1,39.4430722,-76.616322
1696228,24013,Carroll County,Carroll,MD,H1,39.5628551,-77.0225215
1696629,30109,Wibaux County,Wibaux,MT,H1,46.9653298,-104.248944
1696800,54097,Upshur County,Upshur,WV,H1,38.8978264,-80.2334232
1696945,54013,Calhoun County,Calhoun,WV,H1,38.8444982,-81.1175718
1696996,54001,Barbour County,Barbour,WV,H1,39.1329339,-80.0030289
1697238,54023,Grant County,Grant,WV,H1,39.1051348,-79.1955703
1697853,24037,Saint Mary's County,St. Mary's,MD,H1,38.2158624,-76.5290607
1698178,24025,Harford County,Harford,MD,H1,39.5364362,-76.2988754
1702363,35001,Bernalillo County,Bernalillo,NM,H1,35.0513554,-106.6701996
1702364,35005,Chaves County,Chaves,NM,H1,33.3633181,-104.4668796
1702365,35025,Lea County,Lea,NM,H1,32.7921493,-103.4124781
1702366,35028,Los Alamos County,Los Alamos,NM,H1,35.8693159,-106.3073455
1702367,35033,Mora County,Mora,NM,H1,36.0105961,-104.9449751
1702368,35039,Rio Arriba County,Rio Arriba,NM,H1,36.5095803,-106.6930837
1702369,35041,Roosevelt County,Roosevelt,NM,H1,34.0211834,-103.4800253
1702370,35051,Sierra County,Sierra,NM,H1,33.130491,-107.1923789
1702371,35053,Socorro County,Socorro,NM,H1,34.007188,-106.9303992
1702378,51093,Isle of Wight County,Isle of Wight,VA,H1,36.9067291,-76.7091265
1702379,16079,Shoshone County,Shoshone,ID,H1,47.3529576,-115.8924355
1702380,15005,Kalawao County,Kalawao,HI,H4,21.2118898,-156.9540416
1702381,24510,City of Baltimore,Baltimore (city),MD,C7,39.3009792,-76.6106471
1709077,24027,Howard County,Howard,MD,H1,39.2507175,-76.931195
1710958,24003,Anne Arundel County,Anne Arundel,MD,H1,38.994158,-76.5675992
1711058,24023,Garrett County,Garrett,MD,H1,39.5288947,-79.2729933
1711211,24021,Frederick County,Frederick,MD,H1,39.4722125,-77.3979843
1712500,24031,Montgomery County,Montgomery,MD,H1,39.1363621,-77.2042373
1713506,24001,Allegany County,Allegany,MD,H1,39.6214697,-78.6975591
1714220,24043,Washington County,Washington,MD,H1,39.6036788,-77.8140076
1714670,24033,Prince George's County,Prince George's,MD,H1,38.8295126,-76.8472924
1715338,30083,Richland County,Richland,MT,H1,47.7878783,-104.5613584
1715632,30021,Dawson County,Dawson,MT,H1,47.2663787,-104.8995109
1715847,30079,Prairie County,Prairie,MT,H1,46.8605285,-105.378007
1716058,30033,Garfield County,Garfield,MT,H1,47.2776387,-106.9928891
1716270,30055,McCone County,McCone,MT,H1,47.6452248,-105.7954244
1716521,30003,Big Horn County,Big Horn,MT,H1,45.4233824,-107.4898525
1716795,30087,Rosebud County,Rosebud,MT,H1,46.2296523,-106.7307122
1717163,54069,Ohio County,Ohio,WV,H1,40.0969217,-80.619057
1717539,54051,Marshall County,Marshall,WV,H1,39.8606129,-80.6633865
1717836,54103,Wetzel County,Wetzel,WV,H1,39.6052633,-80.6390976
1717890,54057,Mineral County,Mineral,WV,H1,39.4147219,-78.9437463
1718173,54049,Marion County,Marion,WV,H1,39.5099951,-80.2433983
1718426,54033,Harrison County,Harrison,WV,H1,39.2835297,-80.379875
1718557,54031,Hardy County,Hardy,WV,H1,39.0075029,-78.8579227
