GNIS ID,GEOID,Name,State,FIPS Class,County GEOID,Latitude,Longitude
58291,0550780,Oakgrove,AR,C4,05015,36.4561777,-93.4365744
65513,0538110,Lakeview,AR,C4,05107,34.4167691,-90.8009436
71610,0523650,Fiftysix,AR,C4,05137,35.9575734,-92.2184879
76355,0506430,Biscoe,AR,C4,05117,34.8209271,-91.4042954
77422,0537720,La Grange,AR,C4,05077,34.656488,-90.7328884
120788,0138248,Jacksons Gap,AL,C4,01123,32.8862364,-85.8116265
154970,0103724,Baker Hill,AL,C4,01005,31.7812748,-85.3021583
156909,0160984,Pleasant Grove,AL,C4,01071,34.9436942,-85.9216452
196400,0853560,New Raymer,CO,C4,08123,40.606653,-103.843839
213692,1007270,Bowers Beach,DE,C4,10001,39.0598349,-75.4013071
254139,0656056,Paso Robles,CA,C4,06079,35.6266369,-120.6910043
278455,1205150,Belleair Shores,FL,C4,12103,27.916688,-82.8453817
282293,1221435,Everglades City,FL,C4,12021,25.8601002,-81.380357
283408,1227325,Greenacres City,FL,C4,12099,26.623679,-80.1253213
284499,1233437,Indian Creek Village,FL,C4,12086,25.8781508,-80.1361566
284606,1234125,Islamorada,FL,C4,12087,24.9242995,-80.6278404
284706,1235210,Jacobs,FL,C4,12063,30.8949096,-85.3977091
285002,1235898,Jupiter Inlet Beach Colony,FL,C4,12099,26.9489465,-80.0747637
286403,1243075,Marco,FL,C4,12021,25.9725975,-81.7289763
295002,1232775,Howie In The Hills,FL,C4,12069,28.7169384,-81.7734106
305079,1254500,Palm Springs North Census Designated Place,FL,U1,12086,25.9350949,-80.3338347
310670,1304196,Augusta,GA,C4,13245,33.4709702,-81.9748379
316522,1344340,La Grange,GA,C4,13285,33.039291,-85.0313269
331886,1335800,Gum Branch,GA,C4,13179,31.8582642,-81.7267801
355414,1321017,Cusseta,GA,C4,13053,32.3054268,-84.7727027
355464,1322472,DeSoto,GA,C4,13261,31.955448,-84.0621252
355642,1326224,Edgehill,GA,C4,13125,33.1523705,-82.6242982
355995,1332524,Georgetown,GA,C4,13239,31.884605,-85.1074308
397206,1677060,State Line Village,ID,C4,16055,47.7043448,-117.0374218
400590,1608700,Boise,ID,C4,16001,43.6135002,-116.2034505
406320,1715339,Coello,IL,C4,17055,37.9942168,-89.0672974
408937,1728820,Geff,IL,C4,17191,38.4425483,-88.4042141
409559,1731992,Gulfport,IL,C4,17071,40.813928,-91.0862558
409731,1732616,Logan,IL,C4,17055,37.9558825,-88.8403427
411684,1740675,Lafayette,IL,C4,17175,41.1080927,-89.9714998
414472,1752948,New Windsor,IL,C4,17131,41.2022584,-90.4423521
419798,1775874,Tower Lake,IL,C4,17097,42.2319682,-88.1520248
420187,1777083,Utica,IL,C4,17099,41.3405897,-89.010081
422272,1730679,Grand Chain,IL,C4,17153,37.2517187,-89.0234037
426969,1775458,Timewell,IL,C4,17009,40.007826,-90.8737433
426997,1742184,La Salle,IL,C4,17099,41.3333679,-89.0917497
428803,1714000,City of Chicago,IL,C5,17031,41.8369037,-87.6847476
446173,1884788,Windfall,IN,C4,18159,40.3630938,-85.9563738
449734,1872746,State Line,IN,C4,18171,40.1972589,-87.5269616
457951,1939630,Jewell,IA,C4,19079,42.3069254,-93.6402159
467384,1901135,City of Algona,IA,C2,19109,43.0743166,-94.2301199
467432,1905590,City of Belle Plaine,IA,C2,19011,41.8952524,-92.2753004
467463,1907030,City of Bloomfield,IA,C2,19051,40.7487671,-92.4173637
467532,1911080,City of Carroll,IA,C2,19027,42.0698601,-94.8647391
467567,1912000,City of Cedar Rapids,IA,C2,19113,41.9667319,-91.6781679
467589,1912315,City of Centerville,IA,C2,19007,40.729391,-92.8717481
467591,1912720,City of Chariton,IA,C2,19117,41.0175751,-93.3094486
467592,1912765,City of Charles City,IA,C2,19067,43.0643521,-92.6745202
467618,1914025,City of Clear Lake,IA,C2,19033,43.1346536,-93.3739922
467625,1914430,City of Clinton,IA,C2,19045,41.8434359,-90.2407895
467666,1917265,City of Creston,IA,C2,19175,41.0597298,-94.3650388
467672,1918075,City of Dakota City,IA,C2,19091,42.7229033,-94.1976919
467744,1922395,City of Dubuque,IA,C2,19061,42.5006831,-90.7068372
467769,1924465,City of Eldora,IA,C2,19083,42.3605951,-93.1012867
467811,1926445,City of Fairfield,IA,C2,19101,41.00661,-91.967096
467827,1927165,City of Fayette,IA,C2,19065,42.8415054,-91.8036753
467843,1928515,City of Fort Dodge,IA,C2,19187,42.5098032,-94.1751054
467979,1933105,City of Grinnell,IA,C2,19157,41.7372767,-92.7244148
467990,1933780,City of Hamburg,IA,C2,19071,40.606121,-95.6545764
467996,1933960,City of Hampton,IA,C2,19069,42.7420064,-93.2049662
468007,1934500,City of Harlan,IA,C2,19165,41.6495154,-95.3268616
468059,1937560,City of Humboldt,IA,C2,19091,42.7231707,-94.2245139
468071,1938280,City of Indianola,IA,C2,19181,41.3628906,-93.5651728
468086,1938595,City of Iowa City,IA,C2,19103,41.6559023,-91.5304462
468135,1939450,City of Jefferson,IA,C2,19073,42.017241,-94.3797781
468166,1940845,City of Keokuk,IA,C2,19111,40.4095595,-91.403029
468186,1942465,City of Lake City,IA,C2,19025,42.2676372,-94.7310464
468191,1942960,City of Lamoni,IA,C2,19053,40.6204912,-93.934323
468204,1944535,City of Leon,IA,C2,19053,40.7407471,-93.7545236
468337,1948720,City of Malvern,IA,C2,19129,41.0075619,-95.5856662
468338,1948945,City of Manning,IA,C2,19027,41.9092116,-95.0642334
468366,1950160,City of Mason City,IA,C2,19033,43.1487201,-93.1998074
468415,1954480,City of Mount Ayr,IA,C2,19159,40.7141372,-94.2376587
468416,1954705,City of Mount Pleasant,IA,C2,19087,40.9624784,-91.5452358
468464,1959115,City of Onawa,IA,C2,19133,42.0267577,-96.0905046
468477,1959835,City of Osceola,IA,C2,19039,41.0302167,-93.7829136
468480,1959925,City of Oskaloosa,IA,C2,19123,41.2922158,-92.6403982
468637,1968520,City of Rolfe,IA,C2,19151,42.8129005,-94.5313396
468687,1972210,City of Sheffield,IA,C2,19069,42.8928802,-93.208697
468690,1972480,City of Shellsburg,IA,C2,19011,42.0929406,-91.8709837
468720,1973335,City of Sioux City,IA,C5,19193,42.4958217,-96.3901389
468721,1973425,City of Sioux Rapids,IA,C2,19021,42.891608,-95.1487935
468732,1974280,City of Spencer,IA,C2,19041,43.1467871,-95.1534302
468754,1975630,City of Storm Lake,IA,C2,19021,42.6431467,-95.1970008
468764,1976260,City of Sumner,IA,C2,19017,42.8497942,-92.0970436
468776,1976935,City of Tabor,IA,C6,19071,40.8949387,-95.6737118
468871,1981210,City of Vinton,IA,C2,19011,42.1638951,-92.0260813
468951,1982425,City of Waterloo,IA,C2,19013,42.4919737,-92.3521758
468955,1982875,City of Waverly,IA,C2,19017,42.724871,-92.4707117
468965,1983145,City of Webster City,IA,C2,19079,42.4623327,-93.8166983
468989,1984765,City of West Union,IA,C2,19065,42.9588918,-91.8132
469011,1986520,City of Winterset,IA,C2,19121,41.3455206,-94.013512
471381,2027050,Gove,KS,C4,20063,38.9577876,-100.4887486
471702,2035575,Johnson,KS,C4,20187,37.5705725,-101.7510047
472553,2040800,Lincoln,KS,C4,20105,39.0408395,-98.1447743
473837,2005400,Bellaire,KS,C4,20173,37.7625125,-97.266988
485539,2000125,City of Abilene,KS,C5,20041,38.9229212,-97.2251517
485540,2001975,City of Anthony,KS,C5,20077,37.157366,-98.0408338
485541,2002300,City of Arkansas City,KS,C5,20035,37.0726383,-97.0384839
485542,2002900,City of Atchison,KS,C5,20005,39.5627181,-95.1372675
485543,2003300,City of Augusta,KS,C5,20015,37.6945823,-96.9730752
485544,2004625,City of Baxter Springs,KS,C5,20021,37.0195546,-94.7350738
485545,2005337,City of Bel Aire,KS,C5,20173,37.7749026,-97.2457386
485546,2005600,City of Belleville,KS,C5,20157,39.8231886,-97.6332529
485547,2005775,City of Beloit,KS,C5,20123,39.4644721,-98.1082752
485548,2007975,City of Bonner Springs,KS,C5,20209,39.0816921,-94.8775844
485549,2009400,City of Burlington,KS,C5,20031,38.1931429,-95.7452428
485550,2009900,City of Caldwell,KS,C5,20191,37.0350095,-97.6088678
485551,2010375,City of Caney,KS,C5,20125,37.0136348,-95.9318158
485552,2012500,City of Chanute,KS,C5,20133,37.6696652,-95.4618711
485553,2012925,City of Cherryvale,KS,C5,20125,37.2693136,-95.5539566
485554,2012950,City of Chetopa,KS,C5,20099,37.0376305,-95.0925403
485555,2013625,City of Clay Center,KS,C5,20027,39.3811092,-97.1273207
485556,2014600,City of Coffeyville,KS,C5,20125,37.0344819,-95.6296565
485557,2014650,City of Colby,KS,C5,20193,39.3841222,-101.046028
485558,2015075,City of Columbus,KS,C5,20021,37.1714516,-94.8441263
485559,2015200,City of Concordia,KS,C5,20029,39.5668718,-97.6467509
485560,2015925,City of Council Grove,KS,C5,20127,38.6623321,-96.4917093
485562,2017850,City of De Soto,KS,C5,20091,38.9686206,-94.9549216
485563,2018250,City of Dodge City,KS,C5,20057,37.7609901,-100.0182181
485565,2019825,City of Edgerton,KS,C5,20091,38.781601,-94.9617268
485566,2020000,City of Edwardsville,KS,C5,20209,39.0764956,-94.8166175
485567,2020075,City of El Dorado,KS,C5,20015,37.820809,-96.8613596
485568,2020425,City of Ellinwood,KS,C5,20009,38.3591768,-98.5848459
485569,2020450,City of Ellis,KS,C5,20051,38.9367365,-99.5593412
485570,2020500,City of Ellsworth,KS,C5,20053,38.7325707,-98.2286366
485571,2021275,City of Emporia,KS,C5,20111,38.4027661,-96.1923972
485572,2021800,City of Eureka,KS,C5,20073,37.8260665,-96.2888248
485573,2022700,City of Fairway,KS,C5,20091,39.0245248,-94.6287174
485574,2023600,City of Florence,KS,C5,20115,38.2430551,-96.9292153
485575,2024000,City of Fort Scott,KS,C5,20011,37.8283228,-94.7037656
485576,2024575,City of Fredonia,KS,C5,20205,37.5328817,-95.8224705
485577,2024850,City of Frontenac,KS,C5,20037,37.458388,-94.7015753
485578,2025100,City of Galena,KS,C5,20021,37.0750765,-94.6352329
485579,2025325,City of Garden City,KS,C5,20055,37.9753945,-100.8528201
485580,2025425,City of Gardner,KS,C5,20091,38.816299,-94.9299175
485581,2025925,City of Garnett,KS,C5,20003,38.2844348,-95.2407093
485582,2026300,City of Girard,KS,C5,20037,37.5092914,-94.8455076
485583,2026875,City of Goodland,KS,C5,20181,39.3490325,-101.7141353
485584,2028300,City of Great Bend,KS,C5,20009,38.3592621,-98.801612
485585,2028675,City of Greensburg,KS,C1,20097,37.6048753,-99.2895685
485586,2029600,City of Halstead,KS,C5,20079,37.9998906,-97.5102074
485587,2030175,City of Harper,KS,C5,20077,37.2850616,-98.0276405
485588,2030825,City of Haviland,KS,C1,20097,37.6174129,-99.1058204
485589,2031100,City of Hays,KS,C5,20051,38.8815288,-99.3217537
485590,2031400,City of Herington,KS,C5,20127,38.696762,-96.8030861
485591,2031675,City of Hiawatha,KS,C5,20013,39.851691,-95.5381063
485592,2032275,City of Hillsboro,KS,C5,20115,38.3524438,-97.1990435
485593,2032550,City of Hoisington,KS,C5,20009,38.5180629,-98.7773756
485594,2032825,City of Holton,KS,C5,20085,39.4698758,-95.7319438
485595,2033200,City of Horton,KS,C5,20013,39.6626878,-95.5326987
485596,2033450,City of Humboldt,KS,C5,20001,37.8118548,-95.4370136
485597,2033625,City of Hutchinson,KS,C5,20155,38.0671024,-97.9080829
485598,2033875,City of Independence,KS,C5,20125,37.2254871,-95.7193345
485599,2034300,City of Iola,KS,C5,20001,37.9273744,-95.4005442
485600,2035750,City of Junction City,KS,C5,20061,39.0271763,-96.8496244
485601,2036000,City of Kansas City,KS,C5,20209,39.123461,-94.7441955
485602,2036950,City of Kingman,KS,C5,20095,37.6476726,-98.1159726
485603,2037075,City of Kinsley,KS,C5,20047,37.9223769,-99.4114068
485604,2037725,City of La Harpe,KS,C5,20001,37.9165781,-95.3023231
485605,2037975,City of Lake Quivira,KS,C5,20091,39.0388077,-94.7687844
485607,2038650,City of Lansing,KS,C5,20103,39.2426701,-94.8951406
485608,2038700,City of Larned,KS,C5,20145,38.1833901,-99.1012604
485609,2038900,City of Lawrence,KS,C5,20045,38.9597484,-95.2641356
485610,2039000,City of Leavenworth,KS,C5,20103,39.3225644,-94.9247489
485611,2039075,City of Leawood,KS,C5,20091,38.9075493,-94.6258232
485612,2039350,City of Lenexa,KS,C5,20091,38.9609042,-94.8018429
485613,2039825,City of Liberal,KS,C5,20175,37.0465833,-100.9295476
485614,2041375,City of Lindsborg,KS,C5,20113,38.5772246,-97.673807
485615,2042875,City of Louisburg,KS,C5,20121,38.62032,-94.676986
485616,2043525,City of Lyons,KS,C5,20159,38.3462177,-98.2044735
485617,2043950,City of McPherson,KS,C5,20113,38.3713773,-97.6605603
485618,2044250,City of Manhattan,KS,C5,20161,39.1882511,-96.6052657
485619,2044750,City of Marion,KS,C5,20115,38.3539869,-97.0081877
485620,2045050,City of Marysville,KS,C5,20117,39.8430818,-96.6386808
485621,2046000,City of Merriam,KS,C5,20091,39.0186027,-94.6933619
485622,2047075,City of Minneapolis,KS,C5,20143,39.1242901,-97.6996561
485623,2047225,City of Mission,KS,C5,20091,39.0269733,-94.6568319
485624,2047350,City of Mission Hills,KS,C5,20091,39.0140893,-94.6171229
485625,2047425,City of Mission Woods,KS,C5,20091,39.0341885,-94.6106048
485626,2049025,City of Mulberry,KS,C5,20037,37.5560821,-94.6234417
485627,2049075,City of Mullinville,KS,C1,20097,37.5890411,-99.4756306
485628,2049650,City of Neodesha,KS,C5,20205,37.4241684,-95.6848682
485629,2050475,City of Newton,KS,C5,20079,38.0363882,-97.3463334
485630,2050525,City of Nickerson,KS,C5,20155,38.148899,-98.0882605
485631,2051500,City of Norton,KS,C5,20137,39.8363933,-99.8916233
485632,2052000,City of Oberlin,KS,C5,20039,39.8230398,-100.5307376
485633,2052575,City of Olathe,KS,C5,20091,38.8837988,-94.819588
485634,2053200,City of Osage City,KS,C5,20139,38.6336481,-95.8218057
485635,2053225,City of Osawatomie,KS,C5,20121,38.5089418,-94.9357965
485636,2053325,City of Osborne,KS,C5,20141,39.4406702,-98.6993748
485637,2053450,City of Oswego,KS,C5,20099,37.167353,-95.1121494
485638,2053550,City of Ottawa,KS,C5,20059,38.5999716,-95.2641452
485639,2053775,City of Overland Park,KS,C5,20091,38.8869705,-94.6870284
485640,2054250,City of Paola,KS,C5,20121,38.5783267,-94.8619836
485641,2054675,City of Parsons,KS,C5,20099,37.3424337,-95.2664299
485642,2055675,City of Phillipsburg,KS,C5,20147,39.751201,-99.3210245
485643,2056025,City of Pittsburg,KS,C5,20037,37.4129275,-94.6987119
485644,2057575,City of Prairie Village,KS,C5,20091,38.9874327,-94.6361068
485645,2057625,City of Pratt,KS,C5,20151,37.7045588,-98.7573351
485646,2060825,City of Roeland Park,KS,C5,20091,39.0358686,-94.6374072
485647,2061825,City of Russell,KS,C5,20167,38.8878022,-98.8512353
485648,2062025,City of Sabetha,KS,C5,20131,39.9135189,-95.7916896
485649,2062700,City of Salina,KS,C5,20169,38.8137022,-97.6143473
485650,2063325,City of Scammon,KS,C5,20021,37.278067,-94.8230264
485651,2063950,City of Seneca,KS,C5,20131,39.8376069,-96.0690387
485652,2064500,City of Shawnee,KS,C5,20091,39.0157859,-94.8076325
485653,2067625,City of Spring Hill,KS,C5,20091,38.7563559,-94.8200749
485654,2068200,City of Sterling,KS,C5,20159,38.2094068,-98.2063712
485655,2071000,City of Topeka,KS,C5,20177,39.0345838,-95.6955432
485656,2075825,City of Washington,KS,C5,20201,39.8173489,-97.048814
485657,2076350,City of Weir,KS,C5,20021,37.3082912,-94.7746779
485658,2076475,City of Wellington,KS,C5,20191,37.2717741,-97.3973316
485660,2077500,City of Westwood,KS,C5,20091,39.0393794,-94.6155796
485661,2077525,City of Westwood Hills,KS,C5,20091,39.0389049,-94.6096636
485662,2079000,City of Wichita,KS,C5,20173,37.6896722,-97.3442305
485663,2079950,City of Winfield,KS,C5,20035,37.2378557,-96.9851548
485664,2080700,City of Yates Center,KS,C5,20207,37.8680772,-95.7535157
485866,2100946,Allen City,KY,C4,21071,37.6095426,-82.7276582
496343,2146000,Lexington,KY,C4,21067,37.9886892,-84.4777153
498153,2151906,Middlesboro,KY,C4,21013,36.6084155,-83.7165824
509453,2148000,Louisville,KY,C4,21111,38.2542376,-85.759407
545142,2255000,City of New Orleans,LA,C5,22071,30.0686437,-89.9281281
554912,2239090,Keatchie,LA,C4,22031,32.1884945,-93.9054624
582333,2302060,City of Auburn,ME,C5,23001,44.0851429,-70.2492868
582334,2302100,City of Augusta,ME,C5,23011,44.3341018,-69.7318763
582340,2302795,City of Bangor,ME,C5,23019,44.8322681,-68.7906073
582343,2303355,City of Bath,ME,C5,23023,43.9345529,-69.8346374
582347,2303950,City of Belfast,ME,C5,23027,44.4266442,-69.0274559
582353,2304860,City of Biddeford,ME,C5,23031,43.4439802,-70.3981522
582366,2306925,City of Brewer,ME,C5,23019,44.7835592,-68.7351593
582382,2309585,City of Calais,ME,C5,23029,45.1339522,-67.2239198
582389,2310565,City of Caribou,ME,C5,23003,46.8661775,-67.9919866
582460,2321730,City of Eastport,ME,C5,23029,44.9146291,-67.0111933
582465,2323200,City of Ellsworth,ME,C5,23009,44.5841833,-68.4871464
582486,2327085,City of Gardiner,ME,C5,23011,44.1910431,-69.7921173
582505,2330550,City of Hallowell,ME,C5,23011,44.2904703,-69.8140553
582554,2338740,City of Lewiston,ME,C5,23001,44.0914582,-70.1680816
582648,2355225,City of Old Town,ME,C5,23019,44.9491101,-68.7248765
582683,2360545,City of Portland,ME,C5,23005,43.6470835,-70.1682277
582686,2360825,City of Presque Isle,ME,C5,23003,46.68672,-67.9873503
582698,2363590,City of Rockland,ME,C5,23013,44.1250046,-69.1315572
582705,2364675,City of Saco,ME,C5,23031,43.5206942,-70.4240968
582712,2365725,City of Sanford,ME,C1,23031,43.4243722,-70.7572974
582738,2371990,City of South Portland,ME,C5,23005,43.6317884,-70.2861903
582795,2380740,City of Waterville,ME,C5,23011,44.5440367,-69.6626189
582802,2382105,City of Westbrook,ME,C5,23005,43.6953999,-70.3538286
618166,2527100,City of Greenfield Town,MA,C5,25011,42.614031,-72.598557
618180,2500840,City of Agawam Town,MA,C5,25013,42.0657397,-72.6525791
618181,2513660,City of Chicopee,MA,C5,25013,42.1763845,-72.5718562
618193,2576030,City of Westfield,MA,C5,25013,42.1381923,-72.7561044
618194,2577890,City of West Springfield Town,MA,C5,25013,42.125341,-72.6502433
618199,2519370,City of Easthampton Town,MA,C5,25015,42.2651408,-72.6720516
618223,2521990,City of Everett,MA,C5,25017,42.4064202,-71.0544777
618227,2537000,City of Lowell,MA,C5,25017,42.6388709,-71.321714
618228,2538715,City of Marlborough,MA,C5,25017,42.3493997,-71.5468111
618241,2572600,City of Waltham,MA,C5,25017,42.3889099,-71.2423145
618242,2573440,City of Watertown Town,MA,C5,25017,42.3699781,-71.1774641
618248,2503690,City of Barnstable Town,MA,C5,25001,41.6679497,-70.3573276
618273,2546225,City of North Adams,MA,C5,25003,42.6844007,-73.1166037
618278,2502690,City of Attleboro,MA,C5,25005,41.9311103,-71.2948922
618282,2523000,City of Fall River,MA,C5,25005,41.7136621,-71.1014059
618292,2501260,City of Amesbury Town,MA,C5,25009,42.8529481,-70.9446321
618293,2505595,City of Beverly,MA,C5,25009,42.5582758,-70.8434585
618297,2526150,City of Gloucester,MA,C5,25009,42.6306123,-70.6835946
618302,2540710,City of Methuen Town,MA,C5,25009,42.7339854,-71.1888285
618305,2545245,City of Newburyport,MA,C5,25009,42.8123921,-70.8874413
618307,2552490,City of Peabody,MA,C5,25009,42.5335364,-70.9724664
618316,2507740,City of Braintree Town,MA,C5,25021,42.2038449,-71.0022173
618321,2525172,City of Franklin Town,MA,C5,25021,42.0862123,-71.4112813
618328,2556000,City of Randolph Town,MA,C5,25021,42.1778475,-71.0539617
618335,2581005,City of Winthrop Town,MA,C5,25025,42.3794265,-70.9657221
618363,2523875,City of Fitchburg,MA,C5,25027,42.5912403,-71.8156014
618364,2525485,City of Gardner,MA,C5,25027,42.5845153,-71.9867546
618369,2535075,City of Leominster,MA,C5,25027,42.5208785,-71.771671
618383,2563345,City of Southbridge Town,MA,C5,25027,42.0604338,-72.0337677
619386,2530840,City of Holyoke,MA,C5,25013,42.2125679,-72.6410738
619387,2552144,City of Palmer Town,MA,C5,25013,42.1887896,-72.3111632
619388,2567000,City of Springfield,MA,C5,25013,42.115502,-72.5395222
619392,2546330,City of Northampton,MA,C5,25015,42.3266369,-72.6745322
619396,2511000,City of Cambridge,MA,C5,25017,42.3758179,-71.1183758
619404,2537875,City of Malden,MA,C5,25017,42.4304693,-71.0576166
619405,2539835,City of Medford,MA,C5,25017,42.4234225,-71.1086853
619406,2540115,City of Melrose,MA,C5,25017,42.4556148,-71.0590082
619408,2545560,City of Newton,MA,C5,25017,42.331602,-71.2084263
619409,2562535,City of Somerville,MA,C5,25017,42.3907383,-71.1013497
619411,2581035,City of Woburn,MA,C5,25017,42.4868785,-71.1542666
619424,2553960,City of Pittsfield,MA,C5,25003,42.4517085,-73.260522
619435,2545000,City of New Bedford,MA,C5,25005,41.6614943,-70.9381966
619440,2569170,City of Taunton,MA,C5,25005,41.9035831,-71.0942871
619447,2529405,City of Haverhill,MA,C5,25009,42.7838792,-71.0871576
619449,2534550,City of Lawrence,MA,C5,25009,42.7002436,-71.1626147
619450,2537490,City of Lynn,MA,C5,25009,42.4744968,-70.9607095
619453,2559105,City of Salem,MA,C5,25009,42.5138568,-70.8983295
619461,2555745,City of Quincy,MA,C5,25021,42.2621603,-71.0072248
619462,2578972,City of Weymouth Town,MA,C5,25021,42.2069053,-70.9444299
619463,2507000,City of Boston,MA,C5,25025,42.332227,-71.0163856
619464,2513205,City of Chelsea,MA,C5,25025,42.3959061,-71.0324812
619465,2556585,City of Revere,MA,C5,25025,42.4187099,-70.9914535
619466,2508130,City of Bridgewater Town,MA,C5,25023,41.9728299,-70.974875
619467,2509000,City of Brockton,MA,C5,25023,42.0820603,-71.0241894
619493,2582000,City of Worcester,MA,C5,25027,42.2705433,-71.8079407
623384,2616100,Clarkston,MI,C4,26125,42.735863,-83.4188304
634090,2661010,Orchard Lake,MI,C4,26125,42.5830887,-83.3593798
640187,2706050,Birchwood,MN,C4,27163,45.0610773,-92.9760491
642486,2713978,Cross Lake,MN,C4,27035,46.6594065,-94.1138727
663772,2710576,City of Center City,MN,C5,27025,45.3942627,-92.8141047
663797,2711350,City of Chisago City,MN,C5,27025,45.347371,-92.9116733
663803,2711548,City of Clara City,MN,C5,27023,44.9583815,-95.3671721
664359,2726126,City of Grove City,MN,C5,27093,45.147956,-94.6814943
664474,2729096,City of Hill City,MN,C5,27001,46.9716875,-93.5969505
664666,2734172,City of Lake City,MN,C5,27157,44.445196,-92.2795654
664992,2743144,City of Minnesota City,MN,C5,27169,44.092292,-91.7500002
665301,2751064,City of Pine City,MN,C5,27115,45.8353372,-92.9686999
665407,2754060,City of Rice Lake,MN,C5,27137,46.8976535,-92.1136602
665486,2756266,City of Rush City,MN,C5,27025,45.6876371,-92.9655256
666076,2772328,City of Zumbrota,MN,C5,27049,44.2949893,-92.6734477
670437,2827740,Glens,MS,C4,28003,34.8662004,-88.4139352
671516,2833820,Houlka,MS,C4,28017,34.0381648,-89.0220059
677875,2868280,Slate Spring,MS,C4,28013,33.7406725,-89.3711841
716380,2916802,Country Club Village,MO,C4,29003,39.8322164,-94.8216324
718500,2927280,Glenallen,MO,C4,29017,37.3178318,-90.0278816
718624,2927946,Gorin,MO,C4,29199,40.3600374,-92.024343
735634,2929098,Green Castle,MO,C4,29211,40.2625233,-92.877981
735684,2941348,Lees Summit,MO,C4,29095,38.9108408,-94.3821724
736301,2926992,Gifford,MO,C4,29121,40.0255868,-92.6815828
753200,2915220,Cobalt Village,MO,C4,29123,37.5450533,-90.2876178
756639,2964514,Saint Johns,MO,C4,29189,38.7133845,-90.3431708
756843,2975796,Velda Village,MO,C4,29189,38.6900512,-90.2942805
758447,2969230,South West City,MO,C4,29119,36.5125756,-94.6113332
767557,2965000,City of Saint Louis,MO,C7,29510,38.6357743,-90.2451721
779015,3001600,Anaconda,MT,C4,30023,46.1285369,-112.9422641
780689,3011275,Butte,MT,C4,30093,46.0038153,-112.5347447
827532,3105700,Boelus,NE,C4,31093,41.0739015,-98.7156316
829654,3120015,Greeley,NE,C4,31077,41.5486236,-98.5311848
837849,3100975,City of Alma,NE,C5,31083,40.1035656,-99.3656932
837869,3103390,City of Beatrice,NE,C5,31067,40.2737373,-96.7454866
837886,3105455,City of Bloomfield,NE,C5,31107,42.5984122,-97.648138
837893,3106610,City of Broken Bow,NE,C5,31041,41.4051282,-99.6401235
837913,3108535,City of Central City,NE,C5,31121,41.1133171,-98.0002013
837923,3109375,City of Clay Center,NE,C5,31035,40.5254713,-98.0549955
837933,3110110,City of Columbus,NE,C5,31141,41.4360379,-97.3560797
837947,3111230,City of Creighton,NE,C5,31107,42.4648571,-97.9071463
837950,3111440,City of Crofton,NE,C5,31107,42.7316127,-97.4986081
837956,3112315,City of David City,NE,C5,31023,41.2576784,-97.1276817
838009,3117530,City of Franklin,NE,C5,31061,40.0965495,-98.9514248
838010,3117670,City of Fremont,NE,C5,31053,41.4417083,-96.4884694
838012,3117810,City of Fullerton,NE,C5,31125,41.3647181,-97.9726209
838022,3118475,City of Genoa,NE,C5,31125,41.4462143,-97.7322018
838031,3119595,City of Grand Island,NE,C5,31079,40.9214082,-98.3583817
838051,3121415,City of Hastings,NE,C5,31001,40.5960075,-98.3915483
838058,3122640,City of Holdrege,NE,C5,31137,40.4394068,-99.3772995
838076,3125055,City of Kearney,NE,C5,31019,40.7008726,-99.0846402
838151,3133775,City of Neligh,NE,C5,31003,42.1289449,-98.0298018
838161,3134720,City of North Bend,NE,C5,31053,41.464771,-96.7830717
838169,3135490,City of Oakland,NE,C5,31021,41.8353737,-96.4667331
838176,3137105,City of O'Neill,NE,C5,31089,42.4610191,-98.646494
838195,3139695,City of Ponca,NE,C5,31051,42.5648449,-96.7094995
838204,3140710,City of Ravenna,NE,C5,31019,41.02892,-98.9116377
838238,3144280,City of Scribner,NE,C5,31053,41.6649932,-96.6653429
838277,3147955,City of Sutton,NE,C5,31035,40.6071152,-97.8583289
838280,3148515,City of Tekamah,NE,C5,31021,41.7779134,-96.2247443
838282,3148935,City of Tilden,NE,C5,31119,42.0438868,-97.8319823
838310,3150965,City of Wahoo,NE,C5,31155,41.2151892,-96.6165918
838328,3152575,City of West Point,NE,C5,31039,41.8377754,-96.7061452
838335,3153450,City of Wisner,NE,C5,31039,41.9880469,-96.9140607
838343,3134230,City of Newman Grove,NE,C5,31119,41.7468924,-97.7767019
863219,3209700,Carson City,NV,C7,32510,39.1511464,-119.7474222
873545,3305140,City of Berlin,NH,C5,33007,44.4868924,-71.2598989
873567,3312900,City of Claremont,NH,C5,33019,43.3789837,-72.3367209
873569,3314200,City of Concord,NH,C5,33013,43.2305483,-71.5595251
873580,3318820,City of Dover,NH,C5,33017,43.1886988,-70.8845327
873600,3327380,City of Franklin,NH,C5,33013,43.449911,-71.6691176
873635,3339300,City of Keene,NH,C5,33005,42.9493669,-72.2997216
873639,3340180,City of Laconia,NH,C5,33001,43.5724274,-71.4775126
873643,3341300,City of Lebanon,NH,C5,33009,43.635251,-72.2530994
873658,3345140,City of Manchester,NH,C5,33011,42.9847776,-71.4446984
873672,3350260,City of Nashua,NH,C5,33011,42.7491277,-71.4909414
873703,3362900,City of Portsmouth,NH,C5,33015,43.0580866,-70.7825602
873708,3365140,City of Rochester,NH,C5,33017,43.2989783,-70.9786088
873721,3369940,City of Somersworth,NH,C5,33017,43.2533843,-70.885489
876615,3426310,Gladstone,NJ,C4,34035,40.7226007,-74.6654381
878839,3452620,Borough of North Caldwell,NJ,C5,34013,40.8629411,-74.2575938
879183,3457270,Peapack,NJ,C4,34035,40.7167675,-74.6565489
885134,3400100,City of Absecon,NJ,C5,34001,39.4228127,-74.4943822
885135,3400700,Borough of Allendale,NJ,C5,34003,41.033212,-74.133297
885136,3400730,Borough of Allenhurst,NJ,C5,34025,40.2361302,-74.0014135
885137,3400760,Borough of Allentown,NJ,C5,34025,40.1777925,-74.587313
885138,3401030,Borough of Alpha,NJ,C5,34041,40.6597588,-75.1571142
885139,3401090,Borough of Alpine,NJ,C5,34003,40.961639,-73.9199081
885140,3401330,Borough of Andover,NJ,C5,34037,40.9859358,-74.742861
885141,3401960,City of Asbury Park,NJ,C5,34025,40.2226468,-74.0108373
885142,3402080,City of Atlantic City,NJ,C5,34001,39.3775581,-74.4515597
885143,3402110,Borough of Atlantic Highlands,NJ,C5,34025,40.4213445,-74.0242688
885144,3402200,Borough of Audubon,NJ,C5,34007,39.890572,-75.0721899
885145,3402230,Borough of Audubon Park,NJ,C5,34007,39.8969261,-75.0890145
885146,3402320,Borough of Avalon,NJ,C5,34009,39.0905503,-74.7356802
885147,3402440,Borough of Avon-by-the-Sea,NJ,C5,34025,40.1913367,-74.0150716
885148,3403130,Borough of Barnegat Light,NJ,C5,34029,39.7533573,-74.1083092
885149,3403250,Borough of Barrington,NJ,C5,34007,39.8689354,-75.051361
885150,3403520,Borough of Bay Head,NJ,C5,34029,40.0697938,-74.0478458
885151,3403580,City of Bayonne,NJ,C5,34017,40.6648916,-74.1093235
885152,3403940,Borough of Beach Haven,NJ,C5,34029,39.5657735,-74.2487416
885153,3404180,Borough of Beachwood,NJ,C5,34029,39.9286221,-74.2022598
885154,3404750,Borough of Bellmawr,NJ,C5,34007,39.8665564,-75.0941074
885155,3404930,Borough of Belmar,NJ,C5,34025,40.1797642,-74.0240774
885156,3404990,Town of Belvidere,NJ,C5,34041,40.8294412,-75.0727918
885157,3405170,Borough of Bergenfield,NJ,C5,34003,40.923608,-73.9982014
885158,3405440,Borough of Berlin,NJ,C5,34007,39.7915173,-74.9374585
885159,3405590,Borough of Bernardsville,NJ,C5,34035,40.7268331,-74.5917819
885160,3405740,City of Beverly,NJ,C5,34005,40.0651901,-74.9221944
885161,3406340,Borough of Bloomingdale,NJ,C5,34031,41.0300234,-74.3318755
885162,3406370,Borough of Bloomsbury,NJ,C5,34019,40.6537108,-75.0839339
885163,3406490,Borough of Bogota,NJ,C5,34003,40.8750682,-74.029348
885164,3406610,Town of Boonton,NJ,C5,34027,40.9047172,-74.4050041
885165,3406670,City of Bordentown,NJ,C5,34005,40.1493871,-74.7083511
885166,3406790,Borough of Bound Brook,NJ,C5,34035,40.5676398,-74.5383328
885167,3406970,Borough of Bradley Beach,NJ,C5,34025,40.2017393,-74.0126369
885168,3407300,Borough of Branchville,NJ,C5,34037,41.1470796,-74.7494383
885169,3407600,City of Bridgeton,NJ,C5,34011,39.4285615,-75.2280699
885170,3407750,Borough of Brielle,NJ,C5,34025,40.1048431,-74.0636954
885171,3407810,City of Brigantine,NJ,C5,34001,39.4136065,-74.3784918
885172,3408170,Borough of Brooklawn,NJ,C5,34007,39.878813,-75.1207514
885173,3408680,Borough of Buena,NJ,C5,34001,39.5282298,-74.9447727
885174,3408920,City of Burlington,NJ,C5,34005,40.0783829,-74.8523709
885175,3409040,Borough of Butler,NJ,C5,34027,40.9989992,-74.34714
885176,3409280,Borough of Califon,NJ,C5,34019,40.7192209,-74.8370103
885177,3410000,City of Camden,NJ,C5,34007,39.9361416,-75.1073325
885178,3410270,City of Cape May,NJ,C5,34009,38.9407032,-74.9032072
885179,3410330,Borough of Cape May Point,NJ,C5,34009,38.93715,-74.9651592
885180,3410480,Borough of Carlstadt,NJ,C5,34003,40.8247041,-74.0611848
885181,3410750,Borough of Carteret,NJ,C5,34023,40.5838615,-74.2272049
885182,3412100,Borough of Chatham,NJ,C5,34027,40.7404716,-74.3838156
885183,3412550,Borough of Chesilhurst,NJ,C5,34007,39.7306397,-74.8785832
885184,3412580,Borough of Chester,NJ,C5,34027,40.7873925,-74.6921291
885185,3413360,Borough of Clayton,NJ,C5,34015,39.662711,-75.0782539
885186,3413420,Borough of Clementon,NJ,C5,34007,39.804572,-74.9850037
885187,3413570,Borough of Cliffside Park,NJ,C5,34003,40.8220508,-73.9879318
885188,3413690,City of Clifton,NJ,C5,34031,40.8630331,-74.1575316
885189,3413720,Town of Clinton,NJ,C5,34019,40.6359214,-74.9124639
885190,3413810,Borough of Closter,NJ,C5,34003,40.973299,-73.9604379
885191,3414260,Borough of Collingswood,NJ,C5,34007,39.9160522,-75.0758849
885192,3415160,City of Corbin City,NJ,C5,34001,39.3046524,-74.7198607
885193,3415820,Borough of Cresskill,NJ,C5,34003,40.9404981,-73.9596072
885194,3416660,Borough of Deal,NJ,C5,34025,40.2496816,-73.9973793
885195,3417530,Borough of Demarest,NJ,C5,34003,40.9550415,-73.9567934
885196,3418070,Town of Dover,NJ,C5,34027,40.8859212,-74.5596752
885197,3418400,Borough of Dumont,NJ,C5,34003,40.9452573,-73.9922485
885198,3418490,Borough of Dunellen,NJ,C5,34023,40.5902944,-74.4656519
885199,3419360,Borough of East Newark,NJ,C5,34017,40.7509599,-74.1622556
885200,3419390,City of East Orange,NJ,C5,34013,40.7650558,-74.211654
885201,3419510,Borough of East Rutherford,NJ,C5,34003,40.8179034,-74.0853821
885202,3419840,Borough of Eatontown,NJ,C5,34025,40.2912488,-74.0557768
885203,3420020,Borough of Edgewater,NJ,C5,34003,40.8237158,-73.9739329
885204,3420350,City of Egg Harbor City,NJ,C5,34001,39.5639907,-74.5961347
885205,3421000,City of Elizabeth,NJ,C5,34039,40.6655327,-74.1911103
885206,3421240,Borough of Elmer,NJ,C5,34033,39.5918965,-75.1740063
885207,3421300,Borough of Elmwood Park,NJ,C5,34003,40.9049456,-74.1200504
885208,3421450,Borough of Emerson,NJ,C5,34003,40.974857,-74.0238886
885209,3421480,City of Englewood,NJ,C5,34003,40.891686,-73.9735862
885210,3421510,Borough of Englewood Cliffs,NJ,C5,34003,40.8822972,-73.9467314
885211,3421570,Borough of Englishtown,NJ,C5,34025,40.297118,-74.3606819
885212,3421870,City of Estell Manor,NJ,C5,34001,39.3586822,-74.7751453
885213,3422440,Borough of Fair Haven,NJ,C5,34025,40.3618338,-74.0392367
885214,3422470,Borough of Fair Lawn,NJ,C5,34003,40.935877,-74.1176591
885215,3422560,Borough of Fairview,NJ,C5,34003,40.8182129,-74.0022321
885216,3422860,Borough of Fanwood,NJ,C5,34039,40.6417014,-74.3856922
885217,3422890,Borough of Far Hills,NJ,C5,34035,40.6907287,-74.6257689
885218,3422950,Borough of Farmingdale,NJ,C5,34025,40.1983575,-74.170082
885219,3423250,Borough of Fieldsboro,NJ,C5,34005,40.1363661,-74.7315404
885220,3423700,Borough of Flemington,NJ,C5,34019,40.5086418,-74.8598696
885221,3423910,Borough of Florham Park,NJ,C5,34027,40.7772999,-74.3953662
885222,3423940,Borough of Folsom,NJ,C5,34001,39.5928831,-74.8424399
885223,3424420,Borough of Fort Lee,NJ,C5,34003,40.8508556,-73.9712063
885224,3424930,Borough of Franklin,NJ,C5,34037,41.1100991,-74.5885953
885225,3424990,Borough of Franklin Lakes,NJ,C5,34003,41.0085922,-74.2083431
885226,3425200,Borough of Freehold,NJ,C5,34025,40.2595057,-74.2755683
885227,3425350,Borough of Frenchtown,NJ,C5,34019,40.5272965,-75.0571303
885228,3425770,City of Garfield,NJ,C5,34003,40.8791483,-74.1085047
885229,3425800,Borough of Garwood,NJ,C5,34039,40.6513308,-74.3231515
885230,3426070,Borough of Gibbsboro,NJ,C5,34007,39.8332026,-74.9657352
885231,3426340,Borough of Glassboro,NJ,C5,34015,39.7013541,-75.1113351
885232,3426550,Borough of Glen Gardner,NJ,C5,34019,40.7003855,-74.9395208
885233,3426640,Borough of Glen Rock,NJ,C5,34003,40.9600698,-74.1249839
885234,3426820,City of Gloucester City,NJ,C5,34007,39.8923651,-75.1172185
885235,3428650,Town of Guttenberg,NJ,C5,34017,40.7926404,-74.0045379
885236,3428680,City of Hackensack,NJ,C5,34003,40.8890462,-74.0461666
885237,3428710,Town of Hackettstown,NJ,C5,34041,40.8539666,-74.8256419
885238,3428770,Borough of Haddonfield,NJ,C5,34007,39.8954671,-75.034529
885239,3428800,Borough of Haddon Heights,NJ,C5,34007,39.8791136,-75.0644943
885240,3429070,Borough of Haledon,NJ,C5,34031,40.9363217,-74.1887566
885241,3429220,Borough of Hamburg,NJ,C5,34037,41.1484826,-74.5734968
885242,3429430,Town of Hammonton,NJ,C5,34001,39.6572028,-74.7678044
885243,3429460,Borough of Hampton,NJ,C5,34019,40.706835,-74.9641205
885244,3430150,Borough of Harrington Park,NJ,C5,34003,40.9899087,-73.9803539
885245,3430210,Town of Harrison,NJ,C5,34017,40.7430755,-74.1531433
885246,3430390,Borough of Harvey Cedars,NJ,C5,34029,39.699611,-74.1419224
885247,3430420,Borough of Hasbrouck Heights,NJ,C5,34003,40.8618286,-74.0740873
885248,3430540,Borough of Haworth,NJ,C5,34003,40.962231,-73.9975993
885249,3430570,Borough of Hawthorne,NJ,C5,34031,40.9579636,-74.1581657
885250,3430840,Borough of Helmetta,NJ,C5,34023,40.3776529,-74.4237906
885251,3431320,Borough of High Bridge,NJ,C5,34019,40.6683711,-74.8940204
885252,3431470,Borough of Highland Park,NJ,C5,34023,40.500567,-74.4282965
885253,3431500,Borough of Highlands,NJ,C5,34025,40.4044763,-73.9903979
885254,3431620,Borough of Hightstown,NJ,C5,34021,40.2686078,-74.5252482
885255,3431920,Borough of Hillsdale,NJ,C5,34003,41.007376,-74.044018
885256,3432220,Borough of Hi-Nella,NJ,C5,34007,39.8365158,-75.0219648
885257,3432250,City of Hoboken,NJ,C5,34017,40.745203,-74.0279445
885258,3432310,Borough of Ho-Ho-Kus,NJ,C5,34003,41.0000502,-74.0971754
885259,3432910,Borough of Hopatcong,NJ,C5,34037,40.9541268,-74.6592634
885260,3433150,Borough of Hopewell,NJ,C5,34021,40.3893089,-74.7637985
885261,3434200,Borough of Interlaken,NJ,C5,34025,40.2349502,-74.0165395
885262,3434530,Borough of Island Heights,NJ,C5,34029,39.9423462,-74.1452969
885263,3434890,Borough of Jamesburg,NJ,C5,34023,40.3493486,-74.439968
885264,3436000,City of Jersey City,NJ,C5,34017,40.711559,-74.0647267
885265,3436480,Borough of Keansburg,NJ,C5,34025,40.4694155,-74.1486668
885266,3436510,Town of Kearny,NJ,C5,34017,40.7528145,-74.1201815
885267,3436690,Borough of Kenilworth,NJ,C5,34039,40.6781559,-74.2889033
885268,3436810,Borough of Keyport,NJ,C5,34025,40.4327343,-74.2011909
885269,3437110,Borough of Kinnelon,NJ,C5,34027,40.9847114,-74.3862185
885270,3437770,Borough of Lakehurst,NJ,C5,34029,40.0132927,-74.3201736
885271,3438610,City of Lambertville,NJ,C5,34019,40.3687487,-74.9430974
885272,3439210,Borough of Laurel Springs,NJ,C5,34007,39.8213154,-75.0052417
885273,3439390,Borough of Lavallette,NJ,C5,34029,39.9697847,-74.0723388
885274,3439420,Borough of Lawnside,NJ,C5,34007,39.8673078,-75.0289032
885275,3439630,Borough of Lebanon,NJ,C5,34019,40.6432406,-74.8350627
885276,3440020,Borough of Leonia,NJ,C5,34003,40.8637978,-73.9899127
885277,3440290,Borough of Lincoln Park,NJ,C5,34027,40.9239145,-74.3035036
885278,3440350,City of Linden,NJ,C5,34039,40.6248152,-74.2374099
885279,3440440,Borough of Lindenwold,NJ,C5,34007,39.8172363,-74.9898508
885280,3440530,City of Linwood,NJ,C5,34001,39.3435369,-74.5707631
885281,3440680,Borough of Little Ferry,NJ,C5,34003,40.8463982,-74.0387895
885282,3440770,Borough of Little Silver,NJ,C5,34025,40.3357265,-74.034617
885283,3441010,Village of Loch Arbour,NJ,C5,34025,40.2322567,-74.0007932
885284,3441100,Borough of Lodi,NJ,C5,34003,40.8783405,-74.0814345
885285,3441310,City of Long Branch,NJ,C5,34025,40.2962471,-73.9897877
885286,3441370,Borough of Longport,NJ,C5,34001,39.3086558,-74.5249161
885287,3442510,Borough of Madison,NJ,C5,34027,40.7586053,-74.4169798
885288,3442630,Borough of Magnolia,NJ,C5,34007,39.856195,-75.036397
885289,3443050,Borough of Manasquan,NJ,C5,34025,40.1135723,-74.0367676
885290,3443380,Borough of Mantoloking,NJ,C5,34029,40.0436804,-74.0509374
885291,3443620,Borough of Manville,NJ,C5,34035,40.5420739,-74.5892053
885292,3443890,City of Margate City,NJ,C5,34001,39.3309777,-74.5070306
885293,3444520,Borough of Matawan,NJ,C5,34025,40.4127121,-74.2365661
885294,3444880,Borough of Maywood,NJ,C5,34003,40.9024693,-74.0633825
885295,3445210,Borough of Medford Lakes,NJ,C5,34005,39.8574922,-74.8112535
885296,3445330,Borough of Mendham,NJ,C5,34027,40.7687085,-74.6002764
885297,3445510,Borough of Merchantville,NJ,C5,34007,39.9502215,-75.0503373
885298,3445690,Borough of Metuchen,NJ,C5,34023,40.5423827,-74.362842
885299,3445900,Borough of Middlesex,NJ,C5,34023,40.5744411,-74.5010822
885300,3446110,Borough of Midland Park,NJ,C5,34003,40.9951841,-74.1410319
885301,3446260,Borough of Milford,NJ,C5,34019,40.5693638,-75.0915996
885302,3446590,Borough of Millstone,NJ,C5,34035,40.500201,-74.5921284
885303,3446620,Borough of Milltown,NJ,C5,34023,40.4504122,-74.4350917
885304,3446680,City of Millville,NJ,C5,34011,39.3902492,-75.0560787
885305,3447130,Borough of Monmouth Beach,NJ,C5,34025,40.3362714,-73.9857936
885306,3447610,Borough of Montvale,NJ,C5,34003,41.0528914,-74.0498002
885307,3447700,Borough of Moonachie,NJ,C5,34003,40.8408434,-74.0589991
885308,3448210,Borough of Morris Plains,NJ,C5,34027,40.8356259,-74.4785784
885309,3448300,Town of Morristown,NJ,C5,34027,40.7966723,-74.4772085
885310,3448480,Borough of Mountain Lakes,NJ,C5,34027,40.890616,-74.4407166
885311,3448510,Borough of Mountainside,NJ,C5,34039,40.6810519,-74.3601111
885312,3448690,Borough of Mount Arlington,NJ,C5,34027,40.9189429,-74.6390857
885313,3448750,Borough of Mount Ephraim,NJ,C5,34007,39.8805729,-75.0916946
885314,3449680,Borough of National Park,NJ,C5,34015,39.8676215,-75.1851968
885315,3449920,Borough of Neptune City,NJ,C5,34025,40.2004756,-74.0333416
885316,3450130,Borough of Netcong,NJ,C5,34027,40.898512,-74.7019125
885317,3451000,City of Newark,NJ,C5,34013,40.7244769,-74.1725452
885318,3451210,City of New Brunswick,NJ,C5,34023,40.4870525,-74.445074
885319,3451390,Borough of Newfield,NJ,C5,34015,39.5484155,-75.0166564
885320,3451660,Borough of New Milford,NJ,C5,34003,40.9336958,-74.019571
885321,3451810,Borough of New Providence,NJ,C5,34039,40.6996361,-74.4034305
885322,3451930,Town of Newton,NJ,C5,34037,41.0534313,-74.7526755
885323,3452320,Borough of North Arlington,NJ,C5,34003,40.7874768,-74.127272
885324,3452950,City of Northfield,NJ,C5,34001,39.3718593,-74.5542994
885325,3453040,Borough of North Haledon,NJ,C5,34031,40.9627657,-74.1844295
885326,3453280,Borough of North Plainfield,NJ,C5,34035,40.6209105,-74.4385417
885327,3453430,Borough of Northvale,NJ,C5,34003,41.0100947,-73.9504381
885328,3453490,City of North Wildwood,NJ,C5,34009,39.0058793,-74.7973403
885329,3453610,Borough of Norwood,NJ,C5,34003,40.9933295,-73.9509885
885330,3453850,Borough of Oakland,NJ,C5,34003,41.0313581,-74.2407874
885331,3453880,Borough of Oaklyn,NJ,C5,34007,39.9023305,-75.0812802
885332,3454360,City of Ocean City,NJ,C5,34009,39.2688864,-74.6009122
885333,3454450,Borough of Ocean Gate,NJ,C5,34029,39.926777,-74.1351143
885334,3454570,Borough of Oceanport,NJ,C5,34025,40.3160633,-74.0205174
885335,3454660,Borough of Ogdensburg,NJ,C5,34037,41.0769111,-74.5973319
885336,3454870,Borough of Old Tappan,NJ,C5,34003,41.0163929,-73.9855931
885337,3454990,Borough of Oradell,NJ,C5,34003,40.956209,-74.031451
885338,3455770,Borough of Palisades Park,NJ,C5,34003,40.8471365,-73.9966302
885339,3455800,Borough of Palmyra,NJ,C5,34005,40.0025074,-75.0359549
885340,3455950,Borough of Paramus,NJ,C5,34003,40.9455493,-74.0711702
885341,3456130,Borough of Park Ridge,NJ,C5,34003,41.0352857,-74.042369
885342,3456550,City of Passaic,NJ,C5,34031,40.8574698,-74.1282124
885343,3457000,City of Paterson,NJ,C5,34031,40.9146857,-74.1623725
885344,3457150,Borough of Paulsboro,NJ,C5,34015,39.8399708,-75.2396431
885345,3457300,Borough of Peapack and Gladstone,NJ,C5,34035,40.716827,-74.6562204
885346,3457480,Borough of Pemberton,NJ,C5,34005,39.9714008,-74.6858452
885347,3457600,Borough of Pennington,NJ,C5,34021,40.3262583,-74.7907074
885348,3457750,Borough of Penns Grove,NJ,C5,34033,39.727704,-75.4690348
885349,3458200,City of Perth Amboy,NJ,C5,34023,40.519722,-74.2707797
885350,3458350,Town of Phillipsburg,NJ,C5,34041,40.6893385,-75.1820887
885351,3458590,Borough of Pine Beach,NJ,C5,34029,39.9358645,-74.1700382
885352,3458770,Borough of Pine Hill,NJ,C5,34007,39.7879148,-74.9857121
885353,3458920,Borough of Pine Valley,NJ,C5,34007,39.7869622,-74.9741493
885354,3459070,Borough of Pitman,NJ,C5,34015,39.7334907,-75.1305516
885355,3459190,City of Plainfield,NJ,C5,34039,40.6154231,-74.415668
885356,3459640,City of Pleasantville,NJ,C5,34001,39.3899374,-74.5168509
885357,3459880,Borough of Point Pleasant,NJ,C5,34029,40.0772118,-74.0701379
885358,3459910,Borough of Point Pleasant Beach,NJ,C5,34029,40.0928234,-74.0457022
885359,3460090,Borough of Pompton Lakes,NJ,C5,34031,41.0024131,-74.2858357
885360,3460600,City of Port Republic,NJ,C5,34001,39.532811,-74.4852293
885362,3461170,Borough of Prospect Park,NJ,C5,34031,40.9380555,-74.1736052
885363,3461530,City of Rahway,NJ,C5,34039,40.6076476,-74.2806622
885364,3461680,Borough of Ramsey,NJ,C5,34003,41.0594863,-74.1453641
885365,3461980,Borough of Raritan,NJ,C5,34035,40.5730818,-74.6431591
885366,3462430,Borough of Red Bank,NJ,C5,34025,40.3480988,-74.067209
885367,3462910,Borough of Ridgefield,NJ,C5,34003,40.8312995,-74.0147074
885368,3462940,Village of Ridgefield Park,NJ,C5,34003,40.8543293,-74.0201162
885369,3463000,Village of Ridgewood,NJ,C5,34003,40.9821352,-74.1127195
885370,3463150,Borough of Ringwood,NJ,C5,34031,41.1064944,-74.2748732
885371,3463300,Borough of Riverdale,NJ,C5,34027,40.9921033,-74.3124047
885372,3463360,Borough of River Edge,NJ,C5,34003,40.9268141,-74.0387263
885373,3463660,Borough of Riverton,NJ,C5,34005,40.011569,-75.0149054
885374,3464050,Borough of Rockaway,NJ,C5,34027,40.8969291,-74.5154979
885375,3464170,Borough of Rockleigh,NJ,C5,34003,41.002602,-73.9326562
885376,3464320,Borough of Rocky Hill,NJ,C5,34035,40.4001427,-74.6405535
885377,3464410,Borough of Roosevelt,NJ,C5,34025,40.2211561,-74.4729749
885378,3464590,Borough of Roseland,NJ,C5,34013,40.8208011,-74.3086794
885379,3464620,Borough of Roselle,NJ,C5,34039,40.652691,-74.2598922
885380,3464650,Borough of Roselle Park,NJ,C5,34039,40.6653089,-74.266558
885381,3465130,Borough of Rumson,NJ,C5,34025,40.3625874,-74.0045812
885382,3465160,Borough of Runnemede,NJ,C5,34007,39.8521636,-75.0739728
885383,3465280,Borough of Rutherford,NJ,C5,34003,40.8204184,-74.1057936
885384,3465400,Borough of Saddle River,NJ,C5,34003,41.0272958,-74.0955796
885385,3465490,City of Salem,NJ,C5,34033,39.5680849,-75.4724155
885386,3465790,Borough of Sayreville,NJ,C5,34023,40.4662262,-74.3197199
885387,3466240,Borough of Sea Bright,NJ,C5,34025,40.3497712,-73.9815145
885388,3466330,Borough of Sea Girt,NJ,C5,34025,40.12999,-74.0333498
885389,3466390,City of Sea Isle City,NJ,C5,34009,39.1519857,-74.6977901
885390,3466450,Borough of Seaside Heights,NJ,C5,34029,39.945156,-74.0786764
885391,3466480,Borough of Seaside Park,NJ,C5,34029,39.926405,-74.0783479
885392,3466570,Town of Secaucus,NJ,C5,34017,40.7810404,-74.0658909
885393,3467020,Borough of Shiloh,NJ,C5,34011,39.4595488,-75.2969625
885394,3467110,Borough of Ship Bottom,NJ,C5,34029,39.6458709,-74.1832736
885395,3467350,Borough of Shrewsbury,NJ,C5,34025,40.3248973,-74.060029
885396,3468340,Borough of Somerdale,NJ,C5,34007,39.8454165,-75.0217014
885397,3468430,City of Somers Point,NJ,C5,34001,39.316679,-74.6066147
885398,3468460,Borough of Somerville,NJ,C5,34035,40.5696383,-74.6092402
885399,3468550,City of South Amboy,NJ,C5,34023,40.4861825,-74.2778798
885400,3437560,Borough of Lake Como,NJ,C5,34025,40.1706059,-74.0262153
885401,3468730,Borough of South Bound Brook,NJ,C5,34035,40.5535688,-74.5276689
885402,3469390,Borough of South Plainfield,NJ,C5,34023,40.5747822,-74.4152523
885403,3469420,Borough of South River,NJ,C5,34023,40.4454756,-74.3782826
885404,3469510,Borough of South Toms River,NJ,C5,34029,39.941772,-74.2086826
885405,3469810,Borough of Spotswood,NJ,C5,34023,40.3949055,-74.391962
885406,3470110,Borough of Spring Lake,NJ,C5,34025,40.1532061,-74.0262141
885407,3470140,Borough of Spring Lake Heights,NJ,C5,34025,40.1521932,-74.0429303
885408,3470380,Borough of Stanhope,NJ,C5,34037,40.9141416,-74.7026951
885409,3470980,Borough of Stockton,NJ,C5,34019,40.4061234,-74.975828
885410,3471010,Borough of Stone Harbor,NJ,C5,34009,39.0435063,-74.7689731
885411,3471220,Borough of Stratford,NJ,C5,34007,39.82899,-75.015536
885412,3471430,City of Summit,NJ,C5,34039,40.7153656,-74.3647035
885413,3471640,Borough of Surf City,NJ,C5,34029,39.6644595,-74.1706754
885414,3471670,Borough of Sussex,NJ,C5,34037,41.2095718,-74.6078575
885415,3471850,Borough of Swedesboro,NJ,C5,34015,39.7458703,-75.3117448
885416,3472240,Borough of Tavistock,NJ,C5,34007,39.8757582,-75.0272606
885417,3472420,Borough of Tenafly,NJ,C5,34003,40.9175351,-73.9531864
885418,3472480,Borough of Teterboro,NJ,C5,34003,40.8579432,-74.0593755
885419,3473020,Borough of Tinton Falls,NJ,C5,34025,40.27083,-74.0948495
885420,3473140,Borough of Totowa,NJ,C5,34031,40.9039073,-74.2213981
885421,3474000,City of Trenton,NJ,C5,34021,40.2236972,-74.7640065
885422,3474210,Borough of Tuckerton,NJ,C5,34029,39.5973002,-74.3305418
885423,3474540,Borough of Union Beach,NJ,C5,34025,40.4454979,-74.1699834
885424,3474630,City of Union City,NJ,C5,34017,40.7674254,-74.0322772
885425,3475140,Borough of Upper Saddle River,NJ,C5,34003,41.0633517,-74.098489
885426,3475620,City of Ventnor City,NJ,C5,34001,39.342009,-74.4826952
885427,3475890,Borough of Victory Gardens,NJ,C5,34027,40.8761297,-74.5435298
885428,3476070,City of Vineland,NJ,C5,34011,39.4652869,-74.9981335
885429,3476400,Borough of Waldwick,NJ,C5,34003,41.0133187,-74.1258542
885430,3476490,Borough of Wallington,NJ,C5,34003,40.8535664,-74.1069096
885431,3476730,Borough of Wanaque,NJ,C5,34031,41.0439743,-74.2899958
885432,3477270,Borough of Washington,NJ,C5,34041,40.7586995,-74.9824841
885433,3477600,Borough of Watchung,NJ,C5,34035,40.6431579,-74.4391212
885434,3478110,Borough of Wenonah,NJ,C5,34015,39.7913268,-75.1485646
885435,3478530,Borough of West Cape May,NJ,C5,34009,38.9422636,-74.937769
885436,3479040,Town of Westfield,NJ,C5,34039,40.6515491,-74.3432255
885437,3479310,Borough of West Long Branch,NJ,C5,34025,40.288319,-74.0185282
885438,3479610,Town of West New York,NJ,C5,34017,40.7856344,-74.0093268
885439,3482423,Borough of Woodland Park,NJ,C5,34031,40.8904769,-74.1945679
885440,3480120,Borough of Westville,NJ,C5,34015,39.8704403,-75.1301647
885441,3480210,Borough of West Wildwood,NJ,C5,34009,39.0006073,-74.8235461
885442,3480270,Borough of Westwood,NJ,C5,34003,40.9878583,-74.030882
885443,3480390,Borough of Wharton,NJ,C5,34027,40.8998501,-74.580804
885444,3481170,City of Wildwood,NJ,C5,34009,38.9876975,-74.8188677
885445,3481200,Borough of Wildwood Crest,NJ,C5,34009,38.9717105,-74.8375851
885446,3481890,Borough of Woodbine,NJ,C5,34009,39.2283504,-74.8096211
885447,3482120,City of Woodbury,NJ,C5,34015,39.8378815,-75.1524263
885448,3482180,Borough of Woodbury Heights,NJ,C5,34015,39.8159813,-75.151177
885449,3482300,Borough of Woodcliff Lake,NJ,C5,34003,41.0252914,-74.0603431
885450,3482450,Borough of Woodlynne,NJ,C5,34007,39.9166481,-75.0956242
885451,3482570,Borough of Wood-Ridge,NJ,C5,34003,40.8507019,-74.0877346
885452,3482720,Borough of Woodstown,NJ,C5,34033,39.6503049,-75.3251174
885453,3482960,Borough of Wrightstown,NJ,C5,34005,40.0255897,-74.6319041
978659,3601000,City of Albany,NY,C5,36001,42.666397,-73.7986828
978677,3602066,City of Amsterdam,NY,C5,36057,42.9419609,-74.1906023
978695,3603078,City of Auburn,NY,C5,36011,42.9338366,-76.5684719
978713,3604715,City of Batavia,NY,C5,36037,42.9986993,-78.18023
978716,3605100,City of Beacon,NY,C5,36027,41.5035814,-73.9654363
978733,3606607,City of Binghamton,NY,C5,36007,42.1013789,-75.9092651
978764,3611000,City of Buffalo,NY,C5,36029,42.8922505,-78.8594148
978784,3612144,City of Canandaigua,NY,C5,36069,42.8885067,-77.2805383
978847,3616749,City of Cohoes,NY,C5,36001,42.7732757,-73.7077358
978867,3618256,City of Corning,NY,C5,36101,42.1469575,-77.0561223
978870,3618388,City of Cortland,NY,C5,36023,42.6003928,-76.1784076
978911,3621105,City of Dunkirk,NY,C5,36013,42.4804001,-79.332272
978938,3624229,City of Elmira,NY,C5,36015,42.0937983,-76.8096953
978979,3627815,City of Fulton,NY,C5,36075,43.3171207,-76.416186
978992,3628640,City of Geneva,NY,C5,36069,42.86441,-76.9826452
979003,3629113,City of Glen Cove,NY,C5,36059,40.8914755,-73.6441435
979004,3629333,City of Glens Falls,NY,C5,36113,43.3108406,-73.6458536
979006,3629443,City of Gloversville,NY,C5,36035,43.049062,-74.3465457
979078,3635672,City of Hornell,NY,C5,36101,42.3257239,-77.6604305
979083,3635969,City of Hudson,NY,C5,36021,42.2515206,-73.7858917
979099,3638077,City of Ithaca,NY,C5,36109,42.4441326,-76.5031792
979102,3638264,City of Jamestown,NY,C5,36013,42.0974864,-79.2366567
979110,3638781,City of Johnstown,NY,C5,36035,43.0073034,-74.3755127
979118,3639727,City of Kingston,NY,C5,36111,41.9295132,-73.9967932
979124,3640189,City of Lackawanna,NY,C5,36029,42.8182192,-78.8325119
979157,3642741,City of Little Falls,NY,C5,36043,43.0452231,-74.8565728
979164,3643082,City of Lockport,NY,C5,36063,43.1698483,-78.695625
979167,3643335,City of Long Beach,NY,C5,36059,40.5855903,-73.6654339
979207,3646360,City of Mechanicville,NY,C5,36091,42.903543,-73.689432
979217,3647042,City of Middletown,NY,C5,36071,41.4457973,-74.4228096
979245,3649121,City of Mount Vernon,NY,C5,36119,40.9136008,-73.8291002
979258,3650034,City of Newburgh,NY,C5,36071,41.5036973,-74.0204722
979271,3650617,City of New Rochelle,NY,C5,36119,40.9230824,-73.7799495
979276,3651055,City of Niagara Falls,NY,C5,36063,43.0920924,-79.0147317
979293,3653682,City of North Tonawanda,NY,C5,36063,43.0457204,-78.8659135
979296,3653979,City of Norwich,NY,C5,36017,42.5333226,-75.5227591
979301,3654485,City of Ogdensburg,NY,C5,36089,44.7087697,-75.4717838
979305,3654716,City of Olean,NY,C5,36009,42.0818513,-78.4321392
979308,3654837,City of Oneida,NY,C5,36053,43.0769328,-75.6620988
979309,3654881,City of Oneonta,NY,C5,36077,42.4551124,-75.0666219
979325,3655574,City of Oswego,NY,C5,36075,43.4585629,-76.5036137
979348,3656979,City of Peekskill,NY,C5,36119,41.2883342,-73.922661
979376,3658574,City of Plattsburgh,NY,C5,36019,44.6950606,-73.4563085
979387,3659388,City of Port Jervis,NY,C5,36071,41.3783505,-74.6910054
979392,3659641,City of Poughkeepsie,NY,C5,36027,41.6949225,-73.9210488
979414,3661148,City of Rensselaer,NY,C5,36083,42.6464936,-73.7327923
979426,3663000,City of Rochester,NY,C5,36055,43.1688002,-77.6159378
979430,3663418,City of Rome,NY,C5,36065,43.2259763,-75.4908901
979445,3664309,City of Rye,NY,C5,36119,40.9494974,-73.6751
979450,3664749,City of Salamanca,NY,C5,36009,42.16312,-78.7232771
979462,3665255,City of Saratoga Springs,NY,C5,36091,43.0674238,-73.7775079
979468,3665508,City of Schenectady,NY,C5,36093,42.8025254,-73.9275598
979493,3666993,City of Sherrill,NY,C5,36065,43.070439,-75.599216
979539,3673000,City of Syracuse,NY,C5,36067,43.040922,-76.1437638
979550,3674166,City of Tonawanda,NY,C5,36029,43.0105187,-78.8805371
979559,3675484,City of Troy,NY,C5,36083,42.7354594,-73.6751339
979575,3676540,City of Utica,NY,C5,36065,43.0960814,-75.2261069
979604,3678608,City of Watertown,NY,C5,36045,43.9734224,-75.9094439
979606,3678674,City of Watervliet,NY,C5,36001,42.7243111,-73.7068405
979637,3681677,City of White Plains,NY,C5,36119,41.0220428,-73.7548181
979660,3684000,City of Yonkers,NY,C5,36119,40.9466017,-73.8673762
979682,3677453,Victory Mills,NY,C4,36091,43.0878534,-73.594005
1020300,3723990,Fontana Village,NC,C4,37075,35.4356434,-83.819065
1033709,3860480,City of Oxbow,ND,C5,38017,46.6684588,-96.8068899
1035900,3800100,City of Abercrombie,ND,C5,38077,46.4470392,-96.7295247
1035901,3800340,City of Adams,ND,C5,38099,48.42015,-98.0736643
1035902,3800940,City of Alamo,ND,C5,38105,48.5824518,-103.4675579
1035903,3801180,City of Alexander,ND,C5,38053,47.8393149,-103.6425672
1035904,3801420,City of Alice,ND,C5,38017,46.7600458,-97.5562481
1035905,3801700,City of Almont,ND,C5,38059,46.7283354,-101.502652
1035906,3801740,City of Alsen,ND,C5,38019,48.6303048,-98.7048318
1035907,3801860,City of Ambrose,ND,C5,38023,48.9559022,-103.4812551
1035908,3801940,City of Amenia,ND,C5,38017,47.0064845,-97.2241043
1035909,3802060,City of Amidon,ND,C5,38087,46.4822473,-103.319601
1035910,3802220,City of Anamoose,ND,C5,38049,47.8828042,-100.2420079
1035911,3802380,City of Aneta,ND,C5,38063,47.6795345,-97.9897231
1035912,3802660,City of Antler,ND,C5,38009,48.9713187,-101.283164
1035913,3802860,City of Ardoch,ND,C5,38099,48.2054464,-97.3380329
1035914,3803020,City of Argusville,ND,C5,38017,47.0500684,-96.9431407
1035915,3803220,City of Arnegard,ND,C5,38053,47.8084186,-103.4387722
1035916,3803300,City of Arthur,ND,C5,38017,47.1042681,-97.2183547
1035917,3803540,City of Ashley,ND,C5,38051,46.034744,-99.3736771
1035918,3804020,City of Ayr,ND,C5,38017,47.0411071,-97.4909324
1035919,3804460,City of Balfour,ND,C5,38049,47.9509079,-100.5342567
1035920,3804580,City of Balta,ND,C5,38069,48.1665915,-100.0368886
1035921,3804740,City of Bantry,ND,C5,38049,48.4975339,-100.6098624
1035922,3804940,City of Barney,ND,C5,38077,46.2658457,-96.9988226
1035924,3805260,City of Bathgate,ND,C5,38067,48.8804113,-97.4738617
1035925,3805420,City of Beach,ND,C5,38033,46.9190751,-104.0080221
1035926,3805820,City of Belfield,ND,C5,38089,46.8858836,-103.1989405
1035927,3805980,City of Benedict,ND,C5,38055,47.8301324,-101.084323
1035928,3806180,City of Bergen,ND,C5,38049,48.0037236,-100.7198933
1035929,3806300,City of Berlin,ND,C5,38045,46.3783728,-98.4884467
1035930,3806460,City of Berthold,ND,C5,38101,48.3164841,-101.7590223
1035931,3806660,City of Beulah,ND,C5,38057,47.2664626,-101.7733169
1035932,3807020,City of Binford,ND,C5,38039,47.5604243,-98.345628
1035933,3807180,City of Bisbee,ND,C5,38095,48.6272099,-99.3787732
1035934,3807200,City of Bismarck,ND,C5,38015,46.8139534,-100.7694877
1035936,3808460,City of Bottineau,ND,C5,38009,48.8251186,-100.4444713
1035937,3808500,City of Bowbells,ND,C5,38013,48.8036392,-102.2471411
1035938,3808580,City of Bowdon,ND,C5,38103,47.4685144,-99.7088678
1035939,3808700,City of Bowman,ND,C5,38011,46.1840266,-103.399203
1035940,3808900,City of Braddock,ND,C5,38029,46.5639779,-100.0896392
1035941,3809320,City of Briarwood,ND,C5,38017,46.7870141,-96.7947616
1035942,3809460,City of Brinsmade,ND,C5,38005,48.1839787,-99.3236392
1035943,3809700,City of Brocket,ND,C5,38071,48.2106881,-98.3555564
1035944,3810060,City of Buchanan,ND,C5,38093,47.0625991,-98.8290177
1035945,3810300,City of Bucyrus,ND,C5,38001,46.0645703,-102.7883168
1035946,3810420,City of Buffalo,ND,C5,38017,46.9192597,-97.5506192
1035947,3810940,City of Burlington,ND,C5,38101,48.2571781,-101.414556
1035948,3811180,City of Butte,ND,C5,38055,47.8369684,-100.6658412
1035949,3811340,City of Buxton,ND,C5,38097,47.6023592,-97.0998243
1035950,3811580,City of Calio,ND,C5,38019,48.6237655,-98.9379614
1035951,3811700,City of Calvin,ND,C5,38019,48.8518489,-98.9380212
1035952,3811860,City of Cando,ND,C5,38095,48.4872156,-99.2024657
1035953,3812060,City of Canton City,ND,C5,38067,48.6880338,-97.666135
1035954,3812260,City of Carpio,ND,C5,38101,48.4434447,-101.7163169
1035955,3812340,City of Carrington,ND,C5,38031,47.4509875,-99.1300444
1035956,3812460,City of Carson,ND,C5,38037,46.4223079,-101.5706178
1035957,3812700,City of Casselton,ND,C5,38017,46.8973051,-97.2128705
1035958,3812820,City of Cathay,ND,C5,38103,47.5540826,-99.4106832
1035959,3812940,City of Cavalier,ND,C5,38067,48.7939429,-97.6226907
1035960,3813020,City of Cayuga,ND,C5,38081,46.0760603,-97.3845155
1035961,3813180,City of Center,ND,C5,38065,47.1149312,-101.2976762
1035969,3814100,City of Christine,ND,C5,38077,46.5751493,-96.806637
1035970,3814140,City of Churchs Ferry,ND,C5,38071,48.268604,-99.1943687
1035971,3814660,City of Cleveland,ND,C5,38093,46.891027,-99.1195616
1035972,3814740,City of Clifford,ND,C5,38097,47.3482002,-97.4100937
1035973,3815100,City of Cogswell,ND,C5,38081,46.1069675,-97.7842304
1035974,3815140,City of Coleharbor,ND,C5,38055,47.5425103,-101.2212623
1035975,3815180,City of Colfax,ND,C5,38077,46.4709441,-96.8724566
1035976,3815460,City of Columbus,ND,C5,38013,48.9049819,-102.7811759
1035977,3815820,City of Conway,ND,C5,38099,48.2342794,-97.6750879
1035978,3815900,City of Cooperstown,ND,C5,38039,47.4451055,-98.1258317
1035979,3816380,City of Courtenay,ND,C5,38093,47.2241365,-98.5684916
1035980,3816580,City of Crary,ND,C5,38071,48.0716377,-98.6384295
1035981,3816940,City of Crosby,ND,C5,38023,48.9163584,-103.2967344
1035982,3817060,City of Crystal,ND,C5,38067,48.5980942,-97.6685742
1035983,3818180,City of Davenport,ND,C5,38017,46.7148107,-97.0656821
1035984,3818260,City of Dawson,ND,C5,38043,46.8679392,-99.7536196
1035985,3818340,City of Dazey,ND,C5,38003,47.1883509,-98.2007022
1035987,3818620,City of Deering,ND,C5,38049,48.3956548,-101.0502009
1035988,3819300,City of Des Lacs,ND,C5,38101,48.2563909,-101.5636041
1035989,3819420,City of Devils Lake,ND,C5,38071,48.1131464,-98.8753201
1035990,3819580,City of Dickey,ND,C5,38045,46.5368012,-98.4680918
1035991,3819620,City of Dickinson,ND,C5,38089,46.8917694,-102.7925
1035994,3819820,City of Dodge,ND,C5,38025,47.3056724,-102.2029358
1035995,3819900,City of Donnybrook,ND,C5,38101,48.5077322,-101.8870544
1035996,3820020,City of Douglas,ND,C5,38101,47.8580091,-101.5018634
1035997,3820300,City of Drake,ND,C5,38049,47.9225732,-100.3745433
1035998,3820340,City of Drayton,ND,C5,38067,48.5620603,-97.1794959
1035999,3820940,City of Dunn Center,ND,C5,38025,47.3526432,-102.6233704
1036000,3821020,City of Dunseith,ND,C5,38079,48.813033,-100.062233
1036001,3821220,City of Dwight,ND,C5,38077,46.3038325,-96.7399334
1036016,3822140,City of Edgeley,ND,C5,38045,46.3624763,-98.7126355
1036017,3822260,City of Edinburg,ND,C5,38099,48.4955016,-97.8629678
1036018,3822340,City of Edmore,ND,C5,38071,48.4124377,-98.4536455
1036019,3822540,City of Egeland,ND,C5,38095,48.6281131,-99.0979597
1036020,3823020,City of Elgin,ND,C5,38037,46.4025233,-101.8430793
1036021,3823220,City of Ellendale,ND,C5,38021,46.0043548,-98.5253539
1036022,3823340,City of Elliott,ND,C5,38073,46.4022684,-97.8148799
1036023,3824060,City of Emerado,ND,C5,38035,47.9302011,-97.3616287
1036024,3824260,City of Enderlin,ND,C5,38073,46.6211967,-97.5964003
1036025,3824540,City of Epping,ND,C5,38105,48.2816571,-103.3578373
1036027,3824780,City of Esmond,ND,C5,38005,48.0330941,-99.7647563
1036028,3825180,City of Fairdale,ND,C5,38099,48.4900368,-98.2312236
1036029,3825300,City of Fairmount,ND,C5,38077,46.054695,-96.6029073
1036030,3825700,City of Fargo,ND,C5,38017,46.8652124,-96.8291852
1036031,3826180,City of Fessenden,ND,C5,38103,47.6493076,-99.627008
1036032,3826380,City of Fingal,ND,C5,38003,46.7625004,-97.7931493
1036033,3826420,City of Finley,ND,C5,38091,47.512515,-97.8372681
1036034,3826660,City of Flasher,ND,C5,38059,46.4521375,-101.2324518
1036035,3826700,City of Flaxton,ND,C5,38013,48.8974422,-102.3932294
1036036,3826980,City of Forbes,ND,C5,38021,45.9425106,-98.7820189
1036037,3827060,City of Fordville,ND,C5,38099,48.2165923,-97.7953756
1036038,3827100,City of Forest River,ND,C5,38099,48.2165537,-97.470319
1036039,3827260,City of Forman,ND,C5,38081,46.1039449,-97.6352695
1036040,3827580,City of Fort Ransom,ND,C5,38073,46.5245293,-97.9310577
1036042,3827820,City of Fortuna,ND,C5,38023,48.9098767,-103.7782693
1036043,3827860,City of Fort Yates,ND,C5,38085,46.0865941,-100.630078
1036045,3828380,City of Fredonia,ND,C5,38047,46.3291753,-99.0956316
1036046,3828720,City of Frontier,ND,C5,38017,46.8002753,-96.8332943
1036047,3828780,City of Fullerton,ND,C5,38021,46.1632278,-98.4273128
1036048,3828860,City of Gackle,ND,C5,38047,46.6264211,-99.1411988
1036049,3828980,City of Galesburg,ND,C5,38097,47.2700981,-97.4087615
1036050,3829180,City of Gardena,ND,C5,38009,48.7012374,-100.4980872
1036051,3829220,City of Gardner,ND,C5,38017,47.1445112,-96.9686172
1036052,3829460,City of Garrison,ND,C5,38055,47.6533462,-101.4223461
1036053,3829540,City of Gascoyne,ND,C5,38011,46.1189538,-103.078786
1036054,3830180,City of Gilby,ND,C5,38035,48.0835024,-97.4677231
1036055,3830460,City of Gladstone,ND,C5,38089,46.8595297,-102.5701153
1036056,3830580,City of Glenburn,ND,C5,38075,48.513496,-101.2208916
1036057,3830660,City of Glenfield,ND,C5,38031,47.4550715,-98.5662028
1036058,3830860,City of Glen Ullin,ND,C5,38059,46.8119871,-101.8332291
1036059,3831180,City of Golden Valley,ND,C5,38057,47.290152,-102.0652262
1036060,3831420,City of Golva,ND,C5,38033,46.7346828,-103.9829088
1036061,3831500,City of Goodrich,ND,C5,38083,47.4759213,-100.124721
1036062,3831740,City of Grace City,ND,C5,38031,47.5513045,-98.8038704
1036063,3831820,City of Grafton,ND,C5,38099,48.4142362,-97.4055247
1036064,3832060,City of Grand Forks,ND,C5,38035,47.9222415,-97.0886841
1036065,3832300,City of Grandin,ND,C5,38017,47.2366746,-97.0032176
1036066,3832580,City of Grano,ND,C5,38075,48.6153198,-101.5891708
1036067,3832660,City of Granville,ND,C5,38049,48.2662828,-100.8451629
1036068,3832900,City of Great Bend,ND,C5,38077,46.1546379,-96.8009949
1036069,3833500,City of Grenora,ND,C5,38105,48.619859,-103.9366891
1036070,3834020,City of Gwinner,ND,C5,38081,46.225649,-97.6691375
1036071,3834180,City of Hague,ND,C5,38029,46.0288913,-99.9991059
1036072,3834340,City of Halliday,ND,C5,38025,47.3522285,-102.3387558
1036074,3834460,City of Hamberg,ND,C5,38103,47.7633464,-99.5159628
1036075,3834620,City of Hamilton,ND,C5,38067,48.8079819,-97.4517349
1036076,3834860,City of Hampden,ND,C5,38071,48.5395984,-98.6543167
1036077,3834900,City of Hankinson,ND,C5,38077,46.0734261,-96.8917906
1036079,3835020,City of Hannaford,ND,C5,38039,47.3141807,-98.1889406
1036080,3835060,City of Hannah,ND,C5,38019,48.9728835,-98.6902947
1036081,3835140,City of Hansboro,ND,C5,38095,48.9524483,-99.3802393
1036083,3835900,City of Harvey,ND,C5,38103,47.7685145,-99.9312235
1036084,3835940,City of Harwood,ND,C5,38017,46.976164,-96.8801719
1036085,3836100,City of Hatton,ND,C5,38097,47.6369672,-97.4582891
1036086,3836140,City of Havana,ND,C5,38081,45.9517039,-97.6184423
1036087,3836540,City of Haynes,ND,C5,38001,45.9739107,-102.4710079
1036088,3836700,City of Hazelton,ND,C5,38029,46.4857243,-100.2810888
1036089,3836780,City of Hazen,ND,C5,38057,47.2990443,-101.6259624
1036090,3836860,City of Hebron,ND,C5,38059,46.9023073,-102.0443899
1036091,3837700,City of Hettinger,ND,C5,38001,46.003384,-102.6349462
1036092,3838100,City of Hillsboro,ND,C5,38097,47.4029714,-97.0634592
1036093,3838780,City of Hoople,ND,C5,38099,48.5357833,-97.6389925
1036094,3838860,City of Hope,ND,C5,38091,47.3243772,-97.7192031
1036095,3838900,City of Horace,ND,C5,38017,46.7558495,-96.9074439
1036097,3839460,City of Hunter,ND,C5,38017,47.1903684,-97.2130973
1036098,3839580,City of Hurdsfield,ND,C5,38103,47.4467867,-99.9310017
1036099,3839980,City of Inkster,ND,C5,38035,48.1512514,-97.6441502
1036100,3840580,City of Jamestown,ND,C5,38093,46.9067645,-98.6923778
1036101,3841180,City of Jud,ND,C5,38045,46.5257723,-98.8975516
1036102,3841380,City of Karlsruhe,ND,C5,38049,48.0910445,-100.6162077
1036103,3841500,City of Kathryn,ND,C5,38003,46.6811738,-97.9703579
1036104,3842020,City of Kenmare,ND,C5,38101,48.672832,-102.0721114
1036105,3842180,City of Kensal,ND,C5,38093,47.3000334,-98.7321066
1036106,3842660,City of Kief,ND,C5,38049,47.8599898,-100.5132993
1036107,3842700,City of Killdeer,ND,C5,38025,47.3672925,-102.7535365
1036109,3842780,City of Kindred,ND,C5,38017,46.6493789,-97.0169407
1036110,3843260,City of Knox,ND,C5,38005,48.3439477,-99.6911117
1036111,3843500,City of Kramer,ND,C5,38009,48.691031,-100.7076501
1036112,3843580,City of Kulm,ND,C5,38045,46.3019467,-98.9466072
1036113,3844300,City of Lakota,ND,C5,38063,48.0428683,-98.3467667
1036115,3844540,City of LaMoure,ND,C5,38045,46.3574198,-98.2965738
1036116,3844700,City of Landa,ND,C5,38009,48.8958547,-100.9119866
1036117,3844780,City of Langdon,ND,C5,38019,48.7623719,-98.3747104
1036118,3844860,City of Lankin,ND,C5,38099,48.3146699,-97.9202585
1036119,3844900,City of Lansford,ND,C5,38009,48.6269525,-101.3758912
1036120,3845020,City of Larimore,ND,C5,38035,47.9090045,-97.627024
1036122,3845300,City of Lawton,ND,C5,38071,48.3035701,-98.3684086
1036123,3845460,City of Leal,ND,C5,38003,47.1049155,-98.3155269
1036124,3845580,City of Leeds,ND,C5,38005,48.2882299,-99.4382745
1036125,3845740,City of Lehr,ND,C5,38051,46.2824308,-99.3528901
1036126,3845860,City of Leith,ND,C5,38037,46.3626371,-101.638488
1036128,3845980,City of Leonard,ND,C5,38017,46.65229,-97.2499446
1036129,3846460,City of Lidgerwood,ND,C5,38077,46.0737517,-97.1451116
1036130,3846540,City of Lignite,ND,C5,38013,48.8771628,-102.5644048
1036131,3846640,City of Lincoln,ND,C5,38015,46.7677232,-100.6996859
1036132,3846980,City of Linton,ND,C5,38029,46.2685117,-100.2336044
1036133,3847100,City of Lisbon,ND,C5,38073,46.4385241,-97.6840767
1036134,3847140,City of Litchville,ND,C5,38003,46.6565631,-98.1917015
1036135,3847660,City of Loma,ND,C5,38019,48.6417108,-98.5247734
1036136,3848020,City of Loraine,ND,C5,38075,48.8683541,-101.5678895
1036137,3848460,City of Ludden,ND,C5,38021,46.0081541,-98.1254212
1036138,3848580,City of Luverne,ND,C5,38091,47.251424,-97.9348167
1036141,3849020,City of McClusky,ND,C5,38083,47.4839895,-100.4425332
1036142,3849260,City of McHenry,ND,C5,38031,47.5764055,-98.5909961
1036143,3849580,City of McVille,ND,C5,38063,47.765268,-98.1755286
1036144,3849620,City of Maddock,ND,C5,38005,47.9623866,-99.5292936
1036145,3849820,City of Makoti,ND,C5,38101,47.9633305,-101.8029076
1036146,3849900,City of Mandan,ND,C5,38059,46.8290307,-100.8870946
1036147,3850380,City of Mantador,ND,C5,38077,46.1654945,-96.9778513
1036148,3850420,City of Manvel,ND,C5,38035,48.0727824,-97.1779289
1036149,3850580,City of Mapleton,ND,C5,38017,46.8915312,-97.053257
1036150,3850780,City of Marion,ND,C5,38045,46.6090718,-98.3375149
1036151,3850860,City of Marmarth,ND,C5,38087,46.2959491,-103.9330407
1036152,3851060,City of Martin,ND,C5,38083,47.8267696,-100.1153022
1036153,3851380,City of Max,ND,C5,38055,47.8204205,-101.2911061
1036154,3851420,City of Maxbass,ND,C5,38009,48.7224474,-101.1423648
1036155,3851500,City of Mayville,ND,C5,38097,47.4981839,-97.3263556
1036157,3851860,City of Medina,ND,C5,38093,46.8938399,-99.2998853
1036158,3851900,City of Medora,ND,C5,38007,46.9127802,-103.5250339
1036159,3852340,City of Mercer,ND,C5,38055,47.4904598,-100.7104252
1036161,3852740,City of Michigan City,ND,C5,38063,48.0247457,-98.1197377
1036162,3852940,City of Milnor,ND,C5,38081,46.260957,-97.4573441
1036163,3853020,City of Milton,ND,C5,38019,48.6260063,-98.0459641
1036164,3853220,City of Minnewaukan,ND,C5,38005,48.0698278,-99.2500448
1036165,3853380,City of Minot,ND,C5,38101,48.2374752,-101.2779733
1036166,3853540,City of Minto,ND,C5,38099,48.2924108,-97.3730459
1036167,3853780,City of Mohall,ND,C5,38075,48.7661176,-101.5170671
1036168,3853820,City of Monango,ND,C5,38021,46.1734062,-98.5951753
1036169,3853980,City of Montpelier,ND,C5,38093,46.6989659,-98.5884641
1036170,3854220,City of Mooreton,ND,C5,38077,46.268931,-96.8757773
1036171,3854620,City of Mott,ND,C5,38041,46.3744014,-102.3188972
1036172,3854740,City of Mountain,ND,C5,38067,48.684305,-97.8648067
1036173,3855020,City of Munich,ND,C5,38019,48.6728555,-98.8384341
1036174,3855220,City of Mylo,ND,C5,38079,48.6358411,-99.6179207
1036175,3855420,City of Napoleon,ND,C5,38047,46.5039299,-99.7683322
1036176,3855620,City of Neche,ND,C5,38067,48.9830513,-97.551692
1036177,3855740,City of Nekoma,ND,C5,38019,48.5762579,-98.3755334
1036179,3856020,City of Newburg,ND,C5,38009,48.7138781,-100.9126396
1036180,3856180,City of New England,ND,C5,38041,46.5408163,-102.8669632
1036181,3856420,City of New Leipzig,ND,C5,38037,46.3757681,-101.9515986
1036182,3856620,City of New Rockford,ND,C5,38027,47.6797505,-99.1376862
1036183,3856700,City of New Salem,ND,C5,38059,46.843115,-101.4178332
1036184,3856740,City of New Town,ND,C5,38061,47.9847886,-102.4812139
1036185,3856780,City of Niagara,ND,C5,38035,47.9983021,-97.8716668
1036186,3857180,City of Nome,ND,C5,38003,46.6757966,-97.8162548
1036187,3857220,City of Noonan,ND,C5,38023,48.8898613,-103.0099513
1036197,3858120,City of North River,ND,C5,38017,46.9502964,-96.8020093
1036204,3858300,City of Northwood,ND,C5,38035,47.7365972,-97.5652265
1036205,3858740,City of Oakes,ND,C5,38021,46.1398956,-98.0871219
1036206,3859020,City of Oberon,ND,C5,38005,47.9242084,-99.2059115
1036207,3859660,City of Oriska,ND,C5,38003,46.931117,-97.7905394
1036208,3860100,City of Osnabrock,ND,C5,38019,48.6698997,-98.1488771
1036209,3860380,City of Overly,ND,C5,38009,48.6811388,-100.1510198
1036211,3860500,City of Page,ND,C5,38017,47.1591898,-97.5681313
1036212,3860620,City of Palermo,ND,C5,38061,48.337968,-102.2297441
1036213,3860900,City of Park River,ND,C5,38099,48.3935361,-97.7441524
1036214,3860940,City of Parshall,ND,C5,38061,47.9557593,-102.1341949
1036215,3861460,City of Pekin,ND,C5,38063,47.791911,-98.3277695
1036216,3861580,City of Pembina,ND,C5,38067,48.9669312,-97.2476093
1036217,3861780,City of Perth,ND,C5,38095,48.7147227,-99.458124
1036218,3861860,City of Petersburg,ND,C5,38063,48.0131835,-98.0003838
1036219,3862060,City of Pettibone,ND,C5,38043,47.1170687,-99.5208155
1036220,3862260,City of Pick City,ND,C5,38057,47.5113806,-101.4570926
1036221,3862540,City of Pillsbury,ND,C5,38003,47.2071231,-97.7956913
1036222,3862620,City of Pingree,ND,C5,38093,47.163823,-98.9085628
1036223,3862780,City of Pisek,ND,C5,38099,48.3106439,-97.7102804
1036224,3862980,City of Plaza,ND,C5,38061,48.0259898,-101.9594223
1036226,3863740,City of Portal,ND,C5,38013,48.9946477,-102.5479166
1036227,3863900,City of Portland,ND,C5,38097,47.4995109,-97.3693056
1036228,3864140,City of Powers Lake,ND,C5,38013,48.563709,-102.6451713
1036229,3864320,City of Prairie Rose,ND,C5,38017,46.8171208,-96.8353955
1036231,3865580,City of Ray,ND,C5,38105,48.341637,-103.1635154
1036232,3865900,City of Reeder,ND,C5,38001,46.107116,-102.9427304
1036233,3865980,City of Regan,ND,C5,38015,47.1567889,-100.5272972
1036234,3866020,City of Regent,ND,C5,38041,46.422197,-102.5580519
1036235,3866040,City of Reile's Acres,ND,C5,38017,46.9269643,-96.8666387
1036236,3866260,City of Reynolds,ND,C5,38097,47.6685295,-97.1059679
1036237,3866300,City of Rhame,ND,C5,38011,46.2346491,-103.6549824
1036238,3866500,City of Richardton,ND,C5,38089,46.8841615,-102.3331629
1036239,3866980,City of Riverdale,ND,C5,38055,47.4975347,-101.3661367
1036240,3867180,City of Robinson,ND,C5,38043,47.1420621,-99.7813319
1036241,3867500,City of Rocklake,ND,C5,38095,48.7901597,-99.2458982
1036242,3867620,City of Rogers,ND,C5,38003,47.0740308,-98.2031272
1036243,3867780,City of Rolette,ND,C5,38079,48.6608974,-99.8416752
1036244,3867820,City of Rolla,ND,C5,38079,48.8609445,-99.618075
1036245,3868540,City of Ross,ND,C5,38061,48.3127752,-102.5435091
1036246,3868860,City of Rugby,ND,C5,38069,48.3656028,-99.9906001
1036247,3869140,City of Ruso,ND,C5,38055,47.8373319,-100.9342684
1036249,3869340,City of Rutland,ND,C5,38081,46.0543433,-97.5068012
1036250,3869460,City of Ryder,ND,C5,38101,47.9211038,-101.6694179
1036251,3869980,City of Saint John,ND,C5,38079,48.9437666,-99.7130965
1036252,3870260,City of Saint Thomas,ND,C5,38067,48.6192359,-97.447107
1036253,3870380,City of Sanborn,ND,C5,38003,46.9427934,-98.2238119
1036254,3870780,City of Sarles,ND,C5,38019,48.9449674,-98.9968815
1036255,3870980,City of Sawyer,ND,C5,38101,48.0894576,-101.0533135
1036256,3871500,City of Scranton,ND,C5,38011,46.1494795,-103.1429774
1036257,3871660,City of Selfridge,ND,C5,38085,46.0416822,-100.9243572
1036258,3871780,City of Sentinel Butte,ND,C5,38033,46.9195129,-103.8399725
1036259,3871940,City of Sharon,ND,C5,38091,47.5973966,-97.899413
1036260,3872180,City of Sheldon,ND,C5,38073,46.5875339,-97.4919306
1036261,3872540,City of Sherwood,ND,C5,38075,48.9618669,-101.6328017
1036262,3872580,City of Sheyenne,ND,C5,38027,47.8272875,-99.1168325
1036263,3872820,City of Sibley,ND,C5,38003,47.218602,-97.9653062
1036264,3873820,City of Solen,ND,C5,38085,46.3873125,-100.7956474
1036265,3874020,City of Souris,ND,C5,38009,48.9099588,-100.6826475
1036274,3874185,City of South Heart,ND,C5,38089,46.8679624,-102.9894643
1036282,3874740,City of Spiritwood Lake,ND,C5,38093,47.0743065,-98.5866135
1036283,3874780,City of Springbrook,ND,C5,38105,48.252117,-103.4617834
1036284,3875380,City of Stanley,ND,C5,38061,48.3163191,-102.3872463
1036285,3875420,City of Stanton,ND,C5,38057,47.3186815,-101.3822165
1036286,3875580,City of Starkweather,ND,C5,38071,48.452084,-98.8784409
1036287,3875780,City of Steele,ND,C5,38043,46.8561473,-99.9176604
1036288,3876500,City of Strasburg,ND,C5,38029,46.1337724,-100.1610573
1036289,3876620,City of Streeter,ND,C5,38093,46.6576178,-99.3568179
1036290,3877180,City of Surrey,ND,C5,38101,48.243515,-101.1339192
1036291,3877660,City of Sykeston,ND,C5,38103,47.4660711,-99.3993152
1036292,3877980,City of Tappen,ND,C5,38043,46.8716032,-99.6270959
1036293,3878180,City of Taylor,ND,C5,38089,46.9017985,-102.422192
1036294,3878660,City of Thompson,ND,C5,38035,47.7754065,-97.105848
1036295,3878940,City of Tioga,ND,C5,38105,48.3951092,-102.9402114
1036296,3879140,City of Tolley,ND,C5,38075,48.7308045,-101.8270425
1036297,3879180,City of Tolna,ND,C5,38063,47.8256994,-98.4381643
1036298,3879340,City of Tower City,ND,C5,38017,46.9263263,-97.6760261
1036299,3879420,City of Towner,ND,C5,38049,48.3471207,-100.4069834
1036300,3879940,City of Turtle Lake,ND,C5,38055,47.5216255,-100.8906028
1036302,3880140,City of Tuttle,ND,C5,38043,47.144491,-99.9934039
1036303,3880660,City of Underwood,ND,C5,38055,47.4550989,-101.1418295
1036305,3880860,City of Upham,ND,C5,38049,48.5815502,-100.7284324
1036306,3881180,City of Valley City,ND,C5,38003,46.9223292,-98.0055029
1036307,3881620,City of Velva,ND,C5,38049,48.0581929,-100.9328874
1036308,3881700,City of Venturia,ND,C5,38051,45.99714,-99.5508022
1036309,3881900,City of Verona,ND,C5,38045,46.3660705,-98.0712337
1036310,3882380,City of Voltaire,ND,C5,38049,48.0186704,-100.8440061
1036311,3882660,City of Wahpeton,ND,C5,38077,46.272142,-96.6118117
1036312,3882780,City of Walcott,ND,C5,38077,46.5504726,-96.9375497
1036313,3882940,City of Wales,ND,C5,38019,48.8952382,-98.600806
1036314,3882980,City of Walhalla,ND,C5,38067,48.921039,-97.9175166
1036315,3883580,City of Warwick,ND,C5,38005,47.8547311,-98.7056458
1036316,3883700,City of Washburn,ND,C5,38055,47.292853,-101.0290144
1036317,3883860,City of Watford City,ND,C5,38053,47.8030998,-103.2687238
1036321,3884780,City of West Fargo,ND,C5,38017,46.8566432,-96.9047011
1036323,3885020,City of Westhope,ND,C5,38009,48.9111765,-101.0177099
1036333,3885540,City of White Earth,ND,C5,38061,48.3798677,-102.7717554
1036334,3886020,City of Wildrose,ND,C5,38105,48.6299518,-103.1836677
1036335,3886220,City of Williston,ND,C5,38105,48.1814291,-103.6363365
1036336,3886380,City of Willow City,ND,C5,38009,48.6046914,-100.293311
1036337,3886580,City of Wilton,ND,C5,38055,47.1580922,-100.7841706
1036338,3886620,City of Wimbledon,ND,C5,38003,47.169067,-98.458629
1036339,3886780,City of Wing,ND,C5,38015,47.1422664,-100.2823174
1036340,3887020,City of Wishek,ND,C5,38051,46.2554096,-99.5545927
1036341,3887180,City of Wolford,ND,C5,38069,48.497477,-99.7037883
1036342,3887580,City of Woodworth,ND,C5,38093,47.1422263,-99.3042284
1036343,3887740,City of Wyndmere,ND,C5,38077,46.2641286,-97.1311822
1036344,3887860,City of York,ND,C5,38005,48.3132429,-99.5732567
1036345,3888140,City of Zap,ND,C5,38057,47.2846814,-101.9232773
1036346,3888180,City of Zeeland,ND,C5,38051,45.9729424,-99.8324415
1037261,3837380,Hensel,ND,C4,38067,48.6883262,-97.6664791
1037262,3852660,Michigan,ND,C4,38063,48.0249959,-98.1170454
1037265,3867580,Rock Lake,ND,C4,38095,48.7902841,-99.2462492
1037272,3866040,Reiles Acres,ND,C4,38017,46.9230219,-96.8653603
1058107,3982348,Wayne Lakes Park,OH,C4,39037,40.0231047,-84.6619007
1060840,3903562,Bailey Lake,OH,C4,39005,40.945889,-82.3596088
1065424,3979282,Valley View,OH,C4,39049,39.9656193,-83.0724082
1085454,3908868,Brinkhaven,OH,C4,39083,40.4695087,-82.1940453
1085479,3955090,New Matamoras,OH,C4,39167,39.5245195,-81.0670544
1085488,3974902,Stout,OH,C4,39001,38.6639639,-83.3790756
1085490,3976750,Thurman,OH,C4,39053,38.9000766,-82.4457123
1085493,3981935,Waverly,OH,C4,39131,39.126735,-82.9854553
1085655,3919540,Croton,OH,C4,39089,40.2386739,-82.6923934
1085658,3934202,Village of Hartford,OH,C1,39089,40.2395447,-82.688382
1085666,3981935,Village of Waverly,OH,C1,39131,39.1256027,-82.9836003
1085668,3935255,Village of Highland Hills,OH,C2,39035,41.4506881,-81.5190663
1085670,3925970,City of Fairfield,OH,C5,39017,39.3300907,-84.5404668
1085671,3950176,City of Milford,OH,C2,39025,39.170026,-84.2810354
1085694,3943554,City of Lima,OH,C2,39003,40.740934,-84.11208
1085702,3902568,City of Ashland,OH,C2,39005,40.866869,-82.3156548
1085723,3918350,City of Conneaut,OH,C2,39007,41.9277874,-80.5685301
1085735,3956700,Village of North Kingsville,OH,C2,39007,41.9188316,-80.6722754
1085740,3967600,Village of Roaming Shores,OH,C1,39007,41.6365738,-80.8249246
1085809,3933012,City of Hamilton,OH,C5,39017,39.3938368,-84.5652498
1085814,3949840,City of Middletown,OH,C6,39017,39.5032434,-84.3658757
1085821,3977322,City of Trenton,OH,C2,39017,39.4790741,-84.4620075
1085859,3974118,City of Springfield,OH,C5,39023,39.9303879,-83.796116
1085865,3945108,City of Loveland,OH,C2,39061,39.2678524,-84.2729457
1085891,3923730,City of East Liverpool,OH,C2,39029,40.6332462,-80.5677701
1085906,3982740,Village of Wellsville,OH,C2,39029,40.6042765,-80.6549492
1085913,3918868,City of Coshocton,OH,C2,39031,40.2618439,-81.8479214
1085937,3929162,City of Galion,OH,C6,39033,40.7382728,-82.7786452
1085949,3904416,City of Bay Village,OH,C2,39035,41.4885572,-81.9285328
1085950,3904500,City of Beachwood,OH,C2,39035,41.4758604,-81.5029659
1085951,3904878,City of Bedford,OH,C2,39035,41.3918572,-81.5358976
1085952,3904920,City of Bedford Heights,OH,C2,39035,41.4041355,-81.5053182
1085953,3905550,Village of Bentleyville,OH,C2,39035,41.4121763,-81.4120841
1085954,3905690,City of Berea,OH,C2,39035,41.3696703,-81.8642828
1085955,3908336,Village of Bratenahl,OH,C2,39035,41.5559982,-81.6056551
1085956,3908364,City of Brecksville,OH,C2,39035,41.307936,-81.6193277
1085957,3909064,City of Broadview Heights,OH,C2,39035,41.3195266,-81.6781771
1085958,3909246,City of Brooklyn,OH,C2,39035,41.434866,-81.749794
1085959,3909274,Village of Brooklyn Heights,OH,C2,39035,41.4178095,-81.6679901
1085960,3909288,City of Brook Park,OH,C2,39035,41.4036695,-81.8217465
1085962,3913358,Village of Chagrin Falls,OH,C1,39035,41.4319927,-81.3886839
1085963,3916000,City of Cleveland,OH,C2,39035,41.4792633,-81.6802295
1085964,3916014,City of Cleveland Heights,OH,C2,39035,41.5112376,-81.5635743
1085965,3919806,Village of Cuyahoga Heights,OH,C2,39035,41.4350142,-81.6562144
1085966,3923380,City of East Cleveland,OH,C2,39035,41.5317801,-81.5795004
1085967,3925704,City of Euclid,OH,C2,39035,41.5923514,-81.5190161
1085968,3926446,City of Fairview Park,OH,C2,39035,41.4419757,-81.8529704
1085969,3929428,City of Garfield Heights,OH,C2,39035,41.4199374,-81.6037564
1085970,3929498,Village of Gates Mills,OH,C2,39035,41.5315282,-81.4099552
1085971,3930632,Village of Glenwillow,OH,C2,39035,41.3606233,-81.4728001
1085972,3935252,City of Highland Heights,OH,C2,39035,41.5517842,-81.4691261
1085973,3936918,Village of Hunting Valley,OH,C2,39035,41.4802275,-81.4107669
1085974,3937240,City of Independence,OH,C2,39035,41.3779962,-81.6384841
1085975,3941664,City of Lakewood,OH,C2,39035,41.4846547,-81.8015701
1085976,3943918,Village of Linndale,OH,C2,39035,41.4449964,-81.7667845
1085977,3945556,City of Lyndhurst,OH,C2,39035,41.5172482,-81.4922331
1085978,3947306,City of Maple Heights,OH,C2,39035,41.4093667,-81.5625267
1085979,3948468,Village of Mayfield,OH,C2,39035,41.5501054,-81.4367901
1085980,3948482,City of Mayfield Heights,OH,C2,39035,41.5174498,-81.4534105
1085981,3949644,City of Middleburg Heights,OH,C2,39035,41.3695251,-81.8150857
1085982,3952052,Village of Moreland Hills,OH,C2,39035,41.4422324,-81.4293066
1085983,3954250,Village of Newburgh Heights,OH,C2,39035,41.4509475,-81.6627141
1085984,3956882,City of North Olmsted,OH,C2,39035,41.4149835,-81.9190306
1085985,3956924,Village of North Randall,OH,C2,39035,41.4326429,-81.5289761
1085986,3957008,City of North Royalton,OH,C2,39035,41.313826,-81.7451559
1085987,3957750,Village of Oakwood,OH,C2,39035,41.3667956,-81.5035608
1085989,3958422,City of Olmsted Falls,OH,C2,39035,41.3656658,-81.9042713
1085990,3958604,Village of Orange,OH,C2,39035,41.4414473,-81.4742661
1085991,3961000,City of Parma,OH,C2,39035,41.3842412,-81.7285989
1085992,3961028,City of Parma Heights,OH,C2,39035,41.3865042,-81.7636778
1085993,3961686,City of Pepper Pike,OH,C2,39035,41.4800539,-81.4619348
1085994,3966894,City of Richmond Heights,OH,C2,39035,41.5589259,-81.5028664
1085996,3968056,City of Rocky River,OH,C2,39035,41.4731163,-81.8533328
1085997,3971416,City of Seven Hills,OH,C2,39035,41.3804478,-81.6736629
1085998,3971682,City of Shaker Heights,OH,C2,39035,41.4744088,-81.5495963
1085999,3972928,City of Solon,OH,C2,39035,41.3864383,-81.4401103
1086000,3973264,City of South Euclid,OH,C2,39035,41.5239388,-81.5244905
1086001,3975098,City of Strongsville,OH,C2,39035,41.3127859,-81.83132
1086002,3978932,City of University Heights,OH,C2,39035,41.4948048,-81.534821
1086003,3979268,Village of Valley View,OH,C2,39035,41.3831339,-81.6067213
1086004,3980738,Village of Walton Hills,OH,C2,39035,41.3661822,-81.555402
1086006,3980990,City of Warrensville Heights,OH,C2,39035,41.436273,-81.5221942
1086007,3983622,City of Westlake,OH,C2,39035,41.4524263,-81.9294762
1086008,3986394,Village of Woodmere,OH,C2,39035,41.4599707,-81.4798564
1086041,3902582,Village of Ashley,OH,C2,39041,40.4098054,-82.9516527
1086057,3975602,Village of Sunbury,OH,C1,39041,40.24846,-82.8803889
1086065,3939662,Village of Kelleys Island,OH,C2,39043,41.6033658,-82.7028418
1086070,3970380,City of Sandusky,OH,C2,39043,41.4563918,-82.7141311
1086078,3941720,City of Lancaster,OH,C1,39045,39.7248655,-82.6048755
1086095,3981718,City of Washington Court House,OH,C2,39047,39.5383475,-83.427671
1086097,3906278,City of Bexley,OH,C2,39049,39.9650233,-82.9342441
1086101,3918000,City of Columbus,OH,C6,39049,39.9860266,-82.9851258
1086103,3931304,City of Grandview Heights,OH,C2,39049,39.9793646,-83.0409153
1086116,3979002,City of Upper Arlington,OH,C2,39049,40.0271721,-83.0703871
1086118,3983342,City of Westerville,OH,C6,39049,40.1241097,-82.9209508
1086119,3984742,City of Whitehall,OH,C2,39049,39.9682354,-82.8833434
1086167,3921000,City of Dayton,OH,C5,39113,39.7797633,-84.199787
1086175,3986772,City of Xenia,OH,C2,39057,39.6828652,-83.9413859
1086196,3901672,Village of Amberley,OH,C2,39061,39.2033219,-84.4283228
1086198,3902428,Village of Arlington Heights,OH,C2,39061,39.2151835,-84.4555027
1086199,3907300,City of Blue Ash,OH,C2,39061,39.2478322,-84.3824782
1086200,3914128,City of Cheviot,OH,C2,39061,39.157742,-84.613822
1086201,3915000,City of Cincinnati,OH,C5,39061,39.1411634,-84.5059743
1086205,3921266,City of Deer Park,OH,C2,39061,39.2037042,-84.3975009
1086207,3925186,Village of Elmwood Place,OH,C2,39061,39.1854494,-84.4888764
1086208,3925802,Village of Evendale,OH,C2,39061,39.2507571,-84.4264634
1086209,3927706,City of Forest Park,OH,C2,39061,39.2860197,-84.525695
1086210,3930380,Village of Glendale,OH,C2,39061,39.2704623,-84.4579553
1086211,3930786,Village of Golf Manor,OH,C2,39061,39.1873565,-84.4467819
1086213,3932158,Village of Greenhills,OH,C2,39061,39.2668951,-84.5191806
1086215,3943722,Village of Lincoln Heights,OH,C2,39061,39.2434611,-84.4569175
1086216,3944366,Village of Lockland,OH,C2,39061,39.2277381,-84.4563534
1086218,3946312,City of Madeira,OH,C2,39061,39.1855,-84.3732764
1086219,3947600,Village of Mariemont,OH,C2,39061,39.1428613,-84.3783152
1086221,3952752,City of Mount Healthy,OH,C2,39061,39.2337323,-84.5474899
1086222,3955678,Village of Newtown,OH,C2,39061,39.1240747,-84.3513559
1086223,3956322,City of North College Hill,OH,C2,39061,39.2173345,-84.5517711
1086224,3957386,City of Norwood,OH,C2,39061,39.1604879,-84.4534676
1086225,3965732,City of Reading,OH,C2,39061,39.2241018,-84.4332544
1086226,3969470,Village of Saint Bernard,OH,C2,39061,39.1710322,-84.4954983
1086227,3971892,City of Sharonville,OH,C6,39061,39.2824691,-84.4068921
1086228,3972522,Village of Silverton,OH,C2,39061,39.1882468,-84.4009274
1086229,3974104,City of Springdale,OH,C2,39061,39.2909269,-84.4759418
1086233,3976428,Village of Terrace Park,OH,C2,39061,39.1583809,-84.3111131
1086234,3976582,City of The Village of Indian Hill,OH,C2,39061,39.1916433,-84.3341579
1086236,3986366,Village of Woodlawn,OH,C2,39061,39.2555405,-84.4709372
1086237,3986730,City of Wyoming,OH,C2,39061,39.2295306,-84.4813728
1086245,3927048,City of Findlay,OH,C2,39063,41.0467132,-83.6379244
1086341,3905228,City of Bellevue,OH,C2,39077,41.2742774,-82.8393426
1086352,3957302,City of Norwalk,OH,C2,39077,41.2443492,-82.6088431
1086362,3985232,City of Willard,OH,C2,39077,41.0517715,-82.7232273
1086375,3982712,City of Wellston,OH,C2,39079,39.1172072,-82.5375033
1086386,3974608,City of Steubenville,OH,C2,39081,40.3653475,-80.6518572
1086397,3928658,Village of Fredericktown,OH,C2,39083,40.4784826,-82.5486977
1086410,3953102,City of Mount Vernon,OH,C2,39083,40.3853864,-82.4732271
1086416,3923618,City of Eastlake,OH,C2,39085,41.6582519,-81.4322439
1086417,3926306,Village of Fairport Harbor,OH,C1,39085,41.7476033,-81.2731034
1086418,3931234,Village of Grand River,OH,C1,39085,41.741806,-81.2846327
1086419,3940642,City of Kirtland,OH,C2,39085,41.5968951,-81.3406237
1086420,3940670,Village of Kirtland Hills,OH,C2,39085,41.6361985,-81.3192799
1086421,3941398,Village of Lakeline,OH,C2,39085,41.6595043,-81.4545201
1086424,3946480,Village of Madison,OH,C1,39085,41.7722593,-81.0529828
1086425,3949056,City of Mentor,OH,C2,39085,41.689414,-81.3361589
1086426,3949098,City of Mentor-on-the-Lake,OH,C2,39085,41.7134922,-81.3650518
1086427,3956910,Village of North Perry,OH,C1,39085,41.800253,-81.124136
1086428,3959416,City of Painesville,OH,C2,39085,41.7240364,-81.2536181
1086431,3961882,Village of Perry,OH,C1,39085,41.7636738,-81.1430128
1086432,3976834,Village of Timberlake,OH,C2,39085,41.6655222,-81.4427983
1086433,3980402,Village of Waite Hill,OH,C2,39085,41.6124621,-81.3858646
1086434,3985036,City of Wickliffe,OH,C2,39085,41.6072373,-81.4690219
1086435,3985484,City of Willoughby,OH,C2,39085,41.6461551,-81.4083544
1086436,3985512,City of Willoughby Hills,OH,C2,39085,41.5872813,-81.4332627
1086437,3985638,City of Willowick,OH,C2,39085,41.6342989,-81.4679067
1086463,3934748,City of Heath,OH,C2,39089,40.0241374,-82.4411051
1086473,3954040,City of Newark,OH,C2,39089,40.0705494,-82.4249499
1086476,3961112,City of Pataskala,OH,C2,39089,40.0109497,-82.7154851
1086498,3901798,City of Amherst,OH,C2,39093,41.4022452,-82.2303463
1086500,3903352,City of Avon,OH,C2,39093,41.4485235,-82.0187395
1086501,3903464,City of Avon Lake,OH,C2,39093,41.4945027,-82.0160749
1086508,3925256,City of Elyria,OH,C2,39093,41.3761176,-82.1062846
1086514,3944856,City of Lorain,OH,C2,39093,41.4409601,-82.1839198
1086515,3956966,City of North Ridgeville,OH,C2,39093,41.3851571,-82.0194452
1086521,3972060,Village of Sheffield,OH,C2,39093,41.4558841,-82.0911701
1086522,3972088,City of Sheffield Lake,OH,C2,39093,41.4883867,-82.0976484
1086524,3933376,Village of Harbor View,OH,C2,39095,41.693242,-83.4446962
1086527,3948342,City of Maumee,OH,C2,39095,41.5696178,-83.6635526
1086529,3958730,City of Oregon,OH,C2,39095,41.6530374,-83.4318322
1086530,3959010,Village of Ottawa Hills,OH,C2,39095,41.6683118,-83.6433159
1086537,3977000,City of Toledo,OH,C5,39095,41.663915,-83.5822162
1086545,3944674,City of London,OH,C5,39097,39.8936232,-83.4375324
1086559,3911066,City of Campbell,OH,C5,39099,41.0777098,-80.5903227
1086567,3955118,Village of New Middletown,OH,C2,39099,40.9647502,-80.5597232
1086569,3971220,Village of Sebring,OH,C2,39099,40.920668,-81.0230886
1086572,3975126,City of Struthers,OH,C5,39099,41.0509808,-80.592017
1086573,3988000,City of Youngstown,OH,C5,39099,41.0993366,-80.6463371
1086589,3909680,City of Brunswick,OH,C2,39103,41.2465018,-81.8197472
1086600,3948790,City of Medina,OH,C1,39103,41.1358471,-81.8693096
1086669,3936610,City of Huber Heights,OH,C6,39113,39.8594796,-84.1130979
1086672,3940040,City of Kettering,OH,C2,39113,39.6956575,-84.1495796
1086676,3952010,City of Moraine,OH,C2,39113,39.6983029,-84.2458329
1086677,3957764,City of Oakwood,OH,C2,39113,39.7202164,-84.1733254
1086680,3979492,City of Vandalia,OH,C2,39113,39.87902,-84.1929259
1086682,3983090,City of West Carrollton,OH,C2,39113,39.6699824,-84.2540393
1086738,3988084,City of Zanesville,OH,C5,39119,39.956775,-82.0133385
1086822,3903086,City of Aurora,OH,C2,39133,41.3118501,-81.3450139
1086829,3929442,Village of Garrettsville,OH,C2,39133,41.2843094,-81.0932422
1086832,3951058,Village of Mogadore,OH,C2,39153,41.0519702,-81.3993586
1086840,3975014,City of Streetsboro,OH,C2,39133,41.239596,-81.3455707
1086842,3975196,Village of Sugar Bush Knolls,OH,C2,39133,41.203647,-81.3470734
1086845,3924234,City of Eaton,OH,C2,39135,39.7506169,-84.6342167
1086879,3947138,City of Mansfield,OH,C2,39139,40.7656143,-82.5274933
1086909,3928826,City of Fremont,OH,C2,39143,41.3532743,-83.11463
1086911,3932256,Village of Green Springs,OH,C5,39143,41.2568958,-83.0529734
1086930,3954166,Village of New Boston,OH,C2,39145,38.7517107,-82.9351187
1086933,3964304,City of Portsmouth,OH,C2,39145,38.7538831,-82.9443993
1086945,3928014,City of Fostoria,OH,C6,39147,41.160162,-83.4119325
1086956,3976778,City of Tiffin,OH,C2,39147,41.1164664,-83.1804696
1086972,3901420,City of Alliance,OH,C6,39151,40.9107159,-81.1189162
1086974,3912000,City of Canton,OH,C2,39151,40.8075732,-81.3677597
1086980,3945094,City of Louisville,OH,C2,39151,40.837037,-81.2642748
1086982,3948244,City of Massillon,OH,C2,39151,40.7839072,-81.5254923
1086993,3901000,City of Akron,OH,C2,39153,41.0801445,-81.5219194
1086994,3903828,City of Barberton,OH,C2,39153,41.0095736,-81.6036586
1086997,3907790,Village of Boston Heights,OH,C2,39153,41.2536209,-81.5087465
1086998,3916182,Village of Clinton,OH,C2,39153,40.928385,-81.630554
1087001,3919778,City of Cuyahoga Falls,OH,C2,39153,41.1402509,-81.4842763
1087005,3941454,Village of Lakemore,OH,C2,39153,41.0214183,-81.4264002
1087006,3945976,City of Macedonia,OH,C2,39153,41.3146755,-81.4990265
1087008,3953312,City of Munroe Falls,OH,C2,39153,41.1385353,-81.434354
1087010,3956448,Village of Northfield,OH,C2,39153,41.3425348,-81.5285473
1087012,3957260,City of Norton,OH,C2,39153,41.029401,-81.6461023
1087013,3966152,Village of Reminderville,OH,C2,39153,41.3338365,-81.4018291
1087016,3972494,Village of Silver Lake,OH,C2,39153,41.15934,-81.4605101
1087018,3974944,City of Stow,OH,C2,39153,41.1764688,-81.4343729
1087019,3976106,City of Tallmadge,OH,C2,39153,41.1023362,-81.4215699
1087020,3978050,City of Twinsburg,OH,C2,39153,41.322071,-81.4451592
1087038,3944912,Village of Lordstown,OH,C2,39155,41.1684494,-80.8588814
1087042,3958674,Village of Orangeville,OH,C5,39155,41.3417354,-80.5282848
1087046,3980892,City of Warren,OH,C5,39155,41.2389192,-80.8177218
1087060,3955216,City of New Philadelphia,OH,C2,39157,40.4860825,-81.4401036
1087116,3942364,City of Lebanon,OH,C2,39165,39.4251078,-84.2135478
1087127,3905424,City of Belpre,OH,C2,39167,39.2814279,-81.5970474
1087138,3947628,City of Marietta,OH,C2,39167,39.4240818,-81.4465256
1087163,3986548,City of Wooster,OH,C2,39169,40.8166345,-81.9337659
1087167,3909792,City of Bryan,OH,C2,39171,41.4710988,-84.5488772
1087179,3907972,City of Bowling Green,OH,C2,39173,41.3772859,-83.6500141
1087191,3957190,City of Northwood,OH,C2,39173,41.608864,-83.4837615
1087193,3962148,City of Perrysburg,OH,C2,39173,41.5377406,-83.6412424
1087197,3968686,City of Rossford,OH,C2,39173,41.5976892,-83.5551633
1090465,4008600,Breckinridge,OK,C4,40047,36.4369774,-97.7317205
1101499,4042150,Leflore,OK,C4,40079,34.8987103,-94.9802358
1102839,4001500,Alluwe,OK,C4,40105,36.6103685,-95.4871973
1102841,4017200,Cordell,OK,C4,40149,35.290608,-98.988411
1102842,4021800,Duke,OK,C4,40065,34.6614558,-99.5700917
1102846,4062250,Red Bird,OK,C4,40145,35.885656,-95.5888674
1102850,4060950,Pryor,OK,C4,40097,36.3084275,-95.3169136
1168237,4202192,Alum Bank,PA,C4,42009,40.1806336,-78.6136291
1182289,4253256,New Bloomfield,PA,C4,42099,40.4198062,-77.1863718
1189109,4275552,Susquehanna,PA,C4,42115,41.9434141,-75.5996271
1197994,4245768,Lyon Station (historical),PA,C4,42011,40.4839832,-75.7585274
1201949,4215544,Conemaugh,PA,C4,42021,40.3267408,-78.9080805
1214750,4200116,Borough of Abbottstown,PA,C5,42001,39.8842375,-76.9888224
1214751,4202928,Borough of Arendtsville,PA,C5,42001,39.9234175,-77.2998453
1214752,4205536,Borough of Bendersville,PA,C5,42001,39.9812758,-77.2493155
1214753,4206296,Borough of Biglerville,PA,C5,42001,39.9303407,-77.2463186
1214754,4207560,Borough of Bonneauville,PA,C5,42001,39.8104256,-77.13626
1214755,4211472,Borough of Carroll Valley,PA,C5,42001,39.749865,-77.3804267
1214756,4220792,Borough of East Berlin,PA,C5,42001,39.9369308,-76.979411
1214757,4224560,Borough of Fairfield,PA,C5,42001,39.7890013,-77.3698195
1214758,4228960,Borough of Gettysburg,PA,C5,42001,39.8303612,-77.2338629
1214759,4243944,Borough of Littlestown,PA,C5,42001,39.7451704,-77.0892127
1214760,4246376,Borough of McSherrystown,PA,C5,42001,39.8035271,-77.0198895
1214761,4253920,Borough of New Oxford,PA,C5,42001,39.863001,-77.0554774
1214762,4287136,Borough of York Springs,PA,C5,42001,40.0093588,-77.1157556
1214763,4203320,Borough of Aspinwall,PA,C5,42003,40.4928748,-79.9037468
1214764,4203608,Borough of Avalon,PA,C5,42003,40.5011009,-80.0680327
1214765,4203928,Borough of Baldwin,PA,C5,42003,40.3743256,-79.9542687
1214766,4205216,Borough of Bell Acres,PA,C5,42003,40.5897683,-80.1737977
1214767,4205312,Borough of Bellevue,PA,C5,42003,40.4944754,-80.0549912
1214768,4205504,Borough of Ben Avon,PA,C5,42003,40.5058257,-80.0814819
1214769,4205520,Borough of Ben Avon Heights,PA,C5,42003,40.5125416,-80.0730874
1214770,4206064,Municipality of Bethel Park,PA,C5,42003,40.3238926,-80.0363647
1214771,4207000,Borough of Blawnox,PA,C5,42003,40.4921867,-79.8599416
1214772,4207976,Borough of Brackenridge,PA,C5,42003,40.6079409,-79.741062
1214773,4207992,Borough of Braddock,PA,C5,42003,40.4018972,-79.8688369
1214774,4208008,Borough of Braddock Hills,PA,C5,42003,40.4180087,-79.8629281
1214775,4208064,Borough of Bradford Woods,PA,C5,42003,40.6369354,-80.0808974
1214776,4208416,Borough of Brentwood,PA,C5,42003,40.3733701,-79.9757855
1214777,4208624,Borough of Bridgeville,PA,C5,42003,40.3577592,-80.1060984
1214778,4211336,Borough of Carnegie,PA,C5,42003,40.4079677,-80.0860204
1214779,4211680,Borough of Castle Shannon,PA,C5,42003,40.366429,-80.0194498
1214780,4212496,Borough of Chalfant,PA,C5,42003,40.4101186,-79.8386144
1214781,4213392,Borough of Cheswick,PA,C5,42003,40.5427736,-79.8012433
1214782,4213608,Borough of Churchill,PA,C5,42003,40.4388495,-79.8416001
1214783,4213704,City of Clairton,PA,C5,42003,40.297602,-79.8853402
1214784,4216144,Borough of Coraopolis,PA,C5,42003,40.5148315,-80.1626408
1214785,4216848,Borough of Crafton,PA,C5,42003,40.4333336,-80.0711009
1214786,4219576,Borough of Dormont,PA,C5,42003,40.3940459,-80.0377088
1214787,4219856,Borough of Dravosburg,PA,C5,42003,40.350836,-79.8906184
1214788,4220432,City of Duquesne,PA,C5,42003,40.3731944,-79.8501082
1214789,4221444,Borough of East McKeesport,PA,C5,42003,40.3848154,-79.8074145
1214790,4221712,Borough of East Pittsburgh,PA,C5,42003,40.3968777,-79.8381816
1214791,4222520,Borough of Edgewood,PA,C5,42003,40.4312963,-79.8839688
1214792,4222576,Borough of Edgeworth,PA,C5,42003,40.5546096,-80.1922125
1214793,4222992,Borough of Elizabeth,PA,C5,42003,40.2713883,-79.8873727
1214794,4223616,Borough of Emsworth,PA,C5,42003,40.5112231,-80.0965609
1214795,4224160,Borough of Etna,PA,C5,42003,40.4976021,-79.947542
1214796,4226592,Borough of Forest Hills,PA,C5,42003,40.425084,-79.8544676
1214797,4229432,Borough of Glassport,PA,C5,42003,40.3261726,-79.8861993
1214798,4229592,Borough of Glenfield,PA,C5,42003,40.5207365,-80.1333185
1214799,4231256,Borough of Green Tree,PA,C5,42003,40.4170563,-80.054316
1214800,4233312,Borough of Haysville,PA,C5,42003,40.5269073,-80.1561635
1214801,4233592,Borough of Heidelberg,PA,C5,42003,40.3914673,-80.0922068
1214802,4235424,Borough of Homestead,PA,C5,42003,40.407316,-79.9097163
1214803,4237000,Borough of Ingram,PA,C5,42003,40.4448318,-80.0685055
1214804,4242392,Borough of Leetsdale,PA,C5,42003,40.565633,-80.2142142
1214805,4243064,Borough of Liberty,PA,C5,42003,40.3243681,-79.858943
1214806,4243408,Borough of Lincoln,PA,C5,42003,40.299475,-79.8554211
1214807,4246256,City of McKeesport,PA,C5,42003,40.3418899,-79.8439451
1214808,4246264,Borough of McKees Rocks,PA,C5,42003,40.4687566,-80.0630208
1214809,4249920,Borough of Millvale,PA,C5,42003,40.4816794,-79.97361
1214810,4251744,Borough of Mount Oliver,PA,C5,42003,40.4112728,-79.9856354
1214811,4252320,Borough of Munhall,PA,C5,42003,40.3937275,-79.9004286
1214812,4254816,Borough of North Braddock,PA,C5,42003,40.4022494,-79.853306
1214813,4255840,Borough of Oakdale,PA,C5,42003,40.4001651,-80.1871511
1214814,4256088,Borough of Oakmont,PA,C5,42003,40.5200421,-79.8364688
1214815,4229732,Borough of Glen Osborne,PA,C5,42003,40.5307624,-80.1679408
1214816,4259152,Borough of Pennsbury Village,PA,C5,42003,40.4282449,-80.1010932
1214817,4260712,Borough of Pitcairn,PA,C5,42003,40.4077791,-79.7763444
1214818,4261000,City of Pittsburgh,PA,C5,42003,40.4396232,-79.9762589
1214819,4261328,Borough of Pleasant Hills,PA,C5,42003,40.3298157,-79.9596375
1214820,4262320,Borough of Port Vue,PA,C5,42003,40.3371172,-79.8719952
1214821,4263408,Borough of Rankin,PA,C5,42003,40.4109994,-79.8811281
1214822,4266320,Borough of Rosslyn Farms,PA,C5,42003,40.4224181,-80.0885513
1214823,4269376,Borough of Sewickley,PA,C5,42003,40.5399198,-80.179328
1214824,4269400,Borough of Sewickley Heights,PA,C5,42003,40.5594636,-80.1527835
1214825,4269416,Borough of Sewickley Hills,PA,C5,42003,40.5680495,-80.1271381
1214826,4269776,Borough of Sharpsburg,PA,C5,42003,40.4940467,-79.9250289
1214827,4272960,Borough of Springdale,PA,C5,42003,40.5408626,-79.781897
1214828,4275816,Borough of Swissvale,PA,C5,42003,40.4206906,-79.8857987
1214829,4276104,Borough of Tarentum,PA,C5,42003,40.6041264,-79.7601013
1214830,4276560,Borough of Thornburg,PA,C5,42003,40.4345252,-80.0841466
1214831,4277912,Borough of Turtle Creek,PA,C5,42003,40.4085751,-79.8214639
1214832,4280032,Borough of Verona,PA,C5,42003,40.5050318,-79.8418741
1214833,4280040,Borough of Versailles,PA,C5,42003,40.3177285,-79.8308494
