GNIS ID,GEOID,Name,State,FIPS Class,County GEOID,Latitude,Longitude
1000891,3752000,Pine Knoll Shores,NC,P1,37031,34.6973838,-76.8132697
1000892,3768340,Trent Woods,NC,P1,37049,35.0821039,-77.0863383
1001043,3762040,Simpson,NC,P1,37147,35.5751619,-77.278573
1001094,3763130,Southern Shores,NC,P1,37055,36.1390533,-75.7315719
1001109,3759090,Sandy Creek,NC,P1,37019,34.2871132,-78.1508296
1002207,3705135,Bermuda Run,NC,P1,37059,36.0037477,-80.4219996
1003765,3770820,Walnut Creek,NC,P1,37191,35.3071071,-77.8649817
1004359,3727780,Greenevers,NC,P1,37061,34.8223896,-77.9269273
1004627,3735890,Kingstown,NC,P1,37045,35.3512389,-81.612316
1004747,3706760,Boiling Spring Lakes,NC,P1,37019,34.0304501,-78.0672141
1004755,3765900,Sunset Beach,NC,P1,37019,33.880728,-78.5122311
1004781,3748700,Ocean Isle Beach,NC,P1,37019,33.8943393,-78.426672
1004807,3710960,Caswell Beach,NC,P1,37019,33.8960076,-78.051102
1004830,3760800,Shallotte,NC,P1,37019,33.9732275,-78.3858371
1006108,3705340,Bethania,NC,P1,37067,36.1823602,-80.3381077
1006110,3702500,Atlantic Beach,NC,P1,37031,34.6990505,-76.7402108
1007064,3704950,Belville,NC,P1,37019,34.2307256,-77.9658222
1008273,3769795,Varnamtown,NC,P1,37019,33.9357283,-78.2486091
1009487,3706500,Blowing Rock,NC,P1,37189,36.135129,-81.6776059
1009539,3707080,Boone,NC,P1,37189,36.216795,-81.6745517
1009587,3707720,Brevard,NC,P1,37175,35.2334472,-82.7342919
1009845,3709140,Burnsville,NC,P1,37199,35.9173358,-82.300961
1009994,3710120,Candor,NC,P1,37123,35.2951421,-79.7453164
1010133,3711340,Cedar Point,NC,P1,37031,34.6876621,-77.0724481
1011054,3720700,Elk Park,NC,P1,37011,36.1573464,-81.9781722
1011373,3724640,Franklin,NC,P1,37113,35.1823171,-83.3815429
1011526,3726200,Glen Alpine,NC,P1,37023,35.7290168,-81.7792661
1011930,3730280,Hayesville,NC,P1,37043,35.0462004,-83.8179527
1012061,3731360,Highlands,NC,P1,37113,35.0525909,-83.1968173
1012224,3732840,Hot Springs,NC,P1,37115,35.8923253,-82.8290318
1012683,3736960,Lansing,NC,P1,37009,36.4992896,-81.5109405
1013324,3741420,Marion,NC,P1,37111,35.6840131,-82.0092745
1013382,3742100,Maysville,NC,P1,37103,34.9048814,-77.2313436
1013689,3744320,Morehead City,NC,P1,37031,34.7229391,-76.7260436
1013735,3744900,Mount Gilead,NC,P1,37123,35.2148671,-80.0022784
1013848,3745660,Murphy,NC,P1,37039,35.0875836,-84.0346315
1013911,3746340,New Bern,NC,P1,37049,35.1084931,-77.0441143
1013929,3746820,New London,NC,P1,37167,35.4431965,-80.2192225
1013943,3746740,Newland,NC,P1,37011,36.0873484,-81.9273363
1013948,3746860,Newport,NC,P1,37031,34.7865497,-76.8591057
1014094,3748920,Old Fort,NC,P1,37111,35.6290093,-82.1806697
1014309,3751040,Peletier,NC,P1,37031,34.7301615,-77.0843934
1014565,3753200,Pollocksville,NC,P1,37103,35.0059914,-77.2210654
1014953,3757020,Robbinsville,NC,P1,37075,35.322866,-83.807399
1015757,3764260,Spruce Pine,NC,P1,37121,35.9154007,-82.0645611
1015791,3764580,Star,NC,P1,37123,35.4020838,-79.7842049
1017440,3756710,River Bend,NC,P1,37049,35.0690481,-77.146896
1017958,3733460,Indian Beach,NC,P1,37031,34.6865508,-76.8952181
1018757,3700160,Aberdeen,NC,P1,37125,35.131547,-79.4294789
1018780,3700640,Alamance,NC,P1,37001,36.0351361,-79.4858549
1018801,3701000,Alliance,NC,P1,37137,35.1448881,-76.8021556
1018822,3701380,Andrews,NC,P1,37039,35.2017549,-83.8240667
1018834,3701520,Apex,NC,P1,37183,35.732652,-78.8502856
1018839,3701640,Arapahoe,NC,P1,37137,35.0257168,-76.8254925
1018843,3701720,Archdale,NC,P1,37151,35.914581,-79.9719831
1018863,3702080,Asheboro,NC,P1,37151,35.7079146,-79.8136446
1018864,3702140,Asheville,NC,P1,37021,35.6009452,-82.554015
1018871,3702460,Atkinson,NC,P1,37141,34.5285008,-78.171107
1018874,3702580,Aulander,NC,P1,37015,36.2296005,-77.1141282
1018876,3702620,Aurora,NC,P1,37013,35.3054469,-76.788543
1018886,3702840,Ayden,NC,P1,37147,35.4726626,-77.4155203
1018899,3703020,Bailey,NC,P1,37127,35.780712,-78.1188809
1018913,3703100,Bakersville,NC,P1,37121,36.0156735,-82.1587351
1018956,3703500,Banner Elk,NC,P1,37011,36.1631818,-81.8715019
1018985,3703840,Bath,NC,P1,37013,35.4771094,-76.8116045
1019024,3704260,Beaufort,NC,P1,37031,34.7182174,-76.6638186
1019093,3705040,Benson,NC,P1,37101,35.3821067,-78.548621
1019119,3705660,Beulaville,NC,P1,37061,34.9237763,-77.7738667
1019180,3705880,Biltmore Forest,NC,P1,37021,35.5337246,-82.5284561
1019189,3706000,Biscoe,NC,P1,37123,35.3598626,-79.7797613
1019196,3706140,Black Mountain,NC,P1,37021,35.6178951,-82.3212302
1019242,3706740,Bogue,NC,P1,37031,34.6993286,-77.0368913
1019295,3707860,Bridgeton,NC,P1,37049,35.1215489,-77.02078
1019316,3708140,Brookford,NC,P1,37035,35.7031879,-81.3478641
1019348,3708480,Bryson City,NC,P1,37173,35.4309291,-83.447381
1019409,3708960,Burgaw,NC,P1,37141,34.5521113,-77.926098
1019443,3709360,Butner,NC,P1,37077,36.1320893,-78.7566714
1019469,3709540,Calabash,NC,P1,37019,33.8907278,-78.5683446
1019484,3709800,Cameron,NC,P1,37125,35.3268226,-79.255303
1019518,3710240,Canton,NC,P1,37087,35.5328838,-82.8373558
1019521,3710260,Cape Carteret,NC,P1,37031,34.6915509,-77.0630033
1019538,3710620,Carrboro,NC,P1,37135,35.9101438,-79.0752895
1019550,3710680,Carthage,NC,P1,37125,35.3459867,-79.4169711
1019552,3710740,Cary,NC,P1,37183,35.79154,-78.7811169
1019559,3710980,Catawba,NC,P1,37035,35.7073558,-81.0756345
1019602,3711800,Chapel Hill,NC,P1,37135,35.9131996,-79.0558445
1019610,3712000,Charlotte,NC,P1,37119,35.2270869,-80.8431268
1019622,3712340,Cherryville,NC,P1,37071,35.3787442,-81.3789739
1019666,3712480,China Grove,NC,P1,37159,35.569306,-80.5817318
1019670,3712580,Chocowinity,NC,P1,37013,35.5126631,-77.1005091
1019681,3712720,Claremont,NC,P1,37035,35.7145776,-81.1461917
1019689,3712860,Clayton,NC,P1,37101,35.650711,-78.4563914
1019693,3712960,Clemmons,NC,P1,37067,36.0215258,-80.3819984
1019695,3713000,Cleveland,NC,P1,37159,35.7331953,-80.6770111
1019707,3713280,Clyde,NC,P1,37087,35.5334379,-82.910691
1019711,3713360,Coats,NC,P1,37085,35.4079393,-78.6719592
1019733,3713560,Colerain,NC,P1,37015,36.201268,-76.7685616
1019747,3713940,Columbia,NC,P1,37177,35.9176632,-76.2521521
1019753,3714200,Conetoe,NC,P1,37065,35.8157136,-77.4558025
1019758,3714280,Connelly Springs,NC,P1,37023,35.7429092,-81.5134255
1019761,3714400,Conway,NC,P1,37131,36.4370974,-77.2288563
1019808,3715020,Cove City,NC,P1,37049,35.1873837,-77.3207917
1019843,3715260,Cramerton,NC,P1,37071,35.2387504,-81.0750757
1019853,3715320,Creedmoor,NC,P1,37077,36.1223683,-78.6861145
1019859,3715420,Creswell,NC,P1,37187,35.8704415,-76.3921553
1019869,3715580,Crossnore,NC,P1,37011,36.0217938,-81.9295579
1019902,3716240,Danbury,NC,P1,37169,36.4093047,-80.2058831
1019914,3716400,Davidson,NC,P1,37119,35.4993031,-80.8486846
1019946,3716820,Dellview,NC,P1,37071,35.3887437,-81.4098084
1019952,3716980,Denton,NC,P1,37057,35.6334713,-80.1158813
1019975,3717180,Dillsboro,NC,P1,37099,35.3692665,-83.2523705
1020029,3717860,Drexel,NC,P1,37023,35.7579081,-81.6042614
1020051,3718320,Dunn,NC,P1,37085,35.3062743,-78.6089028
1020059,3719000,Durham,NC,P1,37063,35.9940329,-78.898619
1020072,3760080,Seagrove,NC,P1,37151,35.5404147,-79.7730901
1020075,3719300,East Arcadia,NC,P1,37017,34.382113,-78.3233353
1020076,3719320,East Bend,NC,P1,37197,36.216528,-80.512558
1020093,3719860,East Spencer,NC,P1,37159,35.6818059,-80.4322801
1020096,3719740,Eastover,NC,P1,37051,35.1,-78.8
1020131,3720780,Ellenboro,NC,P1,37161,35.3290128,-81.7587106
1020134,3720840,Ellerbe,NC,P1,37153,35.0712608,-79.7614395
1020141,3720980,Elm City,NC,P1,37195,35.8065455,-77.863315
1020148,3721160,Emerald Isle,NC,P1,37031,34.6779399,-76.9507762
1020153,3721360,Enfield,NC,P1,37083,36.1809865,-77.6666415
1020169,3721740,Erwin,NC,P1,37085,35.3268292,-78.676128
1020175,3721960,Eureka,NC,P1,37191,35.54266,-77.8763717
1020180,3722040,Everetts,NC,P1,37117,35.8348814,-77.1735714
1020187,3722240,Fair Bluff,NC,P1,37047,34.3134996,-79.0372544
1020194,3722360,Fairmont,NC,P1,37155,34.4968311,-79.114202
1020204,3722560,Faison,NC,P1,37061,35.1162764,-78.1361033
1020206,3722600,Faith,NC,P1,37159,35.587084,-80.4628385
1020207,3722620,Falcon,NC,P1,37051,35.1898868,-78.6483498
1020208,3722640,Falkland,NC,P1,37147,35.6993258,-77.5130257
1020213,3722720,Fallston,NC,P1,37045,35.4290205,-81.5014787
1020222,3722820,Farmville,NC,P1,37147,35.5954381,-77.5852496
1020226,3722920,Fayetteville,NC,P1,37051,35.0526641,-78.8783585
1020286,3723760,Fletcher,NC,P1,37089,35.4306712,-82.5012316
1020300,3723990,Fontana Village,NC,C4,37075,35.4356434,-83.819065
1020302,3724080,Forest City,NC,P1,37161,35.3340108,-81.8651028
1020357,3724720,Franklinton,NC,P1,37069,36.1018163,-78.4580543
1020358,3724740,Franklinville,NC,P1,37151,35.7437485,-79.6922501
1020383,3725300,Fuquay-Varina,NC,P1,37183,35.5843235,-78.8000128
1020402,3725540,Garysburg,NC,P1,37131,36.450985,-77.5588661
1020425,3725940,Gibson,NC,P1,37165,34.7590477,-79.6106104
1020469,3726880,Goldsboro,NC,P1,37191,35.3848841,-77.9927651
1020491,3727420,Granite Falls,NC,P1,37027,35.7965205,-81.4306458
1020496,3727520,Grantsboro,NC,P1,37137,35.1404424,-76.842436
1020557,3728000,Greensboro,NC,P1,37081,36.0726355,-79.7919754
1020564,3728240,Grimesland,NC,P1,37147,35.5634956,-77.1921806
1020597,3729120,Hamilton,NC,P1,37117,35.9446027,-77.2096844
1020599,3729160,Hamlet,NC,P1,37153,34.8848775,-79.6942222
1020631,3729800,Harrisburg,NC,P1,37025,35.3237528,-80.6559017
1020637,3730120,Havelock,NC,P1,37049,34.8790492,-76.9013301
1020786,3731860,Hobgood,NC,P1,37083,36.0298788,-77.3977461
1020787,3731920,Hoffman,NC,P1,37153,35.032378,-79.5475437
1020798,3731960,Holden Beach,NC,P1,37019,33.9135061,-78.3038892
1020807,3732260,Holly Springs,NC,P1,37183,35.6512655,-78.8336218
1020820,3732540,Hookerton,NC,P1,37079,35.4251622,-77.5883039
1020920,3734000,Jackson,NC,P1,37131,36.3895976,-77.4213614
1020939,3734440,Jefferson,NC,P1,37009,36.420403,-81.4734376
1021013,3735200,Kannapolis,NC,P1,37025,35.4873613,-80.6217341
1021026,3735460,Kenansville,NC,P1,37061,34.9623883,-77.9622069
1021028,3735540,Kenly,NC,P1,37101,35.5962702,-78.1241592
1021043,3735760,King,NC,P1,37169,36.280694,-80.3592197
1021058,3736020,Kittrell,NC,P1,37181,36.2220919,-78.4377758
1021059,3736060,Kitty Hawk,NC,P1,37055,36.0646102,-75.7057347
1021061,3736080,Knightdale,NC,P1,37183,35.7876516,-78.4805563
1021071,3736220,Kure Beach,NC,P1,37129,33.9968399,-77.9072081
1021079,3736500,Lake Lure,NC,P1,37161,35.4278969,-82.2048343
1021095,3736860,Landis,NC,P1,37159,35.5456947,-80.6108998
1021101,3737000,Lasker,NC,P1,37131,36.350154,-77.3055242
1021114,3737160,Laurel Park,NC,P1,37089,35.3137282,-82.4934535
1021132,3737760,Lenoir,NC,P1,37027,35.9140196,-81.5389849
1021149,3738200,Lilesville,NC,P1,37007,34.9676535,-79.9845032
1021150,3738220,Lillington,NC,P1,37085,35.399327,-78.8158528
1021154,3738320,Lincolnton,NC,P1,37109,35.473745,-81.2545251
1021155,3738360,Linden,NC,P1,37051,35.2548851,-78.7472447
1021294,3739420,Love Valley,NC,P1,37097,35.9898553,-80.988132
1021355,3741580,Marshall,NC,P1,37115,35.7973284,-82.6840252
1021369,3741960,Matthews,NC,P1,37119,35.1168131,-80.7236804
1021370,3742020,Maxton,NC,P1,37155,34.7351615,-79.3489317
1021374,3742060,Mayodan,NC,P1,37157,36.4123597,-79.9669857
1021377,3739880,McAdenville,NC,P1,37071,35.2593056,-81.0753535
1021387,3740140,McDonald,NC,P1,37155,34.5540525,-79.1755928
1021390,3740240,McFarlan,NC,P1,37007,34.8123776,-79.9758956
1021404,3742240,Mebane,NC,P1,37001,36.0959715,-79.2669619
1021416,3742480,Mesic,NC,P1,37137,35.2004454,-76.6438169
1021423,3742620,Micro,NC,P1,37101,35.5637705,-78.2044405
1021435,3742640,Middleburg,NC,P1,37181,36.3995899,-78.3224959
1021436,3742700,Middlesex,NC,P1,37127,35.7901559,-78.2038842
1021438,3742760,Midland,NC,P1,37025,35.2273656,-80.5006219
1021443,3742860,Midway,NC,P1,37057,35.9534706,-80.2181043
1021475,3743260,Mills River,NC,P1,37089,35.3884479,-82.566789
1021491,3743440,Minnesott Beach,NC,P1,37137,34.9687716,-76.8116033
1021493,3743480,Mint Hill,NC,P1,37119,35.1795892,-80.6472904
1021506,3743720,Mocksville,NC,P1,37059,35.8940263,-80.5614494
1021518,3744100,Montreat,NC,P1,37021,35.6442841,-82.3028972
1021537,3744520,Morrisville,NC,P1,37183,35.823483,-78.8255621
1021540,3744560,Morven,NC,P1,37007,34.8640437,-80.0011724
1021587,3745640,Murfreesboro,NC,P1,37091,36.4423754,-77.0985753
1021605,3746000,Nashville,NC,P1,37127,35.974598,-77.9655406
1021658,3747260,Norman,NC,P1,37153,35.1704249,-79.7228212
1021677,3747980,Norwood,NC,P1,37167,35.2195898,-80.1189477
1021705,3748040,Oakboro,NC,P1,37167,35.2257007,-80.3289521
1021756,3749460,Orrum,NC,P1,37155,34.4659989,-79.0091979
1021773,3749800,Oxford,NC,P1,37077,36.3107004,-78.5908345
1021829,3750700,Patterson Springs,NC,P1,37045,35.235407,-81.5145344
1021932,3751840,Pinebluff,NC,P1,37125,35.1098795,-79.4722589
1021933,3751940,Pinehurst,NC,P1,37125,35.1954345,-79.4694767
1021938,3752140,Pinetops,NC,P1,37065,35.7884908,-77.6377521
1021940,3752220,Pineville,NC,P1,37119,35.0832014,-80.8922957
1021977,3752400,Pink Hill,NC,P1,37107,35.0551639,-77.7463653
1021992,3752660,Pittsboro,NC,P1,37037,35.7201463,-79.1772371
1021999,3752760,Pleasant Garden,NC,P1,37081,35.96208,-79.7622513
1022070,3753680,Powellsville,NC,P1,37015,36.225712,-76.9330114
1022084,3753820,Princeton,NC,P1,37101,35.4659942,-78.1605497
1022085,3753840,Princeville,NC,P1,37065,35.8896014,-77.5321937
1022137,3754580,Raeford,NC,P1,37093,34.9809996,-79.2241998
1022142,3755040,Ramseur,NC,P1,37151,35.7334711,-79.6525267
1022145,3755080,Randleman,NC,P1,37151,35.8179143,-79.8030873
1022176,3755340,Raynham,NC,P1,37155,34.57433,-79.1950379
1022197,3755640,Red Oak,NC,P1,37127,36.0384863,-77.9063718
1022199,3755660,Red Springs,NC,P1,37155,34.8151633,-79.183091
1022217,3755900,Reidsville,NC,P1,37157,36.3548586,-79.6644748
1022221,3755940,Rennert,NC,P1,37155,34.8143301,-79.0808661
1022237,3756240,Rhodhiss,NC,P1,37027,35.7740206,-81.431201
1022271,3756440,Rich Square,NC,P1,37131,36.274044,-77.2844116
1022279,3756360,Richlands,NC,P1,37133,34.8993298,-77.5466343
1022310,3756900,Roanoke Rapids,NC,P1,37083,36.4615395,-77.6541464
1022368,3757500,Rocky Mount,NC,P1,37127,35.9382103,-77.790534
1022387,3757740,Roper,NC,P1,37187,35.8779403,-76.6152183
1022400,3758020,Rosman,NC,P1,37175,35.143721,-82.8212432
1022434,3758180,Roxobel,NC,P1,37015,36.2029338,-77.2452433
1022449,3758420,Ruth,NC,P1,37161,35.3820659,-81.9470489
1022450,3758460,Rutherfordton,NC,P1,37161,35.3692877,-81.9567716
1022497,3759280,Sanford,NC,P1,37105,35.4798757,-79.1802994
1022499,3736514,Lake Santeetlah,NC,P1,37075,35.3561986,-83.8382334
1022502,3759340,Saratoga,NC,P1,37195,35.6537698,-77.7755342
1022539,3760320,Selma,NC,P1,37101,35.5365485,-78.2844435
1022549,3760540,Seven Springs,NC,P1,37191,35.2273856,-77.8469251
1022551,3760560,Severn,NC,P1,37131,36.5151521,-77.1896894
1022722,3763400,Southport,NC,P1,37019,33.921563,-78.0202677
1022730,3763720,Speed,NC,P1,37065,35.9679346,-77.4452472
1022733,3763780,Spencer Mountain,NC,P1,37071,35.3062487,-81.1106324
1022751,3764160,Spring Hope,NC,P1,37127,35.9451536,-78.1119345
1022752,3764180,Spring Lake,NC,P1,37051,35.1679396,-78.9728056
1022768,3764380,Staley,NC,P1,37151,35.7959711,-79.551412
1022769,3764420,Stallings,NC,P1,37179,35.0907026,-80.6861799
1022777,3764560,Stantonsburg,NC,P1,37195,35.6068259,-77.8233139
1022797,3765040,Stokesdale,NC,P1,37081,36.2370802,-79.979483
1022801,3765120,Stonewall,NC,P1,37137,35.1373893,-76.7477081
1022865,3766360,Swansboro,NC,P1,37133,34.6876621,-77.1191166
1022870,3766460,Swepsonville,NC,P1,37001,36.0212488,-79.3614076
1022886,3766700,Tarboro,NC,P1,37065,35.8968236,-77.5358049
1022897,3766980,Taylortown,NC,P1,37125,35.2076564,-79.4858653
1022940,3767420,Thomasville,NC,P1,37057,35.8826369,-80.0819879
1023045,3769260,Unionville,NC,P1,37179,35.0873694,-80.5089552
1023072,3769720,Vandemere,NC,P1,37137,35.1840563,-76.6635394
1023075,3769840,Vass,NC,P1,37125,35.2562684,-79.2822491
1023093,3770480,Wagram,NC,P1,37165,34.8879397,-79.3661515
1023094,3770540,Wake Forest,NC,P1,37183,35.9798734,-78.5097228
1023123,3771240,Washington Park,NC,P1,37013,35.532663,-77.0324509
1023138,3771500,Waynesville,NC,P1,37087,35.4887145,-82.9887477
1023145,3771600,Webster,NC,P1,37099,35.346211,-83.2193132
1023152,3771780,Weldon,NC,P1,37083,36.427096,-77.5955331
1023154,3771860,Wendell,NC,P1,37183,35.780987,-78.3697213
1023155,3771900,Wentworth,NC,P1,37157,36.4001371,-79.7744792
1023157,3771940,Wesley Chapel,NC,P1,37179,35.0070935,-80.6745131
1023168,3772540,West Jefferson,NC,P1,37009,36.4037364,-81.4928829
1023195,3773140,Whispering Pines,NC,P1,37125,35.2557123,-79.3722503
1023198,3773300,White Lake,NC,P1,37017,34.640449,-78.4838952
1023261,3774220,Williamston,NC,P1,37117,35.8546039,-77.0555114
1023269,3774440,Wilmington,NC,P1,37129,34.2257256,-77.9447102
1023273,3774540,Wilson,NC,P1,37195,35.7212689,-77.9155395
1023279,3774680,Windsor,NC,P1,37015,35.9984925,-76.9460641
1023283,3774720,Winfall,NC,P1,37143,36.2190463,-76.46383
1023311,3775280,Woodfin,NC,P1,37021,35.633444,-82.5820725
1023356,3719140,Earl,NC,P1,37045,35.1934623,-81.5331467
1023415,3724440,Fountain,NC,P1,37147,35.6740478,-77.6399741
1023505,3760505,Seven Devils,NC,P1,37011,36.1581825,-81.8353895
1023721,3728080,Greenville,NC,P1,37147,35.612661,-77.3663538
1023790,3700680,Albemarle,NC,P1,37167,35.3501426,-80.2000578
1023821,3704960,Belwood,NC,P1,37045,35.477076,-81.523424
1024010,3728200,Grifton,NC,P1,37147,35.3726629,-77.4374642
1024027,3730040,Hassell,NC,P1,37117,35.907936,-77.2785755
1024124,3739960,Macclesfield,NC,P1,37065,35.7521022,-77.6699752
1024242,3755000,Raleigh,NC,P1,37183,35.772096,-78.6386145
1024248,3755460,Red Cross,NC,P1,37167,35.2673659,-80.3556188
1024267,3757100,Robersonville,NC,P1,37117,35.8251589,-77.2491298
1024281,3758160,Roxboro,NC,P1,37145,36.3937519,-78.9827881
1024318,3764460,Stanfield,NC,P1,37167,35.2334772,-80.4270094
1024364,3768520,Troy,NC,P1,37123,35.3584743,-79.8944901
1024485,3770860,Walstonburg,NC,P1,37079,35.5946041,-77.6969203
1024491,3704180,Bear Grass,NC,P1,37117,35.7662709,-77.1274582
1024752,3703960,Bayboro,NC,P1,37137,35.1429445,-76.7702093
1024758,3727280,Graham,NC,P1,37001,36.0690258,-79.4005756
1024761,3730260,Haw River,NC,P1,37001,36.091526,-79.3641862
1024878,3758440,Rutherford College,NC,P1,37023,35.7484645,-81.5225925
1024890,3722500,Fairview,NC,P1,37179,35.1384791,-80.5375668
1025102,3702320,Askewville,NC,P1,37015,36.1098801,-76.9399544
1025246,3712780,Clarkton,NC,P1,37017,34.4873922,-78.6561257
1025253,3714060,Como,NC,P1,37091,36.5015414,-77.0094074
1025292,3718060,Duck,NC,P1,37055,36.169608,-75.7551854
1025302,3720120,Edenton,NC,P1,37041,36.057938,-76.6077213
1025307,3720580,Elizabeth City,NC,P1,37139,36.2946008,-76.2510461
1025308,3720600,Elizabethtown,NC,P1,37017,34.6293372,-78.6052899
1025334,3725680,Gatesville,NC,P1,37073,36.4034878,-76.7530098
1025370,3729680,Harrells,NC,P1,37163,34.7276701,-78.2011053
1025382,3730900,Hertford,NC,P1,37143,36.190158,-76.4660519
1025390,3732180,Holly Ridge,NC,P1,37133,34.4954448,-77.5549696
1025426,3734320,Jamesville,NC,P1,37117,35.8112719,-76.896616
1025573,3746060,Navassa,NC,P1,37019,34.2554474,-78.0074906
1025580,3747020,Newton Grove,NC,P1,37163,35.2451648,-78.3541685
1025665,3758620,Saint Helena,NC,P1,37141,34.5165557,-77.9155426
1025673,3758840,Salemburg,NC,P1,37163,35.0154469,-78.5030622
1025712,3762520,Smithfield,NC,P1,37101,35.5084935,-78.3394455
1025742,3767000,Teachey,NC,P1,37061,34.7682241,-78.0080407
1025759,3768740,Turkey,NC,P1,37163,34.9923888,-78.183049
1025771,3770720,Wallace,NC,P1,37061,34.735724,-77.9952628
1025798,3773660,Whiteville,NC,P1,37047,34.3387802,-78.7030721
1025849,3735720,Kill Devil Hills,NC,P1,37055,36.0307226,-75.6760101
1027372,3702960,Badin,NC,P1,37167,35.4059744,-80.1167203
1027382,3706660,Boardman,NC,P1,37047,34.4390555,-78.949195
1027392,3712460,Chimney Rock,NC,P1,37161,35.4392855,-82.2465023
1027418,3738040,Lewisville,NC,P1,37067,36.0970819,-80.4192216
1027421,3739280,Longview,NC,P1,37035,35.7292987,-81.383421
1027422,3740600,Maggie Valley,NC,P1,37087,35.5181575,-83.0976419
1027423,3741720,Marvin,NC,P1,37179,34.9918154,-80.814794
1027429,3743860,Momeyer,NC,P1,37127,35.9612646,-78.0569327
1027435,3747860,Northwest,NC,P1,37019,34.3129464,-78.1611077
1027457,3759540,Sawmills,NC,P1,37027,35.8248535,-81.4745366
1027472,3767720,Tobaccoville,NC,P1,37067,36.2381942,-80.3714421
1027480,3773760,Whitsett,NC,P1,37081,36.0712466,-79.5644686
1027611,3727870,Green Level,NC,P1,37001,36.1209704,-79.3441861
1027618,3717325,Dobbins Heights,NC,P1,37153,34.9048772,-79.6922771
1027620,3724570,Foxfire,NC,P1,37125,35.1754312,-79.5714258
1027621,3709530,Cajahs Mountain,NC,P1,37027,35.834853,-81.5414835
1027622,3703150,Bald Head Island,NC,P1,37019,33.8618418,-77.9944332
1027624,3765530,Sugar Mountain,NC,P1,37011,36.127349,-81.8601122
1027625,3747845,North Topsail Beach,NC,P1,37133,34.4901665,-77.43163
1027626,3736512,Lake Park,NC,P1,37179,35.0862583,-80.6350681
1027647,3800100,Abercrombie,ND,P1,38077,46.4477384,-96.7303557
1027651,3800340,Adams,ND,P1,38099,48.4213852,-98.0789893
1027663,3800940,Alamo,ND,P1,38105,48.5816949,-103.4699122
1027669,3801420,Alice,ND,P1,38017,46.7619199,-97.5559299
1027687,3801700,Almont,ND,P1,38059,46.7252795,-101.5026443
1027688,3801740,Alsen,ND,P1,38019,48.6305626,-98.7048488
1027690,3801860,Ambrose,ND,P1,38023,48.9539222,-103.4826921
1027695,3801940,Amenia,ND,P1,38017,47.0049744,-97.2189763
1027700,3802220,Anamoose,ND,P1,38049,47.8825008,-100.241246
1027704,3802380,Aneta,ND,P1,38063,47.6794377,-97.9881509
1027718,3802660,Antler,ND,P1,38009,48.9708532,-101.2823803
1027725,3802860,Ardoch,ND,P1,38099,48.2072096,-97.3422986
1027730,3803020,Argusville,ND,P1,38017,47.0521927,-96.9345275
1027736,3803220,Arnegard,ND,P1,38053,47.8077966,-103.4410273
1027745,3803300,Arthur,ND,P1,38017,47.1041435,-97.2181431
1027755,3803540,Ashley,ND,P1,38051,46.0341408,-99.3715033
1027775,3804020,Ayr,ND,P1,38017,47.0410893,-97.4906456
1027800,3804460,Balfour,ND,P1,38049,47.9516711,-100.5345865
1027801,3804580,Balta,ND,P1,38069,48.1666684,-100.0370779
1027828,3805260,Bathgate,ND,P1,38067,48.8772124,-97.4761908
1027837,3805420,Beach,ND,P1,38033,46.9180689,-104.0043728
1027885,3805980,Benedict,ND,P1,38055,47.8302812,-101.0823744
1027898,3806180,Bergen,ND,P1,38049,48.0016737,-100.7145903
1027915,3806460,Berthold,ND,P1,38101,48.313069,-101.7371077
1027971,3806660,Beulah,ND,P1,38057,47.2633403,-101.7779462
1028008,3807020,Binford,ND,P1,38039,47.5619407,-98.3450977
1028012,3807180,Bisbee,ND,P1,38095,48.6258358,-99.3779181
1028083,3808460,Bottineau,ND,P1,38009,48.8272301,-100.4456984
1028092,3808500,Bowbells,ND,P1,38013,48.8030833,-102.2460008
1028094,3808580,Bowdon,ND,P1,38103,47.4697217,-99.7078981
1028099,3808700,Bowman,ND,P1,38011,46.1830618,-103.3949061
1028108,3808900,Braddock,ND,P1,38029,46.5644311,-100.0909421
1028134,3809460,Brinsmade,ND,P1,38005,48.1824994,-99.3240238
1028140,3809700,Brocket,ND,P1,38071,48.2130558,-98.3570499
1028167,3810060,Buchanan,ND,P1,38093,47.0624924,-98.8289956
1028170,3810300,Bucyrus,ND,P1,38001,46.0638952,-102.7882137
1028172,3810420,Buffalo,ND,P1,38017,46.9196986,-97.5495386
1028221,3811340,Buxton,ND,P1,38097,47.601924,-97.0973081
1028233,3811580,Calio,ND,P1,38019,48.6311182,-98.9329109
1028245,3811700,Calvin,ND,P1,38019,48.8525068,-98.9354078
1028267,3811860,Cando,ND,P1,38095,48.4866682,-99.2098593
1028284,3812260,Carpio,ND,P1,38101,48.4425171,-101.7146064
1028287,3812340,Carrington,ND,P1,38031,47.4497201,-99.1262234
1028290,3812460,Carson,ND,P1,38037,46.4177836,-101.5648653
1028294,3812700,Casselton,ND,P1,38017,46.9005292,-97.2111999
1028299,3812820,Cathay,ND,P1,38103,47.5533328,-99.4090075
1028302,3812940,Cavalier,ND,P1,38067,48.7938814,-97.6223098
1028306,3813020,Cayuga,ND,P1,38081,46.0741286,-97.3842601
1028320,3813180,Center,ND,P1,38065,47.1163849,-101.2995941
1028370,3814100,Christine,ND,P1,38077,46.5735737,-96.8017479
1028392,3814660,Cleveland,ND,P1,38093,46.8916539,-99.1178887
1028396,3814740,Clifford,ND,P1,38097,47.3480408,-97.4106449
1028415,3815100,Cogswell,ND,P1,38081,46.10691,-97.7820446
1028419,3815140,Coleharbor,ND,P1,38055,47.5441651,-101.2237662
1028421,3815180,Colfax,ND,P1,38077,46.4694065,-96.8745267
1028426,3815460,Columbus,ND,P1,38013,48.9041993,-102.7804533
1028443,3815820,Conway,ND,P1,38099,48.2383254,-97.6750855
1028450,3815900,Cooperstown,ND,P1,38039,47.4444384,-98.1239843
1028517,3816380,Courtenay,ND,P1,38093,47.2222163,-98.5664877
1028528,3816580,Crary,ND,P1,38071,48.0708347,-98.6384434
1028544,3816940,Crosby,ND,P1,38023,48.9141998,-103.2949095
1028559,3817060,Crystal,ND,P1,38067,48.5969371,-97.6695334
1028615,3818180,Davenport,ND,P1,38017,46.7141358,-97.0700892
1028621,3818260,Dawson,ND,P1,38043,46.8685954,-99.751495
1028623,3818340,Dazey,ND,P1,38003,47.1905449,-98.2017618
1028651,3818620,Deering,ND,P1,38049,48.3955721,-101.0518201
1028663,3819300,Des Lacs,ND,P1,38101,48.257788,-101.5634984
1028672,3890836,Devils Lake,ND,P1,38071,48.1122482,-98.876031
1028683,3819620,Dickinson,ND,P1,38089,46.8791756,-102.7896242
1028693,3819820,Dodge,ND,P1,38025,47.30612,-102.2043423
1028703,3819900,Donnybrook,ND,P1,38101,48.509465,-101.8851618
1028705,3820020,Douglas,ND,P1,38101,47.8572261,-101.5029412
1028721,3820300,Drake,ND,P1,38049,47.9241692,-100.3723605
1028722,3820340,Drayton,ND,P1,38067,48.5710958,-97.1778485
1028746,3820940,Dunn Center,ND,P1,38025,47.3536235,-102.620462
1028750,3821020,Dunseith,ND,P1,38079,48.8130569,-100.0609678
1028755,3821220,Dwight,ND,P1,38077,46.3041254,-96.7381329
1028809,3822260,Edinburg,ND,P1,38099,48.4966607,-97.8620378
1028811,3822340,Edmore,ND,P1,38071,48.4133374,-98.4542795
1028818,3822540,Egeland,ND,P1,38095,48.6263945,-99.0973586
1028844,3823020,Elgin,ND,P1,38037,46.4038957,-101.8459791
1028850,3823220,Ellendale,ND,P1,38021,46.0027502,-98.5270458
1028852,3823340,Elliott,ND,P1,38073,46.4021898,-97.8148228
1028876,3824060,Emerado,ND,P1,38035,47.918875,-97.3650837
1028896,3824540,Epping,ND,P1,38105,48.2791887,-103.3571326
1028907,3824780,Esmond,ND,P1,38005,48.0358398,-99.7620743
1028922,3825180,Fairdale,ND,P1,38099,48.4908325,-98.2312186
1028925,3825300,Fairmount,ND,P1,38077,46.0549591,-96.6022941
1028945,3825700,Fargo,ND,P1,38017,46.8771863,-96.7898034
1028952,3826180,Fessenden,ND,P1,38103,47.6491683,-99.629289
1028958,3826380,Fingal,ND,P1,38003,46.7605329,-97.7903815
1028959,3826420,Finley,ND,P1,38091,47.5141578,-97.8359252
1028981,3826660,Flasher,ND,P1,38059,46.4561128,-101.2326433
1028986,3826700,Flaxton,ND,P1,38013,48.8986389,-102.3923913
1028998,3826980,Forbes,ND,P1,38021,45.9435847,-98.7820478
1029001,3827060,Fordville,ND,P1,38099,48.2174934,-97.7906451
1029002,3827100,Forest River,ND,P1,38099,48.2152672,-97.4681352
1029006,3827260,Forman,ND,P1,38081,46.1077418,-97.6364861
1029016,3827580,Fort Ransom,ND,P1,38073,46.5208041,-97.9262128
1029027,3827860,Fort Yates,ND,P1,38085,46.0869408,-100.6301271
1029028,3827820,Fortuna,ND,P1,38023,48.9100315,-103.7793697
1029046,3828380,Fredonia,ND,P1,38047,46.3288597,-99.0956648
1029067,3828780,Fullerton,ND,P1,38021,46.1652468,-98.4270443
1029070,3828860,Gackle,ND,P1,38047,46.6258113,-99.1420541
1029074,3828980,Galesburg,ND,P1,38097,47.2699845,-97.4064772
1029080,3829180,Gardena,ND,P1,38009,48.700837,-100.4976393
1029081,3829220,Gardner,ND,P1,38017,47.1471966,-96.9678613
1029083,3829460,Garrison,ND,P1,38055,47.6522225,-101.4157165
1029089,3829540,Gascoyne,ND,P1,38011,46.1183391,-103.0798921
1029123,3830180,Gilby,ND,P1,38035,48.0852671,-97.4706383
1029130,3830460,Gladstone,ND,P1,38089,46.8608403,-102.5679579
1029133,3830860,Glen Ullin,ND,P1,38059,46.8150051,-101.829877
1029134,3830580,Glenburn,ND,P1,38075,48.5130744,-101.2207138
1029138,3830660,Glenfield,ND,P1,38031,47.4533296,-98.5673223
1029155,3831180,Golden Valley,ND,P1,38057,47.2908418,-102.0646172
1029163,3831500,Goodrich,ND,P1,38083,47.4749954,-100.1262353
1029191,3831740,Grace City,ND,P1,38031,47.5513859,-98.8053836
1029194,3831820,Grafton,ND,P1,38099,48.4122108,-97.410634
1029197,3832060,Grand Forks,ND,P1,38035,47.9252568,-97.0328547
1029206,3832300,Grandin,ND,P1,38017,47.2369226,-97.001473
1029212,3832580,Grano,ND,P1,38075,48.6150203,-101.5865506
1029218,3832660,Granville,ND,P1,38049,48.2677874,-100.8426438
1029232,3832900,Great Bend,ND,P1,38077,46.1538473,-96.8020228
1029242,3833500,Grenora,ND,P1,38105,48.6183606,-103.9379866
1029264,3834020,Gwinner,ND,P1,38081,46.2257963,-97.6625959
1029281,3834340,Halliday,ND,P1,38025,47.3544535,-102.3360118
1029287,3834460,Hamberg,ND,P1,38103,47.7630597,-99.51457
1029289,3834620,Hamilton,ND,P1,38067,48.8086008,-97.4528587
1029294,3834860,Hampden,ND,P1,38071,48.5402849,-98.6542903
1029301,3835020,Hannaford,ND,P1,38039,47.3133252,-98.1864847
1029303,3835060,Hannah,ND,P1,38019,48.9716708,-98.6917884
1029307,3835140,Hansboro,ND,P1,38095,48.9500078,-99.3829145
1029328,3835900,Harvey,ND,P1,38103,47.769723,-99.935404
1029332,3835940,Harwood,ND,P1,38017,46.9794115,-96.8806377
1029336,3836100,Hatton,ND,P1,38097,47.6397087,-97.4534224
1029338,3836140,Havana,ND,P1,38081,45.95024,-97.618988
1029356,3836540,Haynes,ND,P1,38001,45.9741705,-102.4709914
1029360,3836700,Hazelton,ND,P1,38029,46.4847126,-100.2795573
1029361,3836780,Hazen,ND,P1,38057,47.2944481,-101.622665
1029380,3836860,Hebron,ND,P1,38059,46.9005626,-102.0454416
1029423,3837700,Hettinger,ND,P1,38001,46.0013946,-102.6368239
1029457,3838100,Hillsboro,ND,P1,38097,47.4038683,-97.0620308
1029523,3838780,Hoople,ND,P1,38099,48.5347143,-97.6348091
1029526,3838860,Hope,ND,P1,38091,47.3222102,-97.7223196
1029530,3838900,Horace,ND,P1,38017,46.7588553,-96.9036971
1029577,3839460,Hunter,ND,P1,38017,47.1905344,-97.2170321
1029579,3839580,Hurdsfield,ND,P1,38103,47.4483295,-99.9284546
1029619,3839980,Inkster,ND,P1,38035,48.1513804,-97.6442523
1029648,3840580,Jamestown,ND,P1,38093,46.9105438,-98.7084357
1029714,3841380,Karlsruhe,ND,P1,38049,48.0900056,-100.6204201
1029718,3841500,Kathryn,ND,P1,38003,46.6780313,-97.968712
1029729,3842020,Kenmare,ND,P1,38101,48.6747476,-102.0826636
1029731,3842180,Kensal,ND,P1,38093,47.3008296,-98.7334377
1029735,3842660,Kief,ND,P1,38049,47.8575023,-100.5115274
1029739,3842700,Killdeer,ND,P1,38025,47.3719582,-102.7540751
1029743,3842780,Kindred,ND,P1,38017,46.6485779,-97.0170323
1029759,3843260,Knox,ND,P1,38005,48.3402764,-99.690413
1029774,3843500,Kramer,ND,P1,38009,48.690565,-100.7068093
1029820,3844300,Lakota,ND,P1,38063,48.0427767,-98.3362149
1029823,3844700,Landa,ND,P1,38009,48.8966855,-100.9118208
1029827,3844780,Langdon,ND,P1,38019,48.7600007,-98.3681728
1029832,3844860,Lankin,ND,P1,38099,48.311106,-97.9250945
1029833,3844900,Lansford,ND,P1,38009,48.628909,-101.3757158
1029836,3845020,Larimore,ND,P1,38035,47.9066569,-97.6267539
1029847,3845300,Lawton,ND,P1,38071,48.3027789,-98.3692741
1029852,3845460,Leal,ND,P1,38003,47.1052665,-98.3173158
1029856,3845580,Leeds,ND,P1,38005,48.2888882,-99.4376352
1029862,3845860,Leith,ND,P1,38037,46.3583395,-101.6365298
1029864,3845980,Leonard,ND,P1,38017,46.6519149,-97.2456467
1029882,3846460,Lidgerwood,ND,P1,38077,46.0755158,-97.1517554
1029886,3846540,Lignite,ND,P1,38013,48.8775322,-102.5629488
1029917,3846980,Linton,ND,P1,38029,46.2666567,-100.2328916
1029920,3847100,Lisbon,ND,P1,38073,46.4416344,-97.6812096
1029921,3847140,Litchville,ND,P1,38003,46.6535903,-98.1942616
1029963,3847660,Loma,ND,P1,38019,48.6302832,-98.5328984
1030017,3848020,Loraine,ND,P1,38075,48.8655766,-101.5679389
1030039,3848460,Ludden,ND,P1,38021,46.0085815,-98.1253803
1030048,3848580,Luverne,ND,P1,38091,47.2510998,-97.9348215
1030069,3849820,Makoti,ND,P1,38101,47.9611214,-101.8046105
1030076,3849900,Mandan,ND,P1,38059,46.8266603,-100.8895762
1030090,3850420,Manvel,ND,P1,38035,48.0777615,-97.176465
1030095,3850580,Mapleton,ND,P1,38017,46.8891375,-97.0525872
1030105,3851060,Martin,ND,P1,38083,47.8266671,-100.1151307
1030122,3851380,Max,ND,P1,38055,47.8211141,-101.2987702
1030123,3851420,Maxbass,ND,P1,38009,48.7216878,-101.1415464
1030125,3851500,Mayville,ND,P1,38097,47.4980408,-97.3245354
1030134,3849020,McClusky,ND,P1,38083,47.4858309,-100.4431839
1030147,3849260,McHenry,ND,P1,38031,47.576108,-98.5914904
1030165,3849580,McVille,ND,P1,38063,47.7638843,-98.1773206
1030183,3851860,Medina,ND,P1,38093,46.8938758,-99.2998334
1030203,3852340,Mercer,ND,P1,38055,47.4905538,-100.7109688
1030235,3853020,Milton,ND,P1,38019,48.6263838,-98.0426017
1030249,3853380,Minot,ND,P1,38101,48.2325095,-101.2962732
1030252,3853540,Minto,ND,P1,38099,48.2916547,-97.3714652
1030268,3853780,Mohall,ND,P1,38075,48.7633556,-101.5132169
1030270,3853820,Monango,ND,P1,38021,46.1727475,-98.5945448
1030274,3853980,Montpelier,ND,P1,38093,46.7002601,-98.5900955
1030281,3854220,Mooreton,ND,P1,38077,46.26857,-96.8761923
1030299,3854620,Mott,ND,P1,38041,46.3725031,-102.3271061
1030309,3854740,Mountain,ND,P1,38067,48.6877719,-97.8650966
1030338,3855020,Munich,ND,P1,38019,48.669174,-98.8326307
1030349,3855220,Mylo,ND,P1,38079,48.6352785,-99.6187555
1030352,3855420,Napoleon,ND,P1,38047,46.5083133,-99.7712195
1030364,3855620,Neche,ND,P1,38067,48.9861027,-97.5548
1030368,3855740,Nekoma,ND,P1,38019,48.5772245,-98.370392
1030383,3856180,New England,ND,P1,38041,46.5391751,-102.8682231
1030394,3856420,New Leipzig,ND,P1,38037,46.3761171,-101.9398717
1030398,3856620,New Rockford,ND,P1,38027,47.6799985,-99.1378952
1030399,3856700,New Salem,ND,P1,38059,46.844999,-101.4112545
1030400,3856740,New Town,ND,P1,38061,47.9808483,-102.4901804
1030402,3856020,Newburg,ND,P1,38009,48.7150177,-100.9129293
1030403,3856780,Niagara,ND,P1,38035,47.996382,-97.8703719
1030421,3857180,Nome,ND,P1,38003,46.6777529,-97.8103807
1030422,3857220,Noonan,ND,P1,38023,48.8889194,-103.0087936
1030496,3858300,Northwood,ND,P1,38035,47.7341547,-97.5667543
1030535,3858740,Oakes,ND,P1,38021,46.1385787,-98.0903794
1030542,3859020,Oberon,ND,P1,38005,47.923055,-99.2040184
1030575,3859660,Oriska,ND,P1,38003,46.9305334,-97.7889918
1030583,3860100,Osnabrock,ND,P1,38019,48.6688857,-98.1512186
1030610,3860380,Overly,ND,P1,38009,48.6819437,-100.150136
1030614,3860500,Page,ND,P1,38017,47.1597055,-97.5712038
1030621,3860620,Palermo,ND,P1,38061,48.3397413,-102.2290557
1030633,3860900,Park River,ND,P1,38099,48.3986043,-97.7411999
1030639,3860940,Parshall,ND,P1,38061,47.9533459,-102.1348915
1030658,3861460,Pekin,ND,P1,38063,47.7908303,-98.3281559
1030666,3861580,Pembina,ND,P1,38067,48.9663766,-97.2436761
1030677,3861780,Perth,ND,P1,38095,48.7163932,-99.4579209
1030683,3861860,Petersburg,ND,P1,38063,48.0111053,-98.0014885
1030695,3862060,Pettibone,ND,P1,38043,47.1191585,-99.5195561
1030702,3862260,Pick City,ND,P1,38057,47.5113887,-101.4537737
1030713,3862540,Pillsbury,ND,P1,38003,47.2069306,-97.7906569
1030715,3862620,Pingree,ND,P1,38093,47.163328,-98.9070537
1030730,3862780,Pisek,ND,P1,38099,48.3108259,-97.7092537
1030743,3862980,Plaza,ND,P1,38061,48.0258461,-101.9610003
1030785,3863740,Portal,ND,P1,38013,48.9958637,-102.5496127
1030786,3863900,Portland,ND,P1,38097,47.4983191,-97.3703689
1030794,3864140,Powers Lake,ND,P1,38013,48.5628042,-102.6479573
1030849,3865580,Ray,ND,P1,38105,48.3444663,-103.1651845
1030866,3865900,Reeder,ND,P1,38001,46.1058393,-102.9454423
1030875,3865980,Regan,ND,P1,38015,47.1580494,-100.528177
1030876,3866020,Regent,ND,P1,38041,46.4216712,-102.555719
1030889,3866260,Reynolds,ND,P1,38097,47.6722013,-97.1067515
1030890,3866300,Rhame,ND,P1,38011,46.2325063,-103.6554735
1030900,3866500,Richardton,ND,P1,38089,46.8838957,-102.3157292
1030914,3866980,Riverdale,ND,P1,38055,47.497499,-101.371271
1030936,3867180,Robinson,ND,P1,38043,47.1427682,-99.7812206
1030954,3867620,Rogers,ND,P1,38003,47.0727638,-98.1995384
1030956,3867780,Rolette,ND,P1,38079,48.6608328,-99.841533
1030958,3867820,Rolla,ND,P1,38079,48.8577837,-99.6179216
1031006,3868540,Ross,ND,P1,38061,48.3111302,-102.5465682
1031031,3868860,Rugby,ND,P1,38069,48.3688876,-99.9962463
1031045,3869140,Ruso,ND,P1,38055,47.8383369,-100.9334809
1031055,3869340,Rutland,ND,P1,38081,46.0530186,-97.5089843
1031059,3869460,Ryder,ND,P1,38101,47.9175076,-101.677943
1031147,3869980,Saint John,ND,P1,38079,48.9444517,-99.7109743
1031303,3870260,Saint Thomas,ND,P1,38067,48.619156,-97.4464703
1031334,3870380,Sanborn,ND,P1,38003,46.9422066,-98.2242589
1031357,3870780,Sarles,ND,P1,38019,48.94584,-98.995961
1031363,3870980,Sawyer,ND,P1,38101,48.0897318,-101.0537653
1032008,3871500,Scranton,ND,P1,38011,46.1480618,-103.1429501
1032015,3871660,Selfridge,ND,P1,38085,46.0413892,-100.9251297
1032020,3871780,Sentinel Butte,ND,P1,38033,46.9183469,-103.8388108
1032036,3871940,Sharon,ND,P1,38091,47.5972143,-97.8939815
1032053,3872540,Sherwood,ND,P1,38075,48.9600187,-101.632661
1032055,3872580,Sheyenne,ND,P1,38027,47.8280543,-99.120122
1032073,3872820,Sibley,ND,P1,38003,47.2172099,-97.9645436
1032166,3873820,Solen,ND,P1,38085,46.3888848,-100.7984628
1032174,3874020,Souris,ND,P1,38009,48.9097383,-100.6815394
1032192,3874185,South Heart,ND,P1,38089,46.8647341,-102.9915668
1032222,3874780,Spring Brook,ND,P1,38105,48.2525229,-103.4588015
1032284,3875380,Stanley,ND,P1,38061,48.3172413,-102.3904515
1032286,3875420,Stanton,ND,P1,38057,47.3211099,-101.3815477
1032289,3875580,Starkweather,ND,P1,38071,48.4519507,-98.8837411
1032298,3875780,Steele,ND,P1,38043,46.8547065,-99.9159381
1032357,3876500,Strasburg,ND,P1,38029,46.133601,-100.1615042
1032372,3876620,Streeter,ND,P1,38093,46.655257,-99.3539989
1032399,3877180,Surrey,ND,P1,38101,48.2364001,-101.1334901
1032426,3877660,Sykeston,ND,P1,38103,47.4649985,-99.3995611
1032435,3877980,Tappen,ND,P1,38043,46.8749848,-99.6364965
1032444,3878180,Taylor,ND,P1,38089,46.9005624,-102.4251785
1032471,3878660,Thompson,ND,P1,38035,47.7735899,-97.109805
1032490,3878940,Tioga,ND,P1,38105,48.3972443,-102.938238
1032496,3879140,Tolley,ND,P1,38075,48.7289124,-101.8273851
1032497,3879180,Tolna,ND,P1,38063,47.8272203,-98.4401019
1032511,3879420,Towner,ND,P1,38049,48.3458325,-100.4054123
1032552,3879940,Turtle Lake,ND,P1,38055,47.519998,-100.8901427
1032557,3880140,Tuttle,ND,P1,38043,47.1435993,-99.9945518
1032588,3880660,Underwood,ND,P1,38055,47.4563859,-101.137096
1032608,3880860,Upham,ND,P1,38049,48.5816728,-100.7281937
1032618,3881180,Valley City,ND,P1,38003,46.9233129,-98.0031547
1032637,3881620,Velva,ND,P1,38049,48.0561196,-100.929317
1032638,3881700,Venturia,ND,P1,38051,45.9985882,-99.5462279
1032653,3882380,Voltaire,ND,P1,38049,48.0205632,-100.8415372
1032663,3882780,Walcott,ND,P1,38077,46.5488528,-96.9367514
1032665,3882940,Wales,ND,P1,38019,48.8958373,-98.6026208
1032666,3882980,Walhalla,ND,P1,38067,48.9233284,-97.9181477
1032688,3883580,Warwick,ND,P1,38005,47.8549986,-98.7101069
1032690,3883700,Washburn,ND,P1,38055,47.28916,-101.0290346
1032701,3883860,Watford City,ND,P1,38053,47.8022412,-103.2832467
1032733,3884780,West Fargo,ND,P1,38017,46.8749671,-96.900362
1032755,3885020,Westhope,ND,P1,38009,48.9094642,-101.0207117
1032777,3885540,White Earth,ND,P1,38061,48.380576,-102.7732376
1032808,3886020,Wildrose,ND,P1,38105,48.6305843,-103.1843507
1032815,3886220,Williston,ND,P1,38105,48.1469683,-103.6179745
1032818,3886380,Willow City,ND,P1,38009,48.6044426,-100.2943011
1032841,3886620,Wimbledon,ND,P1,38003,47.1697143,-98.4598177
1032845,3886780,Wing,ND,P1,38015,47.1408239,-100.2790017
1032855,3887020,Wishek,ND,P1,38051,46.2569184,-99.5570567
1032872,3887180,Wolford,ND,P1,38069,48.4986072,-99.7043077
1032885,3887580,Woodworth,ND,P1,38093,47.1424948,-99.303169
1032894,3887860,York,ND,P1,38005,48.3127771,-99.5734685
1032903,3888140,Zap,ND,P1,38057,47.2863966,-101.9226704
1032905,3888180,Zeeland,ND,P1,38051,45.9699842,-99.8306727
1033621,3882660,Wahpeton,ND,P1,38077,46.2652367,-96.6059072
1033627,3806300,Berlin,ND,P1,38045,46.3785823,-98.4898183
1033635,3819580,Dickey,ND,P1,38045,46.5369203,-98.4678716
1033639,3822140,Edgeley,ND,P1,38045,46.3591377,-98.7156564
1033647,3841180,Jud,ND,P1,38045,46.5260853,-98.8956607
1033648,3843580,Kulm,ND,P1,38045,46.3019144,-98.9481624
1033650,3844540,LaMoure,ND,P1,38045,46.3571915,-98.2945434
1033654,3850780,Marion,ND,P1,38045,46.6072008,-98.3323162
1033683,3881900,Verona,ND,P1,38045,46.3638572,-98.0723229
1033709,3801760480,City of Oxbow,ND,C5,38017,46.6628599,-96.81097
1034197,3853220,Minnewaukan,ND,P1,38005,48.071388,-99.2523572
1034679,3801180,Alexander,ND,P1,38053,47.8430756,-103.642698
1034682,3802060,Amidon,ND,P1,38087,46.4822327,-103.3218466
1034713,3805820,Belfield,ND,P1,38089,46.8852906,-103.1996219
1034752,3810940,Burlington,ND,P1,38101,48.2752881,-101.4287751
1034887,3831420,Golva,ND,P1,38033,46.7341788,-103.9863168
1034907,3834900,Hankinson,ND,P1,38077,46.069681,-96.9017476
1034993,3850380,Mantador,ND,P1,38077,46.1652369,-96.9773059
1034994,3850860,Marmarth,ND,P1,38087,46.2950062,-103.9207615
1035000,3851900,Medora,ND,P1,38007,46.9139028,-103.5243536
1035008,3852940,Milnor,ND,P1,38081,46.2591278,-97.4562022
1035145,3872180,Sheldon,ND,P1,38073,46.5858041,-97.4912041
1035254,3887740,Wyndmere,ND,P1,38077,46.2666272,-97.1323098
1035603,3834180,Hague,ND,P1,38029,46.0285994,-99.9956683
1035606,3849620,Maddock,ND,P1,38005,47.9625088,-99.530133
1035849,3807200,Bismarck,ND,P1,38015,46.8083268,-100.7837392
1035851,3804940,Barney,ND,P1,38077,46.2671819,-97.0006405
1035868,3846640,Lincoln,ND,P1,38015,46.7624938,-100.7004025
1035900,3807700100,City of Abercrombie,ND,C5,38077,46.4470392,-96.7295247
1035901,3809900340,City of Adams,ND,C5,38099,48.42015,-98.0736643
1035902,3810500940,City of Alamo,ND,C5,38105,48.5824502,-103.4675529
1035903,3805301180,City of Alexander,ND,C5,38053,47.8393187,-103.642574
1035904,3801701420,City of Alice,ND,C5,38017,46.7600458,-97.5562481
1035905,3805901700,City of Almont,ND,C5,38059,46.7283354,-101.502652
1035906,3801901740,City of Alsen,ND,C5,38019,48.6303048,-98.7048318
1035907,3802301860,City of Ambrose,ND,C5,38023,48.9559022,-103.4812551
1035908,3801701940,City of Amenia,ND,C5,38017,47.0064845,-97.2241043
1035909,3808702060,City of Amidon,ND,C5,38087,46.4822472,-103.319601
1035910,3804902220,City of Anamoose,ND,C5,38049,47.8828042,-100.2420079
1035911,3806302380,City of Aneta,ND,C5,38063,47.6795345,-97.9897231
1035912,3800902660,City of Antler,ND,C5,38009,48.9713187,-101.283164
1035913,3809902860,City of Ardoch,ND,C5,38099,48.2054463,-97.338033
1035914,3801703020,City of Argusville,ND,C5,38017,47.0500684,-96.9431407
1035915,3805303220,City of Arnegard,ND,C5,38053,47.808406,-103.442573
1035916,3801703300,City of Arthur,ND,C5,38017,47.1042681,-97.2183547
1035917,3805103540,City of Ashley,ND,C5,38051,46.034744,-99.3736771
1035918,3801704020,City of Ayr,ND,C5,38017,47.0411071,-97.4909324
1035919,3804904460,City of Balfour,ND,C5,38049,47.9509079,-100.5342567
1035920,3806904580,City of Balta,ND,C5,38069,48.1665915,-100.0368886
1035922,3807704940,City of Barney,ND,C5,38077,46.2658437,-96.9988342
1035924,3806705260,City of Bathgate,ND,C5,38067,48.8804113,-97.4738617
1035925,3803305420,City of Beach,ND,C5,38033,46.9188827,-104.0055058
1035926,3808905820,City of Belfield,ND,C5,38089,46.8862173,-103.1955695
1035927,3805505980,City of Benedict,ND,C5,38055,47.8301324,-101.084323
1035928,3804906180,City of Bergen,ND,C5,38049,48.0037236,-100.7198933
1035929,3804506300,City of Berlin,ND,C5,38045,46.3783728,-98.4884467
1035930,3810106460,City of Berthold,ND,C5,38101,48.3164841,-101.7590223
1035931,3805706660,City of Beulah,ND,C5,38057,47.2665576,-101.7734119
1035932,3803907020,City of Binford,ND,C5,38039,47.5604243,-98.345628
1035933,3809507180,City of Bisbee,ND,C5,38095,48.6272099,-99.3787732
1035934,3801507200,City of Bismarck,ND,C5,38015,46.8142737,-100.7694052
1035936,3800908460,City of Bottineau,ND,C5,38009,48.8247992,-100.4425225
1035937,3801308500,City of Bowbells,ND,C5,38013,48.8026545,-102.2456333
1035938,3810308580,City of Bowdon,ND,C5,38103,47.4685144,-99.7088678
1035939,3801108700,City of Bowman,ND,C5,38011,46.1843237,-103.402946
1035940,3802908900,City of Braddock,ND,C5,38029,46.5639779,-100.0896392
1035941,3801709320,City of Briarwood,ND,C5,38017,46.787002,-96.7947706
1035942,3800509460,City of Brinsmade,ND,C5,38005,48.1839787,-99.3236392
1035943,3807109700,City of Brocket,ND,C5,38071,48.2106881,-98.3555564
1035944,3809310060,City of Buchanan,ND,C5,38093,47.0625991,-98.8290177
1035945,3800110300,City of Bucyrus,ND,C5,38001,46.0645703,-102.7883168
1035946,3801710420,City of Buffalo,ND,C5,38017,46.9192597,-97.5506192
1035947,3810110940,City of Burlington,ND,C5,38101,48.2571768,-101.414555
1035949,3809711340,City of Buxton,ND,C5,38097,47.6020651,-97.0975194
1035950,3801911580,City of Calio,ND,C5,38019,48.6237655,-98.9379614
1035951,3801911700,City of Calvin,ND,C5,38019,48.8518489,-98.9380212
1035952,3809511860,City of Cando,ND,C5,38095,48.4872211,-99.2024713
1035953,3806712060,City of Canton City,ND,C5,38067,48.6880338,-97.666135
1035954,3810112260,City of Carpio,ND,C5,38101,48.4434447,-101.7163169
1035955,3803112340,City of Carrington,ND,C5,38031,47.4519599,-99.130633
1035956,3803712460,City of Carson,ND,C5,38037,46.4223079,-101.5706178
1035957,3801712700,City of Casselton,ND,C5,38017,46.8972355,-97.2128936
1035958,3810312820,City of Cathay,ND,C5,38103,47.5540826,-99.4106832
1035959,3806712940,City of Cavalier,ND,C5,38067,48.7940193,-97.6226473
1035960,3808113020,City of Cayuga,ND,C5,38081,46.0760603,-97.3845155
1035961,3806513180,City of Center,ND,C5,38065,47.1149312,-101.2976762
1035969,3807714100,City of Christine,ND,C5,38077,46.5751493,-96.806637
1035971,3809314660,City of Cleveland,ND,C5,38093,46.891027,-99.1195616
1035972,3809714740,City of Clifford,ND,C5,38097,47.3482002,-97.4100937
1035973,3808115100,City of Cogswell,ND,C5,38081,46.1069675,-97.7842304
1035974,3805515140,City of Coleharbor,ND,C5,38055,47.5425331,-101.2213654
1035975,3807715180,City of Colfax,ND,C5,38077,46.4709441,-96.8724566
1035976,3801315460,City of Columbus,ND,C5,38013,48.9049819,-102.7811759
1035977,3809915820,City of Conway,ND,C5,38099,48.2342794,-97.6750879
1035978,3803915900,City of Cooperstown,ND,C5,38039,47.4448946,-98.1256252
1035979,3809316380,City of Courtenay,ND,C5,38093,47.2241365,-98.5684916
1035980,3807116580,City of Crary,ND,C5,38071,48.0716377,-98.6384295
1035981,3802316940,City of Crosby,ND,C5,38023,48.916168,-103.2966228
1035982,3806717060,City of Crystal,ND,C5,38067,48.5980988,-97.668578
1035983,3801718180,City of Davenport,ND,C5,38017,46.7148107,-97.0656821
1035984,3804318260,City of Dawson,ND,C5,38043,46.8679392,-99.7536196
1035985,3800318340,City of Dazey,ND,C5,38003,47.1883509,-98.2007022
1035987,3804918620,City of Deering,ND,C5,38049,48.3958314,-101.0498423
1035988,3810119300,City of Des Lacs,ND,C5,38101,48.2563909,-101.5636043
1035989,3807119420,City of Devils Lake,ND,C5,38071,48.1130786,-98.8747924
1035990,3804519580,City of Dickey,ND,C5,38045,46.5368012,-98.4680917
1035991,3808919620,City of Dickinson,ND,C5,38089,46.8905288,-102.7925566
1035994,3802519820,City of Dodge,ND,C5,38025,47.3056724,-102.2029358
1035995,3810119900,City of Donnybrook,ND,C5,38101,48.507731,-101.8870544
1035996,3810120020,City of Douglas,ND,C5,38101,47.8580091,-101.5018634
1035997,3804920300,City of Drake,ND,C5,38049,47.9225732,-100.3745433
1035998,3806720340,City of Drayton,ND,C5,38067,48.5620608,-97.1794957
1035999,3802520940,City of Dunn Center,ND,C5,38025,47.3526433,-102.6233705
1036000,3807921020,City of Dunseith,ND,C5,38079,48.813033,-100.062233
1036001,3807721220,City of Dwight,ND,C5,38077,46.303953,-96.7401433
1036016,3804522140,City of Edgeley,ND,C5,38045,46.3624398,-98.7125969
1036017,3809922260,City of Edinburg,ND,C5,38099,48.4955016,-97.8629678
1036018,3807122340,City of Edmore,ND,C5,38071,48.4124377,-98.4536455
1036019,3809522540,City of Egeland,ND,C5,38095,48.6281131,-99.0979598
1036020,3803723020,City of Elgin,ND,C5,38037,46.4014988,-101.847373
1036021,3802123220,City of Ellendale,ND,C5,38021,46.0043548,-98.5253539
1036022,3807323340,City of Elliott,ND,C5,38073,46.4022684,-97.8148799
1036023,3803524060,City of Emerado,ND,C5,38035,47.9302011,-97.3616287
1036024,3807324260,City of Enderlin,ND,C5,38073,46.6214996,-97.5955837
1036025,3810524540,City of Epping,ND,C5,38105,48.2816511,-103.35784
1036027,3800524780,City of Esmond,ND,C5,38005,48.0330958,-99.7647598
1036028,3809925180,City of Fairdale,ND,C5,38099,48.4900368,-98.2312236
1036029,3807725300,City of Fairmount,ND,C5,38077,46.054695,-96.6029073
1036030,3801725700,City of Fargo,ND,C5,38017,46.8644288,-96.8293884
1036031,3810326180,City of Fessenden,ND,C5,38103,47.6493076,-99.627008
1036032,3800326380,City of Fingal,ND,C5,38003,46.762492,-97.7931577
1036033,3809126420,City of Finley,ND,C5,38091,47.512515,-97.8372681
1036034,3805926660,City of Flasher,ND,C5,38059,46.4521375,-101.2324518
1036035,3801326700,City of Flaxton,ND,C5,38013,48.8974422,-102.3932294
1036036,3802126980,City of Forbes,ND,C5,38021,45.9425106,-98.7820189
1036037,3809927060,City of Fordville,ND,C5,38099,48.2165923,-97.7953756
1036038,3809927100,City of Forest River,ND,C5,38099,48.2165537,-97.470319
1036039,3808127260,City of Forman,ND,C5,38081,46.1040129,-97.6369155
1036040,3807327580,City of Fort Ransom,ND,C5,38073,46.5245293,-97.9310577
1036042,3802327820,City of Fortuna,ND,C5,38023,48.9098767,-103.7782693
1036043,3808527860,City of Fort Yates,ND,C5,38085,46.0865941,-100.630078
1036045,3804728380,City of Fredonia,ND,C5,38047,46.3291753,-99.0956316
1036046,3801728720,City of Frontier,ND,C5,38017,46.8002753,-96.8332943
1036047,3802128780,City of Fullerton,ND,C5,38021,46.1632278,-98.4273128
1036048,3804728860,City of Gackle,ND,C5,38047,46.6264211,-99.1411988
1036049,3809728980,City of Galesburg,ND,C5,38097,47.2700982,-97.4087605
1036050,3800929180,City of Gardena,ND,C5,38009,48.7012374,-100.4980872
1036051,3801729220,City of Gardner,ND,C5,38017,47.1445112,-96.9686172
1036052,3805529460,City of Garrison,ND,C5,38055,47.653206,-101.4219146
1036053,3801129540,City of Gascoyne,ND,C5,38011,46.1189538,-103.078786
1036054,3803530180,City of Gilby,ND,C5,38035,48.0835024,-97.4677231
1036055,3808930460,City of Gladstone,ND,C5,38089,46.8595297,-102.5701153
1036056,3807530580,City of Glenburn,ND,C5,38075,48.513496,-101.2208916
1036057,3803130660,City of Glenfield,ND,C5,38031,47.4550715,-98.5662028
1036058,3805930860,City of Glen Ullin,ND,C5,38059,46.8119871,-101.8332291
1036059,3805731180,City of Golden Valley,ND,C5,38057,47.290152,-102.0652262
1036060,3803331420,City of Golva,ND,C5,38033,46.7346828,-103.9829088
1036061,3808331500,City of Goodrich,ND,C5,38083,47.4759213,-100.124721
1036062,3803131740,City of Grace City,ND,C5,38031,47.5513045,-98.8038704
1036063,3809931820,City of Grafton,ND,C5,38099,48.4142362,-97.4055247
1036064,3803532060,City of Grand Forks,ND,C5,38035,47.9212629,-97.0883399
1036065,3801732300,City of Grandin,ND,C5,38017,47.2367195,-97.003219
1036066,3807532580,City of Grano,ND,C5,38075,48.6153198,-101.5891708
1036067,3804932660,City of Granville,ND,C5,38049,48.2662828,-100.845163
1036068,3807732900,City of Great Bend,ND,C5,38077,46.1546379,-96.8009949
1036069,3810533500,City of Grenora,ND,C5,38105,48.6198804,-103.9366726
1036070,3808134020,City of Gwinner,ND,C5,38081,46.2256491,-97.6691375
1036071,3802934180,City of Hague,ND,C5,38029,46.0288913,-99.9991059
1036072,3802534340,City of Halliday,ND,C5,38025,47.3521458,-102.3387211
1036074,3810334460,City of Hamberg,ND,C5,38103,47.7633464,-99.5159628
1036075,3806734620,City of Hamilton,ND,C5,38067,48.8079819,-97.4517349
1036076,3807134860,City of Hampden,ND,C5,38071,48.5395984,-98.6543167
1036077,3807734900,City of Hankinson,ND,C5,38077,46.0734261,-96.8917906
1036079,3803935020,City of Hannaford,ND,C5,38039,47.3141807,-98.1889406
1036080,3801935060,City of Hannah,ND,C5,38019,48.9728835,-98.6902947
1036081,3809535140,City of Hansboro,ND,C5,38095,48.9524483,-99.3802393
1036083,3810335900,City of Harvey,ND,C5,38103,47.7685145,-99.9312235
1036084,3801735940,City of Harwood,ND,C5,38017,46.9770634,-96.8812157
1036085,3809736100,City of Hatton,ND,C5,38097,47.6369672,-97.4582891
1036086,3808136140,City of Havana,ND,C5,38081,45.9517039,-97.6184423
1036087,3800136540,City of Haynes,ND,C5,38001,45.9739107,-102.4710079
1036088,3802936700,City of Hazelton,ND,C5,38029,46.4857243,-100.2810888
1036089,3805736780,City of Hazen,ND,C5,38057,47.2990931,-101.6259156
1036090,3805936860,City of Hebron,ND,C5,38059,46.9023073,-102.0443899
1036091,3800137700,City of Hettinger,ND,C5,38001,46.0033839,-102.634942
1036092,3809738100,City of Hillsboro,ND,C5,38097,47.4029717,-97.0634626
1036093,3809938780,City of Hoople,ND,C5,38099,48.5357894,-97.6388675
1036094,3809138860,City of Hope,ND,C5,38091,47.3243772,-97.7192031
1036095,3801738900,City of Horace,ND,C5,38017,46.7558816,-96.9078452
1036097,3801739460,City of Hunter,ND,C5,38017,47.1903684,-97.2130973
1036098,3810339580,City of Hurdsfield,ND,C5,38103,47.4467867,-99.9310017
1036099,3803539980,City of Inkster,ND,C5,38035,48.1512514,-97.6441502
1036100,3809340580,City of Jamestown,ND,C5,38093,46.9062718,-98.693665
1036101,3804541180,City of Jud,ND,C5,38045,46.5257723,-98.8975516
1036102,3804941380,City of Karlsruhe,ND,C5,38049,48.0910445,-100.6162077
1036103,3800341500,City of Kathryn,ND,C5,38003,46.681174,-97.9703581
1036104,3810142020,City of Kenmare,ND,C5,38101,48.6728114,-102.0720322
1036105,3809342180,City of Kensal,ND,C5,38093,47.3000334,-98.7321066
1036106,3804942660,City of Kief,ND,C5,38049,47.8599898,-100.5132993
1036107,3802542700,City of Killdeer,ND,C5,38025,47.3688495,-102.7471048
1036109,3801742780,City of Kindred,ND,C5,38017,46.6493789,-97.0169406
1036110,3800543260,City of Knox,ND,C5,38005,48.3439477,-99.6911117
1036111,3800943500,City of Kramer,ND,C5,38009,48.691031,-100.7076501
1036112,3804543580,City of Kulm,ND,C5,38045,46.3019467,-98.9466072
1036113,3806344300,City of Lakota,ND,C5,38063,48.0428683,-98.3467667
1036115,3804544540,City of LaMoure,ND,C5,38045,46.3574167,-98.2965406
1036116,3800944700,City of Landa,ND,C5,38009,48.8958547,-100.9119866
1036117,3801944780,City of Langdon,ND,C5,38019,48.7623719,-98.3747104
1036118,3809944860,City of Lankin,ND,C5,38099,48.3146699,-97.9202585
1036119,3800944900,City of Lansford,ND,C5,38009,48.6269525,-101.3758912
1036120,3803545020,City of Larimore,ND,C5,38035,47.9090651,-97.6270039
1036122,3807145300,City of Lawton,ND,C5,38071,48.3035701,-98.3684086
1036123,3800345460,City of Leal,ND,C5,38003,47.1049155,-98.3155269
1036124,3800545580,City of Leeds,ND,C5,38005,48.2878397,-99.4346997
1036125,3805145740,City of Lehr,ND,C5,38051,46.282395,-99.3529295
1036126,3803745860,City of Leith,ND,C5,38037,46.3626371,-101.638488
1036128,3801745980,City of Leonard,ND,C5,38017,46.65229,-97.2499446
1036129,3807746460,City of Lidgerwood,ND,C5,38077,46.0737517,-97.1451116
1036130,3801346540,City of Lignite,ND,C5,38013,48.8771688,-102.5644281
1036131,3801546640,City of Lincoln,ND,C5,38015,46.7689343,-100.6977373
1036132,3802946980,City of Linton,ND,C5,38029,46.2686756,-100.2328941
1036133,3807347100,City of Lisbon,ND,C5,38073,46.4385241,-97.6840767
1036134,3800347140,City of Litchville,ND,C5,38003,46.6565631,-98.1917015
1036135,3801947660,City of Loma,ND,C5,38019,48.6417108,-98.5247734
1036136,3807548020,City of Loraine,ND,C5,38075,48.8683541,-101.5678895
1036137,3802148460,City of Ludden,ND,C5,38021,46.0081541,-98.1254212
1036138,3809148580,City of Luverne,ND,C5,38091,47.251424,-97.9348167
1036141,3808349020,City of McClusky,ND,C5,38083,47.4839895,-100.4425332
1036142,3803149260,City of McHenry,ND,C5,38031,47.5764055,-98.5909961
1036143,3806349580,City of McVille,ND,C5,38063,47.765268,-98.1755286
1036144,3800549620,City of Maddock,ND,C5,38005,47.9623868,-99.5292943
1036145,3810149820,City of Makoti,ND,C5,38101,47.9633305,-101.8029076
1036146,3805949900,City of Mandan,ND,C5,38059,46.8290096,-100.88708
1036147,3807750380,City of Mantador,ND,C5,38077,46.1654945,-96.9778513
1036148,3803550420,City of Manvel,ND,C5,38035,48.0727824,-97.1779289
1036149,3801750580,City of Mapleton,ND,C5,38017,46.8915312,-97.053257
1036150,3804550780,City of Marion,ND,C5,38045,46.6090718,-98.3375149
1036151,3808750860,City of Marmarth,ND,C5,38087,46.2959628,-103.9330346
1036152,3808351060,City of Martin,ND,C5,38083,47.8267696,-100.1153022
1036153,3805551380,City of Max,ND,C5,38055,47.8204205,-101.2911059
1036154,3800951420,City of Maxbass,ND,C5,38009,48.7224474,-101.1423648
1036155,3809751500,City of Mayville,ND,C5,38097,47.4981839,-97.3263556
1036157,3809351860,City of Medina,ND,C5,38093,46.8938399,-99.2998853
1036158,3800751900,City of Medora,ND,C5,38007,46.9123091,-103.5252185
1036159,3805552340,City of Mercer,ND,C5,38055,47.4904601,-100.7104271
1036161,3806352740,City of Michigan City,ND,C5,38063,48.0247457,-98.1197377
1036162,3808152940,City of Milnor,ND,C5,38081,46.2602214,-97.4569496
1036163,3801953020,City of Milton,ND,C5,38019,48.6260063,-98.0459641
1036164,3800553220,City of Minnewaukan,ND,C5,38005,48.0698278,-99.2500448
1036165,3810153380,City of Minot,ND,C5,38101,48.2376127,-101.2790043
1036166,3809953540,City of Minto,ND,C5,38099,48.2924108,-97.3730459
1036167,3807553780,City of Mohall,ND,C5,38075,48.7661093,-101.5169793
1036168,3802153820,City of Monango,ND,C5,38021,46.1734062,-98.5951753
1036169,3809353980,City of Montpelier,ND,C5,38093,46.6989659,-98.5884641
1036170,3807754220,City of Mooreton,ND,C5,38077,46.268931,-96.8757773
1036171,3804154620,City of Mott,ND,C5,38041,46.3744014,-102.3188972
1036172,3806754740,City of Mountain,ND,C5,38067,48.684305,-97.8648067
1036173,3801955020,City of Munich,ND,C5,38019,48.6728555,-98.8384341
1036174,3807955220,City of Mylo,ND,C5,38079,48.6358411,-99.6179207
1036175,3804755420,City of Napoleon,ND,C5,38047,46.5039299,-99.7683322
1036176,3806755620,City of Neche,ND,C5,38067,48.9830431,-97.5516987
1036177,3801955740,City of Nekoma,ND,C5,38019,48.5762579,-98.3755334
1036179,3800956020,City of Newburg,ND,C5,38009,48.7138781,-100.9126396
1036180,3804156180,City of New England,ND,C5,38041,46.5408175,-102.8669619
1036181,3803756420,City of New Leipzig,ND,C5,38037,46.3757681,-101.9515986
1036182,3802756620,City of New Rockford,ND,C5,38027,47.6797505,-99.1376862
1036183,3805956700,City of New Salem,ND,C5,38059,46.843115,-101.4178332
1036184,3806156740,City of New Town,ND,C5,38061,47.9890755,-102.4883065
1036185,3803556780,City of Niagara,ND,C5,38035,47.9983021,-97.8716668
1036186,3800357180,City of Nome,ND,C5,38003,46.6757965,-97.8162548
1036187,3802357220,City of Noonan,ND,C5,38023,48.8898613,-103.0099513
1036197,3801758120,City of North River,ND,C5,38017,46.9502963,-96.8021187
1036204,3803558300,City of Northwood,ND,C5,38035,47.7365973,-97.5652265
1036205,3802158740,City of Oakes,ND,C5,38021,46.1397046,-98.0871221
1036206,3800559020,City of Oberon,ND,C5,38005,47.9242084,-99.2059115
1036207,3800359660,City of Oriska,ND,C5,38003,46.931117,-97.7905394
1036208,3801960100,City of Osnabrock,ND,C5,38019,48.6698997,-98.1488771
1036209,3800960380,City of Overly,ND,C5,38009,48.6811388,-100.1510198
1036211,3801760500,City of Page,ND,C5,38017,47.1591898,-97.5681313
1036212,3806160620,City of Palermo,ND,C5,38061,48.337968,-102.2297441
1036213,3809960900,City of Park River,ND,C5,38099,48.3910593,-97.7426809
1036214,3806160940,City of Parshall,ND,C5,38061,47.9595073,-102.1338035
1036215,3806361460,City of Pekin,ND,C5,38063,47.791911,-98.3277695
1036216,3806761580,City of Pembina,ND,C5,38067,48.9669312,-97.2476093
1036217,3809561780,City of Perth,ND,C5,38095,48.7147227,-99.458124
1036218,3806361860,City of Petersburg,ND,C5,38063,48.0131835,-98.0003838
1036219,3804362060,City of Pettibone,ND,C5,38043,47.1170687,-99.5208155
1036220,3805762260,City of Pick City,ND,C5,38057,47.5110005,-101.4573036
1036221,3800362540,City of Pillsbury,ND,C5,38003,47.2071231,-97.7956914
1036222,3809362620,City of Pingree,ND,C5,38093,47.163823,-98.9085628
1036223,3809962780,City of Pisek,ND,C5,38099,48.3106439,-97.7102804
1036224,3806162980,City of Plaza,ND,C5,38061,48.0259898,-101.9594223
1036226,3801363740,City of Portal,ND,C5,38013,48.9946377,-102.5479135
1036227,3809763900,City of Portland,ND,C5,38097,47.4995109,-97.3693056
1036228,3801364140,City of Powers Lake,ND,C5,38013,48.5640289,-102.6456869
1036229,3801764320,City of Prairie Rose,ND,C5,38017,46.8171205,-96.8353947
1036231,3810565580,City of Ray,ND,C5,38105,48.3416971,-103.1633363
1036232,3800165900,City of Reeder,ND,C5,38001,46.1059263,-102.9421638
1036233,3801565980,City of Regan,ND,C5,38015,47.1567938,-100.5272984
1036234,3804166020,City of Regent,ND,C5,38041,46.422197,-102.5580519
1036235,3801766040,City of Reile's Acres,ND,C5,38017,46.9269643,-96.8666386
1036236,3809766260,City of Reynolds,ND,C5,38097,47.6685295,-97.1059679
1036237,3801166300,City of Rhame,ND,C5,38011,46.2346491,-103.6549824
1036238,3808966500,City of Richardton,ND,C5,38089,46.8841615,-102.3331629
1036239,3805566980,City of Riverdale,ND,C5,38055,47.4975346,-101.3661367
1036240,3804367180,City of Robinson,ND,C5,38043,47.1420621,-99.7813319
1036241,3809567500,City of Rocklake,ND,C5,38095,48.7901597,-99.2458982
1036242,3800367620,City of Rogers,ND,C5,38003,47.0740308,-98.2031272
1036243,3807967780,City of Rolette,ND,C5,38079,48.6608974,-99.8416752
1036244,3807967820,City of Rolla,ND,C5,38079,48.8609445,-99.618075
1036245,3806168540,City of Ross,ND,C5,38061,48.3127752,-102.5435091
1036246,3806968860,City of Rugby,ND,C5,38069,48.3653698,-99.9904011
1036247,3805569140,City of Ruso,ND,C5,38055,47.8373319,-100.9342684
1036249,3808169340,City of Rutland,ND,C5,38081,46.0543433,-97.5068012
1036250,3810169460,City of Ryder,ND,C5,38101,47.9211038,-101.6694179
1036251,3807969980,City of Saint John,ND,C5,38079,48.9437666,-99.7130965
1036252,3806770260,City of Saint Thomas,ND,C5,38067,48.6192359,-97.447107
1036253,3800370380,City of Sanborn,ND,C5,38003,46.9427934,-98.2238119
1036254,3801970780,City of Sarles,ND,C5,38019,48.9449674,-98.9968815
1036255,3810170980,City of Sawyer,ND,C5,38101,48.0894576,-101.0533135
1036256,3801171500,City of Scranton,ND,C5,38011,46.1494795,-103.1429774
1036257,3808571660,City of Selfridge,ND,C5,38085,46.0416822,-100.9243572
1036258,3803371780,City of Sentinel Butte,ND,C5,38033,46.9195129,-103.8399725
1036259,3809171940,City of Sharon,ND,C5,38091,47.5973966,-97.899413
1036260,3807372180,City of Sheldon,ND,C5,38073,46.5884915,-97.4943824
1036261,3807572540,City of Sherwood,ND,C5,38075,48.9618669,-101.6328017
1036262,3802772580,City of Sheyenne,ND,C5,38027,47.8272875,-99.1168325
1036263,3800372820,City of Sibley,ND,C5,38003,47.218602,-97.9653062
1036264,3808573820,City of Solen,ND,C5,38085,46.3873125,-100.7956474
1036265,3800974020,City of Souris,ND,C5,38009,48.9099588,-100.6826475
1036274,3808974185,City of South Heart,ND,C5,38089,46.868154,-102.9918189
1036282,3809374740,City of Spiritwood Lake,ND,C5,38093,47.0743065,-98.5866135
1036283,3810574780,City of Springbrook,ND,C5,38105,48.2521138,-103.4616786
1036284,3806175380,City of Stanley,ND,C5,38061,48.3136887,-102.397204
1036285,3805775420,City of Stanton,ND,C5,38057,47.3186815,-101.3822165
1036286,3807175580,City of Starkweather,ND,C5,38071,48.452084,-98.8784409
1036287,3804375780,City of Steele,ND,C5,38043,46.8568009,-99.9181253
1036288,3802976500,City of Strasburg,ND,C5,38029,46.1337724,-100.1610573
1036289,3809376620,City of Streeter,ND,C5,38093,46.6576178,-99.3568179
1036290,3810177180,City of Surrey,ND,C5,38101,48.2433047,-101.1333097
1036291,3810377660,City of Sykeston,ND,C5,38103,47.4660711,-99.3993152
1036292,3804377980,City of Tappen,ND,C5,38043,46.8716032,-99.6270959
1036293,3808978180,City of Taylor,ND,C5,38089,46.9017985,-102.422192
1036294,3803578660,City of Thompson,ND,C5,38035,47.7752009,-97.1054021
1036295,3810578940,City of Tioga,ND,C5,38105,48.3947386,-102.9431282
1036296,3807579140,City of Tolley,ND,C5,38075,48.7303015,-101.8270831
1036297,3806379180,City of Tolna,ND,C5,38063,47.8256994,-98.4381643
1036298,3801779340,City of Tower City,ND,C5,38017,46.9263089,-97.6760348
1036299,3804979420,City of Towner,ND,C5,38049,48.3471207,-100.4069835
1036300,3805579940,City of Turtle Lake,ND,C5,38055,47.52158,-100.8907261
1036302,3804380140,City of Tuttle,ND,C5,38043,47.144491,-99.9934039
1036303,3805580660,City of Underwood,ND,C5,38055,47.4563857,-101.1412168
1036305,3804980860,City of Upham,ND,C5,38049,48.5815502,-100.7284324
1036306,3800381180,City of Valley City,ND,C5,38003,46.9221011,-98.0053024
1036307,3804981620,City of Velva,ND,C5,38049,48.0581929,-100.9328872
1036308,3805181700,City of Venturia,ND,C5,38051,45.99714,-99.5508022
1036309,3804581900,City of Verona,ND,C5,38045,46.3626287,-98.077149
1036310,3804982380,City of Voltaire,ND,C5,38049,48.0186704,-100.8440061
1036311,3807782660,City of Wahpeton,ND,C5,38077,46.2720589,-96.6119355
1036312,3807782780,City of Walcott,ND,C5,38077,46.5504726,-96.9375497
1036313,3801982940,City of Wales,ND,C5,38019,48.8952382,-98.600806
1036314,3806782980,City of Walhalla,ND,C5,38067,48.921039,-97.9175166
1036315,3800583580,City of Warwick,ND,C5,38005,47.8547305,-98.7056461
1036316,3805583700,City of Washburn,ND,C5,38055,47.2920512,-101.0278394
1036317,3805383860,City of Watford City,ND,C5,38053,47.8026571,-103.2676883
1036321,3801784780,City of West Fargo,ND,C5,38017,46.85719,-96.9057126
1036323,3800985020,City of Westhope,ND,C5,38009,48.9111765,-101.0177099
1036333,3806185540,City of White Earth,ND,C5,38061,48.3798677,-102.7717554
1036334,3810586020,City of Wildrose,ND,C5,38105,48.6299526,-103.183693
1036335,3810586220,City of Williston,ND,C5,38105,48.1813511,-103.6363046
1036336,3800986380,City of Willow City,ND,C5,38009,48.6046914,-100.293311
1036337,3805586580,City of Wilton,ND,C5,38055,47.1580922,-100.7841706
1036338,3800386620,City of Wimbledon,ND,C5,38003,47.169067,-98.458629
1036339,3801586780,City of Wing,ND,C5,38015,47.1422664,-100.2823174
1036340,3805187020,City of Wishek,ND,C5,38051,46.2554096,-99.5545927
1036341,3806987180,City of Wolford,ND,C5,38069,48.4974827,-99.7038147
1036342,3809387580,City of Woodworth,ND,C5,38093,47.1422263,-99.3042284
1036343,3807787740,City of Wyndmere,ND,C5,38077,46.2641286,-97.1311822
1036344,3800587860,City of York,ND,C5,38005,48.3132429,-99.5732567
1036345,3805788140,City of Zap,ND,C5,38057,47.2846814,-101.9232773
1036346,3805188180,City of Zeeland,ND,C5,38051,45.9729436,-99.832442
1036347,3824260,Enderlin,ND,P1,38073,46.623028,-97.6014862
1036348,3845740,Lehr,ND,P1,38051,46.2796939,-99.3523336
1036349,3879340,Tower City,ND,P1,38017,46.9227548,-97.6739889
1036350,3886580,Wilton,ND,P1,38055,47.1586039,-100.7834663
1037261,3837380,Hensel,ND,C4,38067,48.6883262,-97.6664791
1037262,3852660,Michigan,ND,C4,38063,48.0249959,-98.1170454
1037265,3867580,Rock Lake,ND,C4,38095,48.7902841,-99.2462492
1037271,3874740,Spiritwood Lake,ND,P1,38093,47.0763803,-98.573153
1037272,3866040,Reiles Acres,ND,C4,38017,46.9230219,-96.8653603
1037273,3864320,Prairie Rose,ND,P1,38017,46.8174651,-96.8356389
1037274,3858120,North River,ND,P1,38017,46.9507978,-96.8025805
1037276,3828720,Frontier,ND,P1,38017,46.8005206,-96.8331391
1037277,3809320,Briarwood,ND,P1,38017,46.7860752,-96.7970272
1037321,3900464,Adena,OH,P1,39081,40.2186805,-80.8728672
1037396,3901672,Amberley,OH,P1,39061,39.2047809,-84.427997
1037451,3902204,Antwerp,OH,P1,39125,41.1814388,-84.7405144
1037625,3903828,Barberton,OH,P1,39153,41.012833,-81.6051221
1037672,3904150,Batavia,OH,P1,39025,39.0770072,-84.1768795
1037862,3905550,Bentleyville,OH,P1,39035,41.4131094,-81.4109468
1038105,3906908,Blanchester,OH,P1,39027,39.2931174,-83.9888205
1038125,3907202,Bloomingdale,OH,P1,39081,40.3428455,-80.8181404
1038365,3909386,Broughton,OH,P1,39125,41.0897714,-84.5352291
1038598,3910800,Cadiz,OH,P1,39067,40.2728452,-80.9967628
1038609,3910940,Caldwell,OH,P1,39121,39.7478508,-81.5165127
1038796,3911360,Canfield,OH,P1,39099,41.0250584,-80.7609121
1038883,3912700,Cecil,OH,P1,39125,41.218661,-84.602175
1039033,3913932,Cheshire,OH,P1,39053,38.9448013,-82.111255
1039063,3914156,Chickasaw,OH,P1,39107,40.4369914,-84.4932863
1039574,3920114,Danville,OH,P1,39083,40.4475643,-82.2601584
1039654,3921294,Deersville,OH,P1,39067,40.3075666,-81.1864933
1039681,3921812,Deshler,OH,P1,39069,41.2075509,-83.8991072
1039763,3922456,Dover,OH,P1,39157,40.5206198,-81.4740054
1039880,3922946,Dunkirk,OH,P1,39065,40.7892204,-83.6432639
1040043,3924234,Eaton,OH,P1,39135,39.7439405,-84.6366201
1040112,3924794,Elgin,OH,P1,39161,40.7425484,-84.4757878
1040177,3925256,Elyria,OH,P1,39093,41.3683798,-82.1076486
1040264,3925802,Evendale,OH,P1,39061,39.2561691,-84.417997
1040312,3926166,Fairlawn,OH,P1,39153,41.127833,-81.609844
1040322,3926348,Fairview,OH,P1,39059,40.0570139,-81.2328872
1040389,3926656,Farmersville,OH,P1,39113,39.6795,-84.4291132
1040400,3926796,Fayetteville,OH,P1,39015,39.1867298,-83.9321521
1040439,3927048,Findlay,OH,P1,39063,41.0442201,-83.6499321
1040570,3927706,Forest Park,OH,P1,39061,39.2903353,-84.5041108
1040590,3927902,Fort Recovery,OH,P1,39107,40.4128241,-84.7763511
1040674,3928826,Fremont,OH,P1,39143,41.3503303,-83.1218634
1040812,3929610,Geneva,OH,P1,39007,41.8050539,-80.9481489
1040908,3930436,Glenford,OH,P1,39127,39.8881223,-82.317094
1041074,3931458,Gratiot,OH,P1,39089,39.9511782,-82.215978
1041273,3933096,Hamler,OH,P1,39069,41.2292165,-84.0341106
1041292,3933306,Hanoverton,OH,P1,39029,40.7511704,-80.937032
1041362,3933838,Harrison,OH,P1,39061,39.2619993,-84.8199516
1041402,3934552,Haviland,OH,P1,39125,41.0189378,-84.580787
1041450,3934790,Hebron,OH,P1,39089,39.9617305,-82.4912676
1041556,3935252,Highland Heights,OH,P1,39035,41.5519954,-81.4784522
1041884,3936918,Hunting Valley,OH,P1,39035,41.4892194,-81.401781
1041891,3936988,Huntsville,OH,P1,39091,40.4433848,-83.8049353
1042061,3938500,Jefferson,OH,P1,39007,41.7386662,-80.7698066
1042071,3938920,Jeffersonville,OH,P1,39047,39.6536719,-83.5638094
1042073,3938948,Jenera,OH,P1,39063,40.8997754,-83.7268783
1042172,3939536,Kalida,OH,P1,39137,40.9828289,-84.1993907
1042388,3941398,Lakeline,OH,P1,39085,41.6594912,-81.4542814
1042429,3941986,Latty,OH,P1,39125,41.0886603,-84.5852311
1042462,3942364,Lebanon,OH,P1,39165,39.4353373,-84.2029922
1042716,3944632,Logan,OH,P1,39073,39.5400672,-82.4070986
1042895,3946830,Magnetic Springs,OH,P1,39159,40.3528377,-83.2613063
1042904,3946942,Malinta,OH,P1,39069,41.3225503,-84.0380003
1042909,3946970,Malta,OH,P1,39115,39.6492377,-81.8620804
1042984,3947558,Marengo,OH,P1,39117,40.4008945,-82.8107329
1043032,3948118,Martinsville,OH,P1,39027,39.3239508,-83.814926
1043380,3950400,Millersport,OH,P1,39045,39.9000639,-82.534048
1043452,3951674,Montezuma,OH,P1,39107,40.4889356,-84.5485662
1043484,3952052,Moreland Hills,OH,P1,39035,41.4478312,-81.4276153
1043538,3952598,Mount Blanchard,OH,P1,39063,40.8983875,-83.5560395
1043638,3953144,Mount Victory,OH,P1,39065,40.5344995,-83.5204822
1043773,3953550,Napoleon,OH,P1,39069,41.3922726,-84.1252243
1043776,3953634,Nashville,OH,P1,39075,40.5961726,-82.1120974
1043814,3954012,New Alexandria,OH,P1,39081,40.2906252,-80.6792445
1043820,3954110,New Bavaria,OH,P1,39069,41.2036599,-84.1682781
1043846,3955398,New Riegel,OH,P1,39147,41.0514438,-83.318534
1043972,3957064,North Star,OH,P1,39037,40.3247694,-84.5705106
1043984,3956448,Northfield,OH,P1,39153,41.3450547,-81.528452
1044003,3957302,Norwalk,OH,P1,39077,41.2425531,-82.6157331
1044204,3958912,Osgood,OH,P1,39037,40.3397696,-84.4952303
1044206,3958940,Ostrander,OH,P1,39041,40.266172,-83.2126932
1044265,3959234,Oxford,OH,P1,39017,39.5069974,-84.745231
1044274,3959416,Painesville,OH,P1,39085,41.7244885,-81.245657
1044331,3961252,Paulding,OH,P1,39125,41.1381051,-84.5805082
1044337,3961322,Payne,OH,P1,39125,41.0775492,-84.7271812
1044358,3961420,Peebles,OH,P1,39001,38.9489593,-83.4057458
1044373,3961686,Pepper Pike,OH,P1,39035,41.4783865,-81.4637296
1044385,3961882,Perry,OH,P1,39085,41.7603259,-81.1409322
1044482,3962834,Pioneer,OH,P1,39171,41.6800503,-84.5530057
1044654,3963800,Plymouth,OH,P1,39077,40.9956112,-82.6671207
1044829,3965200,Quincy,OH,P1,39091,40.2992182,-83.9688273
1044873,3965634,Rawson,OH,P1,39063,40.9589419,-83.7841029
1045153,3968084,Rogers,OH,P1,39029,40.7914504,-80.6261833
1045404,3969470,Saint Bernard,OH,P1,39061,39.1670033,-84.4985541
1045611,3969652,Saint Louisville,OH,P1,39089,40.1728428,-82.4187671
1045870,3969834,Salem,OH,P1,39029,40.9008923,-80.8567502
1046050,3971080,Scott,OH,P1,39161,40.9897709,-84.5832874
1046206,3972256,Sherwood,OH,P1,39039,41.2872723,-84.5535617
1046248,3972396,Shreve,OH,P1,39169,40.6814481,-82.0218148
1046426,3972928,Solon,OH,P1,39035,41.3897764,-81.4412259
1047053,3976764,Thurston,OH,P1,39045,39.8403419,-82.5459933
1047491,3980486,Walbridge,OH,P1,39173,41.5878281,-83.4932651
1047551,3980738,Walton Hills,OH,P1,39035,41.3656097,-81.5612322
1047579,3980990,Warrensville Heights,OH,P1,39035,41.4350535,-81.5362327
1047606,3981732,Washingtonville,OH,P1,39029,40.900337,-80.7639673
1047628,3981928,Wauseon,OH,P1,39051,41.5492182,-84.1416147
1047633,3982390,Waynesfield,OH,P1,39011,40.6006056,-83.9752202
1047634,3982418,Waynesville,OH,P1,39165,39.5297824,-84.086601
1047670,3982642,Wellington,OH,P1,39093,41.1689421,-82.2179354
1047798,3984196,West Salem,OH,P1,39169,40.9714448,-82.1098748
1047810,3984308,West Unity,OH,P1,39171,41.586162,-84.4349491
1047942,3985414,Williamsport,OH,P1,39129,39.5858953,-83.1204647
1048082,3986366,Woodlawn,OH,P1,39061,39.2520022,-84.4702206
1048147,3986632,Wren,OH,P1,39161,40.8008809,-84.7752399
1048375,3972060,Sheffield,OH,P1,39093,41.4211548,-82.096259
1048393,3904720,Beavercreek,OH,P1,39057,39.7092262,-84.0632685
1048396,3945276,Lucas,OH,P1,39139,40.7050579,-82.4182204
1048401,3956910,North Perry,OH,P1,39085,41.7783808,-81.1498216
1048458,3901630,Amanda,OH,P1,39045,39.649508,-82.7443367
1048461,3901938,Amsterdam,OH,P1,39081,40.4736758,-80.9228671
1048468,3902638,Ashtabula,OH,P1,39007,41.8650534,-80.7898089
1048470,3902820,Attica,OH,P1,39147,41.0647777,-82.887686
1048474,3903464,Avon Lake,OH,P1,39093,41.5053178,-82.0282001
1048477,3903604,Bainbridge,OH,P1,39141,39.2275658,-83.2704663
1048478,3903646,Bairdstown,OH,P1,39173,41.1728305,-83.6079869
1048490,3904402,Bay View,OH,P1,39043,41.4686626,-82.8268547
1048493,3904500,Beachwood,OH,P1,39035,41.4644979,-81.5087322
1048505,3904920,Bedford Heights,OH,P1,39035,41.4169982,-81.5273428
1048521,3906222,Beverly,OH,P1,39167,39.5478509,-81.6395732
1048522,3906278,Bexley,OH,P1,39049,39.9689532,-82.9376804
1048536,3907916,Bowerston,OH,P1,39067,40.4253431,-81.1878817
1048537,3907930,Bowersville,OH,P1,39057,39.5806168,-83.7249234
1048538,3907972,Bowling Green,OH,P1,39173,41.3747744,-83.6513229
1048541,3908112,Bradner,OH,P1,39173,41.3242192,-83.4385387
1048543,3908336,Bratenahl,OH,P1,39035,41.5425502,-81.626238
1048544,3908392,Bremen,OH,P1,39045,39.7017328,-82.4268216
1048548,3908532,Brice,OH,P1,39049,39.9181195,-82.8321199
1048554,3909288,Brook Park,OH,P1,39035,41.3983838,-81.8045788
1048555,3909274,Brooklyn Heights,OH,P1,39035,41.4253299,-81.6881848
1048556,3909316,Brookside,OH,P1,39013,40.0706279,-80.7609172
1048561,3909792,Bryan,OH,P1,39171,41.4747732,-84.5524508
1048562,3909890,Buckeye Lake,OH,P1,39089,39.9336753,-82.4723781
1048570,3910436,Burton,OH,P1,39055,41.4706089,-81.1450995
1048579,3911332,Canal Winchester,OH,P1,39045,39.8428415,-82.8046182
1048580,3912000,Canton,OH,P1,39151,40.7989473,-81.378447
1048589,3912868,Celina,OH,P1,39107,40.5489358,-84.5702338
1048603,3915588,Clay Center,OH,P1,39123,41.5633832,-83.3618725
1048605,3916014,Cleveland Heights,OH,P1,39035,41.5200518,-81.556235
1048607,3916056,Clifton,OH,P1,39023,39.7970043,-83.8254829
1048625,3918266,Conesville,OH,P1,39031,40.1839598,-81.8909653
1048628,3918588,Coolville,OH,P1,39009,39.2217427,-81.7973557
1048638,3919106,Craig Beach,OH,P1,39099,41.1170017,-80.9834247
1048646,3919778,Cuyahoga Falls,OH,P1,39153,41.1339449,-81.4845585
1048655,3921266,Deer Park,OH,P1,39061,39.2053367,-84.3946627
1048667,3922610,Dresden,OH,P1,39119,40.1214579,-82.0106918
1048670,3922974,Dupont,OH,P1,39137,41.0564388,-84.3043915
1048691,3924486,Edgerton,OH,P1,39171,41.4486619,-84.7480123
1048695,3924640,Edon,OH,P1,39171,41.5564394,-84.7688456
1048703,3925144,Elmore,OH,P1,39123,41.4761621,-83.2957584
1048708,3925452,Enon,OH,P1,39023,39.8781151,-83.9368765
1048718,3925942,Fairfax,OH,P1,39061,39.1453377,-84.3932734
1048720,3925970,Fairfield,OH,P1,39017,39.34589,-84.5605016
1048741,3927412,Fletcher,OH,P1,39109,40.1447753,-84.1124407
1048744,3927636,Forest,OH,P1,39065,40.8017214,-83.5104821
1048750,3927818,Fort Jennings,OH,P1,39137,40.9064392,-84.296616
1048758,3928476,Franklin,OH,P1,39165,39.5589474,-84.3041074
1048760,3928798,Freeport,OH,P1,39067,40.2106234,-81.2662197
1048774,3929722,Genoa,OH,P1,39123,41.5181064,-83.359094
1048778,3929974,Gettysburg,OH,P1,39037,40.1114383,-84.4952293
1048782,3930114,Gilboa,OH,P1,39137,41.018108,-83.9218856
1048785,3930198,Girard,OH,P1,39155,41.1539465,-80.7014662
1048793,3930786,Golf Manor,OH,P1,39061,39.1872811,-84.4463307
1048799,3931304,Grandview Heights,OH,P1,39049,39.9797863,-83.0407403
1048806,3932592,Grove City,OH,P1,39049,39.8814519,-83.0929645
1048816,3933376,Harbor View,OH,P1,39095,41.6933811,-83.4443765
1048821,3934090,Harrisville,OH,P1,39067,40.1814586,-80.8875904
1048823,3934412,Haskins,OH,P1,39173,41.4647747,-83.7060473
1048847,3935924,Holloway,OH,P1,39013,40.1622907,-81.1326032
1048855,3936582,Hubbard,OH,P1,39155,41.1564463,-80.569239
1048856,3936610,Huber Heights,OH,P1,39113,39.843947,-84.1246608
1048857,3936651,Hudson,OH,P1,39153,41.240056,-81.440667
1048875,3939340,Johnstown,OH,P1,39089,40.1536742,-82.6851699
1048887,3940040,Kettering,OH,P1,39113,39.6895036,-84.1688274
1048901,3941454,Lakemore,OH,P1,39153,41.0208896,-81.4359458
1048903,3941720,Lancaster,OH,P1,39045,39.7136754,-82.5993294
1048908,3942028,Laura,OH,P1,39109,39.9947741,-84.4080045
1048916,3943554,Lima,OH,P1,39003,40.742551,-84.1052256
1048919,3943722,Lincoln Heights,OH,P1,39061,39.2389469,-84.4554979
1048936,3945178,Lowellville,OH,P1,39099,41.0353371,-80.5364593
1048939,3945332,Luckey,OH,P1,39173,41.4506077,-83.48743
1048945,3947306,Maple Heights,OH,P1,39035,41.4153313,-81.565956
1048957,3945934,McDonald,OH,P1,39155,41.1636687,-80.7242449
1048968,3949238,Metamora,OH,P1,39051,41.7117178,-83.9096648
1048971,3949294,Meyers Lake,OH,P1,39151,40.8125581,-81.4165041
1048974,3949644,Middleburg Heights,OH,P1,39035,41.3614401,-81.812912
1048975,3949966,Midvale,OH,P1,39157,40.4378434,-81.3731675
1048984,3952010,Moraine,OH,P1,39113,39.7061702,-84.2193849
1048993,3952976,Mount Pleasant,OH,P1,39081,40.1753485,-80.7978631
1049027,3957190,Northwood,OH,P1,39173,41.607272,-83.4688204
1049033,3957764,Oakwood,OH,P1,39113,39.7253369,-84.1741059
1049034,3957834,Oberlin,OH,P1,39093,41.2939386,-82.2173786
1049043,3958730,Oregon,OH,P1,39095,41.6436603,-83.4868768
1049054,3959598,Palestine,OH,P1,39037,40.0494926,-84.7432923
1049063,3961000,Parma,OH,P1,39035,41.4047742,-81.7229086
1049064,3961056,Parral,OH,P1,39157,40.5611743,-81.4970623
1049066,3961112,Pataskala,OH,P1,39089,39.9956193,-82.6743341
1049070,3961504,Pemberville,OH,P1,39173,41.4108855,-83.46104
1049072,3961574,Peninsula,OH,P1,39153,41.2411668,-81.5526176
1049080,3962442,Philo,OH,P1,39119,39.8611805,-81.9068014
1049103,3964430,Potsdam,OH,P1,39109,39.9633855,-84.4174489
1049113,3965662,Rayland,OH,P1,39081,40.1825712,-80.6911904
1049116,3966152,Reminderville,OH,P1,39153,41.3458879,-81.3951112
1049120,3966824,Richmond,OH,P1,39081,40.4333996,-80.7717478
1049132,3968056,Rocky River,OH,P1,39035,41.4756031,-81.8393034
1049137,3968686,Rossford,OH,P1,39173,41.6097726,-83.5643782
1049142,3969344,Russia,OH,P1,39149,40.2344927,-84.409394
1049143,3969358,Rutland,OH,P1,39105,39.045355,-82.1304226
1049163,3971220,Sebring,OH,P1,39099,40.9228363,-81.0189816
1049165,3971360,Senecaville,OH,P1,39059,39.9342386,-81.4623419
1049166,3971416,Seven Hills,OH,P1,39035,41.3953304,-81.6762392
1049175,3972242,Sherrodsville,OH,P1,39019,40.4947869,-81.2428843
1049188,3973068,South Bloomfield,OH,P1,39129,39.7183962,-82.9868489
1049189,3973264,South Euclid,OH,P1,39035,41.5231076,-81.5184553
1049194,3973684,South Russell,OH,P1,39055,41.4314422,-81.3653887
1049225,3975252,Sugar Grove,OH,P1,39045,39.6264539,-82.5484932
1049231,3975602,Sunbury,OH,P1,39041,40.2425623,-82.8590673
1049237,3975980,Sycamore,OH,P1,39175,40.9497783,-83.1707508
1049246,3976680,Thornville,OH,P1,39127,39.896454,-82.4201539
1049252,3977588,Troy,OH,P1,39109,40.0394982,-84.2032767
1049256,3978470,Union,OH,P1,39113,39.8978327,-84.3063343
1049263,3979100,Urbancrest,OH,P1,39049,39.8975632,-83.0868531
1049269,3979268,Valley View,OH,P1,39035,41.3878312,-81.6045685
1049271,3979492,Vandalia,OH,P1,39113,39.8906122,-84.1988308
1049274,3979716,Vermilion,OH,P1,39043,41.4219889,-82.3646068
1049288,3980500,Waldo,OH,P1,39101,40.4589491,-83.0771326
1049292,3981032,Warsaw,OH,P1,39031,40.3353465,-82.006807
1049301,3982712,Wellston,OH,P1,39079,39.1234054,-82.5329377
1049302,3982740,Wellsville,OH,P1,39029,40.6028419,-80.6489628
1049309,3983216,West Elkton,OH,P1,39135,39.5878325,-84.5543932
1049311,3983706,West Leipsic,OH,P1,39137,41.1072734,-84.0024439
1049314,3984182,West Rushville,OH,P1,39045,39.7639543,-82.447378
1049324,3984742,Whitehall,OH,P1,39049,39.9667308,-82.8854559
1049332,3985638,Willowick,OH,P1,39085,41.6331034,-81.4687274
1049334,3985876,Winchester,OH,P1,39001,38.9417359,-83.6507541
1049343,3986492,Woodville,OH,P1,39143,41.4514405,-83.3657601
1049345,3986548,Wooster,OH,P1,39169,40.8050565,-81.935143
1049349,3986730,Wyoming,OH,P1,39061,39.2311692,-84.4657758
1049353,3986856,Yankee Lake,OH,P1,39155,41.2667226,-80.5675731
1049357,3987178,Yorkville,OH,P1,39013,40.1545159,-80.7103583
1049362,3988168,Zoar,OH,P1,39157,40.6142286,-81.4223375
1051007,3950722,Miltonsburg,OH,P1,39111,39.8306276,-81.1653859
1052967,3967600,Roaming Shores,OH,P1,39007,41.6431107,-80.8234198
1055101,3979226,Valley Hi,OH,P1,39091,40.312555,-83.6832645
1056195,3900142,Aberdeen,OH,P1,39015,38.6556296,-83.7610323
1056237,3913190,Centerville,OH,P1,39113,39.6283928,-84.1593818
1056264,3922694,Dublin,OH,P1,39049,40.0992294,-83.1140771
1056293,3929246,Gambier,OH,P1,39083,40.3756194,-82.3971038
1056322,3934748,Heath,OH,P1,39089,40.0228421,-82.4445991
1056347,3937016,Huron,OH,P1,39043,41.3950489,-82.5551733
1056381,3940572,Kirkersville,OH,P1,39089,39.9595081,-82.5957182
1056388,3941118,Lafayette,OH,P1,39003,40.7603297,-83.9485536
1056410,3947138,Mansfield,OH,P1,39139,40.75839,-82.5154471
1056413,3948482,Mayfield Heights,OH,P1,39035,41.5192189,-81.457896
1056416,3945794,McClure,OH,P1,39069,41.3714402,-83.9418874
1056421,3949098,Mentor-on-the-Lake,OH,P1,39085,41.7050448,-81.360386
1056427,3950834,Minerva,OH,P1,39151,40.7297817,-81.1053764
1056435,3952416,Moscow,OH,P1,39025,38.8570117,-84.2291017
1056436,3953102,Mount Vernon,OH,P1,39083,40.3933956,-82.4857181
1056439,3952752,Mount Healthy,OH,P1,39061,39.2336687,-84.5457778
1056444,3953942,Nevada,OH,P1,39175,40.8192237,-83.1304704
1056446,3954166,New Boston,OH,P1,39145,38.7522986,-82.9368391
1056450,3954978,New Madison,OH,P1,39037,39.9678269,-84.709124
1056451,3955776,New Washington,OH,P1,39033,40.9622785,-82.8543501
1056452,3956154,North Baltimore,OH,P1,39173,41.1828302,-83.6782668
1056455,3956700,North Kingsville,OH,P1,39007,41.905887,-80.6903597
1056457,3956882,North Olmsted,OH,P1,39035,41.4156025,-81.9234726
1056459,3957372,Norwich,OH,P1,39119,39.9850718,-81.7915186
1056460,3957386,Norwood,OH,P1,39061,39.1556149,-84.4596641
1056486,3965732,Reading,OH,P1,39061,39.2236694,-84.4421641
1056491,3967440,Riverlea,OH,P1,39049,40.082008,-83.0251845
1056518,3972088,Sheffield Lake,OH,P1,39093,41.48754,-82.101537
1056540,3976050,Syracuse,OH,P1,39105,38.9975789,-81.9740274
1056557,3979394,Van Buren,OH,P1,39063,41.1386639,-83.6493768
1056558,3979632,Venedocia,OH,P1,39161,40.7864376,-84.4568981
1056562,3981858,Waterville,OH,P1,39095,41.5008859,-83.7182701
1056573,3984770,Whitehouse,OH,P1,39095,41.5189413,-83.8038284
1056575,3985512,Willoughby Hills,OH,P1,39085,41.5983823,-81.4184471
1056581,3986604,Worthington,OH,P1,39049,40.0931191,-83.017962
1056723,3909064,Broadview Heights,OH,P1,39035,41.3139426,-81.6851271
1056727,3909246,Brooklyn,OH,P1,39035,41.4397736,-81.7354098
1056728,3909358,Brookville,OH,P1,39113,39.8367207,-84.4113366
1056733,3909680,Brunswick,OH,P1,39103,41.2381096,-81.8418007
1056736,3910030,Bucyrus,OH,P1,39033,40.8083909,-82.9754649
1056738,3910254,Burbank,OH,P1,39169,40.988667,-81.9948684
1056740,3910282,Burgoon,OH,P1,39143,41.2675531,-83.2515892
1056745,3910674,Butlerville,OH,P1,39165,39.3025607,-84.0899337
1056747,3910716,Byesville,OH,P1,39059,39.9697942,-81.5365108
1056752,3910884,Cairo,OH,P1,39003,40.8319958,-84.0860576
1056754,3910954,Caledonia,OH,P1,39101,40.636448,-82.9690744
1056756,3911024,Camden,OH,P1,39135,39.6289418,-84.6485632
1056760,3911066,Campbell,OH,P1,39099,41.0783918,-80.5992396
1056765,3912084,Cardington,OH,P1,39117,40.500616,-82.8935146
1056766,3912112,Carey,OH,P1,39175,40.9525551,-83.3824238
1056767,3912168,Carlisle,OH,P1,39165,39.5820026,-84.3202194
1056768,3912252,Carroll,OH,P1,39045,39.7989528,-82.7010016
1056769,3912280,Carrollton,OH,P1,39019,40.5728404,-81.0856532
1056773,3912476,Castalia,OH,P1,39043,41.4000523,-82.8085204
1056774,3912504,Castine,OH,P1,39037,39.9317169,-84.6243989
1056775,3912560,Catawba,OH,P1,39023,39.999227,-83.6215913
1056780,3912784,Cedarville,OH,P1,39057,39.7442268,-83.8085372
1056789,3913554,Chardon,OH,P1,39055,41.6142173,-81.1489883
1056792,3913694,Chatfield,OH,P1,39033,40.9503343,-82.9449092
1056797,3913904,Chesapeake,OH,P1,39087,38.4278605,-82.457099
1056798,3914114,Chesterville,OH,P1,39117,40.4800607,-82.6835057
1056799,3914128,Cheviot,OH,P1,39061,39.1570028,-84.6132787
1056800,3914226,Chilo,OH,P1,39025,38.7931251,-84.140766
1056803,3915070,Circleville,OH,P1,39129,39.600618,-82.9460133
1056805,3915210,Clarington,OH,P1,39111,39.7656311,-80.8712059
1056810,3915406,Clarksville,OH,P1,39027,39.4014502,-83.9813202
1056811,3915644,Clayton,OH,P1,39113,39.8631101,-84.3605022
1056814,3916028,Cleves,OH,P1,39061,39.1617242,-84.749115
1056817,3916308,Clyde,OH,P1,39143,41.3042201,-82.975192
1056818,3916434,Coalton,OH,P1,39079,39.1136826,-82.6112746
1056830,3918014,Columbus Grove,OH,P1,39137,40.9194961,-84.0568896
1056835,3918504,Continental,OH,P1,39137,41.1003273,-84.2663351
1056836,3918546,Convoy,OH,P1,39161,40.916715,-84.702737
1056839,3918812,Cortland,OH,P1,39155,41.3303342,-80.7253575
1056840,3918868,Coshocton,OH,P1,39031,40.2720151,-81.8595757
1056842,3919050,Covington,OH,P1,39109,40.1172727,-84.3538367
1056849,3919400,Cridersville,OH,P1,39011,40.6542165,-84.1507814
1056852,3919456,Crooksville,OH,P1,39127,39.7689573,-82.0920868
1056854,3919694,Cumberland,OH,P1,39059,39.8520167,-81.6576272
1056856,3919750,Custar,OH,P1,39173,41.2847734,-83.8443835
1056858,3919820,Cygnet,OH,P1,39173,41.2400521,-83.6432659
1056881,3935476,Hilliard,OH,P1,39049,40.0333961,-83.1582451
1056902,3950862,Minerva Park,OH,P1,39049,40.0764526,-82.9437921
1056914,3961028,Parma Heights,OH,P1,39035,41.3900518,-81.7595769
1056916,3962414,Phillipsburg,OH,P1,39113,39.9044976,-84.4016147
1056948,3975126,Struthers,OH,P1,39099,41.0525588,-80.6078509
1056973,3921602,Delphos,OH,P1,39003,40.8433831,-84.341618
1057275,3916182,Clinton,OH,P1,39153,40.9267224,-81.6304022
1057730,3956994,North Robinson,OH,P1,39033,40.7925574,-82.8571274
1057795,3942938,Lewisburg,OH,P1,39135,39.8461629,-84.5396736
1057817,3944954,Lore City,OH,P1,39059,39.9847938,-81.4584523
1057819,3945220,Lower Salem,OH,P1,39167,39.5611846,-81.3965084
1057845,3950008,Midway,OH,P1,39097,39.7333933,-83.477697
1057849,3950372,Millersburg,OH,P1,39075,40.5545071,-81.9179198
1057850,3950764,Mineral City,OH,P1,39157,40.6011734,-81.3612236
1057901,3958520,Ontario,OH,P1,39139,40.7595013,-82.5901725
1057914,3961182,Patterson,OH,P1,39065,40.7806102,-83.5257602
1057927,3963436,Pleasant City,OH,P1,39059,39.9036834,-81.5454007
1057972,3968672,Rossburg,OH,P1,39037,40.2789361,-84.6374571
1057982,3969540,Saint Henry,OH,P1,39107,40.4175467,-84.63968
1057993,3969666,Saint Martin,OH,P1,39015,39.2145071,-83.893262
1058010,3971206,Seaman,OH,P1,39001,38.942014,-83.5724181
1058048,3974804,Stone Creek,OH,P1,39157,40.3972892,-81.5620643
1058052,3975000,Stratton,OH,P1,39081,40.5217323,-80.6261845
1058054,3975140,Stryker,OH,P1,39171,41.5036623,-84.4141164
1058075,3976778,Tiffin,OH,P1,39147,41.1144992,-83.1779747
1058089,3978624,Union City,OH,P1,39037,40.1994911,-84.8052397
1058096,3979562,Van Wert,OH,P1,39161,40.8694927,-84.5841223
1058101,3973796,South Vienna,OH,P1,39023,39.9270046,-83.6124236
1058107,3982348,Wayne Lakes Park,OH,C4,39037,40.0231047,-84.6619007
1058110,3982376,Waynesburg,OH,P1,39151,40.6678388,-81.2573307
1058126,3983384,West Farmington,OH,P1,39155,41.3906111,-80.9734255
1058129,3983608,West Lafayette,OH,P1,39031,40.2753487,-81.7509601
1058142,3985232,Willard,OH,P1,39077,41.0531109,-82.7262906
1058155,3987164,Yorkshire,OH,P1,39037,40.3253252,-84.4955081
1058156,3988000,Youngstown,OH,P1,39099,41.0997803,-80.6495194
1058166,3904752,Beaverdam,OH,P1,39003,40.8333852,-83.9766102
1058167,3910996,Cambridge,OH,P1,39059,40.031183,-81.5884561
1058187,3941902,La Rue,OH,P1,39101,40.5764456,-83.3846442
1058268,3975196,Sugar Bush Knolls,OH,P1,39133,41.2045005,-81.3459407
1059632,3944366,Lockland,OH,P1,39061,39.2292249,-84.4577201
1060817,3901042,Albany,OH,P1,39009,39.2275735,-82.2023695
1060832,3902568,Ashland,OH,P1,39005,40.8686675,-82.3182178
1060840,3903562,Bailey Lake,OH,C4,39005,40.945889,-82.3596088
1060844,3903940,Barnhill,OH,P1,39157,40.4481211,-81.3690007
1060854,3904878,Bedford,OH,P1,39035,41.3931096,-81.5365094
1060860,3905074,Bellaire,OH,P1,39013,40.0161843,-80.7423054
1060909,3910296,Burkettsville,OH,P1,39107,40.3519914,-84.6421798
1060914,3910632,Butler,OH,P1,39139,40.5883933,-82.4248862
1060923,3911304,Canal Fulton,OH,P1,39151,40.8897784,-81.597623
1060936,3913036,Centerburg,OH,P1,39083,40.3045067,-82.6962829
1060960,3914184,Chillicothe,OH,P1,39141,39.3331197,-82.9824019
1060962,3914296,Christiansburg,OH,P1,39021,40.0553348,-84.026048
1060975,3915336,Clarksburg,OH,P1,39141,39.50534,-83.1532433
1060984,3916532,Coldwater,OH,P1,39107,40.4797688,-84.628291
1060986,3916700,College Corner,OH,P1,39135,39.5675514,-84.8144004
1060989,3917036,Columbiana,OH,P1,39029,40.8883931,-80.6939643
1060991,3918070,Commercial Point,OH,P1,39129,39.7683959,-83.0571297
1060994,3918308,Congress,OH,P1,39169,40.9258895,-82.0529273
1060999,3918840,Corwin,OH,P1,39165,39.5250603,-84.0782673
1061006,3919330,Crestline,OH,P1,39033,40.7875572,-82.7365677
1061007,3919344,Creston,OH,P1,39169,40.9869997,-81.8937511
1061018,3921378,De Graff,OH,P1,39091,40.3119964,-83.9157705
1061038,3923730,East Liverpool,OH,P1,39029,40.6186756,-80.5772928
1061041,3924052,East Sparta,OH,P1,39151,40.667283,-81.354835
1061050,3924766,Eldorado,OH,P1,39135,39.9019943,-84.6749557
1061080,3928616,Fredericksburg,OH,P1,39169,40.6767255,-81.8704168
1061095,3930072,Gibsonburg,OH,P1,39143,41.3844964,-83.3204807
1061112,3931472,Gratis,OH,P1,39135,39.6478321,-84.5271711
1061115,3932256,Green Springs,OH,P1,39143,41.2561649,-83.051583
1061147,3947180,Mantua,OH,P1,39133,41.2839442,-81.2239908
1061157,3951310,Monroe,OH,P1,39017,39.440336,-84.3621634
1061169,3955104,New Miami,OH,P1,39017,39.4347787,-84.5368907
1061198,3971892,Sharonville,OH,P1,39061,39.2681136,-84.4132746
1061202,3971976,Shawnee Hills,OH,P1,39041,40.1578399,-83.1340782
1061205,3974076,Springboro,OH,P1,39165,39.5522815,-84.2332718
1061212,3975014,Streetsboro,OH,P1,39133,41.2392227,-81.3459405
1061369,3931402,Granville,OH,P1,39089,40.0681192,-82.5196037
1061427,3937842,Jackson,OH,P1,39079,39.0520169,-82.6365537
1061436,3944604,Lodi,OH,P1,39103,41.0333889,-82.0120908
1061440,3944674,London,OH,P1,39097,39.8864493,-83.448253
1061443,3944912,Lordstown,OH,P1,39155,41.1656129,-80.8575849
1061446,3945066,Loudonville,OH,P1,39005,40.6353382,-82.2332144
1061447,3945094,Louisville,OH,P1,39151,40.8372809,-81.2595519
1061451,3945374,Ludlow Falls,OH,P1,39109,39.9981082,-84.3388362
1061453,3945556,Lyndhurst,OH,P1,39035,41.5200523,-81.4887315
1061456,3945626,Lyons,OH,P1,39051,41.6994955,-84.0702235
1061458,3945976,Macedonia,OH,P1,39153,41.3136664,-81.5084499
1061459,3946312,Madeira,OH,P1,39061,39.1908926,-84.3635507
1061460,3946480,Madison,OH,P1,39085,41.7711633,-81.049819
1061464,3946998,Malvern,OH,P1,39019,40.6917271,-81.1812148
1061465,3947012,Manchester,OH,P1,39001,38.6881293,-83.6093611
1061471,3947474,Marble Cliff,OH,P1,39049,39.9867306,-83.0615745
1061472,3947600,Mariemont,OH,P1,39061,39.14506,-84.3743841
1061473,3947754,Marion,OH,P1,39101,40.5886699,-83.1285242
1061474,3947992,Marseilles,OH,P1,39175,40.7014449,-83.3927003
1061476,3948048,Marshallville,OH,P1,39169,40.9022772,-81.7340193
1061478,3948104,Martins Ferry,OH,P1,39013,40.0959055,-80.724526
1061479,3948090,Martinsburg,OH,P1,39083,40.2697883,-82.3540433
1061480,3948160,Marysville,OH,P1,39159,40.2364486,-83.3671432
1061481,3948188,Mason,OH,P1,39165,39.3600586,-84.309939
1061483,3948244,Massillon,OH,P1,39151,40.7967244,-81.5215093
1061485,3948342,Maumee,OH,P1,39095,41.5628294,-83.6538244
1061487,3948468,Mayfield,OH,P1,39035,41.5519952,-81.4392828
1061491,3945808,McComb,OH,P1,39063,41.1075523,-83.7927147
1061495,3945822,McConnelsville,OH,P1,39115,39.6486822,-81.8531912
1061498,3946046,McGuffey,OH,P1,39065,40.69283,-83.7854909
1061501,3948706,Mechanicsburg,OH,P1,39021,40.0720039,-83.5563133
1061504,3948790,Medina,OH,P1,39103,41.1383878,-81.8637474
1061507,3949000,Melrose,OH,P1,39125,41.0922715,-84.4196708
1061515,3949700,Middlefield,OH,P1,39055,41.4619986,-81.0737079
1061516,3949756,Middleport,OH,P1,39105,39.0017452,-82.0487525
1061519,3949840,Middletown,OH,P1,39017,39.5150576,-84.3982763
1061520,3949896,Midland,OH,P1,39027,39.3061729,-83.9110402
1061521,3950036,Mifflin,OH,P1,39005,40.773946,-82.36433
1061522,3950134,Milan,OH,P1,39043,41.2975519,-82.6054547
1061523,3950176,Milford,OH,P1,39025,39.1753377,-84.2943821
1061524,3950218,Milford Center,OH,P1,39159,40.1786706,-83.4354782
1061526,3950540,Millville,OH,P1,39017,39.389222,-84.6543933
1061537,3962498,Pickerington,OH,P1,39045,39.8842304,-82.7535049
1061541,3962708,Piketon,OH,P1,39131,39.0681252,-83.0143443
1061544,3962848,Piqua,OH,P1,39109,40.1447732,-84.2424449
1061547,3963030,Plain City,OH,P1,39097,40.1075615,-83.2674165
1061548,3963044,Plainfield,OH,P1,39031,40.209516,-81.7195699
1061552,3963534,Pleasant Hill,OH,P1,39109,40.0517184,-84.3443919
1061555,3963576,Pleasant Plain,OH,P1,39165,39.2795049,-84.1121563
1061558,3963716,Pleasantville,OH,P1,39045,39.8097864,-82.5221031
1061561,3963954,Poland,OH,P1,39099,41.0242258,-80.6147954
1061562,3963996,Polk,OH,P1,39005,40.9445003,-82.2154361
1061563,3964024,Pomeroy,OH,P1,39105,39.0275781,-82.033752
1061564,3964150,Port Clinton,OH,P1,39123,41.5119954,-82.9376919
1061565,3964262,Port Jefferson,OH,P1,39149,40.328661,-84.0943865
1061566,3964108,Portage,OH,P1,39173,41.3267189,-83.6507668
1061567,3964304,Portsmouth,OH,P1,39145,38.7317431,-82.9976742
1061569,3964486,Powell,OH,P1,39041,40.1578403,-83.0751869
1061570,3964542,Powhatan Point,OH,P1,39013,39.860075,-80.815368
1061574,3964766,Proctorville,OH,P1,39087,38.4370282,-82.3770959
1061575,3964780,Prospect,OH,P1,39101,40.4503374,-83.1885258
1061578,3965116,Quaker City,OH,P1,39059,39.9700707,-81.2992798
1061585,3965508,Rarden,OH,P1,39145,38.9222941,-83.2424066
1061586,3965592,Ravenna,OH,P1,39133,41.1575566,-81.2420473
1061596,3966320,Republic,OH,P1,39147,41.1219995,-83.015747
1061597,3966390,Reynoldsburg,OH,P1,39049,39.9547861,-82.8121191
1061599,3966530,Richfield,OH,P1,39153,41.2397772,-81.6381785
1061602,3966936,Richwood,OH,P1,39159,40.4264477,-83.2968631
1061606,3967118,Ridgeway,OH,P1,39065,40.5139432,-83.572706
1061608,3967272,Ripley,OH,P1,39015,38.7456277,-83.8449245
1061609,3967356,Rittman,OH,P1,39169,40.9781103,-81.7820775
1061618,3967762,Rochester,OH,P1,39093,41.1264425,-82.3051625
1061619,3967846,Rock Creek,OH,P1,39007,41.6603329,-80.8606439
1061624,3967874,Rockford,OH,P1,39107,40.6878252,-84.6466255
1061627,3968042,Rocky Ridge,OH,P1,39123,41.5333832,-83.2124234
1061657,3974216,Spring Valley,OH,P1,39057,39.6089491,-84.0077105
1061662,3975574,Summitville,OH,P1,39029,40.6781165,-80.8861964
1061667,3975896,Swanton,OH,P1,39051,41.588663,-83.8910534
1061668,3976022,Sylvania,OH,P1,39095,41.7189392,-83.7129935
1061671,3976106,Tallmadge,OH,P1,39153,41.1014451,-81.441779
1061673,3976148,Tarlton,OH,P1,39129,39.5558964,-82.7760048
1061680,3976428,Terrace Park,OH,P1,39061,39.1592269,-84.3071602
1061689,3976806,Tiltonsville,OH,P1,39081,40.1667381,-80.699802
1061690,3976834,Timberlake,OH,P1,39085,41.6658798,-81.4431694
1061692,3976876,Tipp City,OH,P1,39109,39.9583892,-84.1721638
1061694,3976932,Tiro,OH,P1,39033,40.9056121,-82.7726803
1061697,3977070,Tontogany,OH,P1,39173,41.419219,-83.7407702
1061699,3977112,Toronto,OH,P1,39081,40.4642335,-80.6009058
1061702,3977308,Tremont City,OH,P1,39023,40.0111706,-83.8360414
1061703,3977322,Trenton,OH,P1,39017,39.4808905,-84.4577222
1061709,3977504,Trotwood,OH,P1,39113,39.7972788,-84.3113334
1061714,3977924,Tuscarawas,OH,P1,39157,40.3947887,-81.4070577
1061716,3978050,Twinsburg,OH,P1,39153,41.3125552,-81.4401129
1061719,3978176,Uhrichsville,OH,P1,39157,40.3931218,-81.3464998
1061730,3983734,West Liberty,OH,P1,39091,40.2522771,-83.7557663
1061731,3983804,West Manchester,OH,P1,39135,39.9025504,-84.6263432
1061732,3982880,West Alexandria,OH,P1,39135,39.7444973,-84.5321727
1061743,3983818,West Mansfield,OH,P1,39091,40.4020003,-83.5452051
1061746,3983888,West Millgrove,OH,P1,39173,41.2439416,-83.491317
1061747,3983902,West Milton,OH,P1,39109,39.9625534,-84.3280022
1061755,3984294,West Union,OH,P1,39001,38.7945166,-83.5451934
1061759,3983342,Westerville,OH,P1,39049,40.1261743,-82.9290696
1061761,3983468,Westfield Center,OH,P1,39103,41.0264442,-81.9331974
1061762,3983622,Westlake,OH,P1,39035,41.4553232,-81.9179174
1061765,3983972,Weston,OH,P1,39173,41.344774,-83.7971603
1061770,3984574,Wharton,OH,P1,39175,40.8614438,-83.461592
1061775,3985036,Wickliffe,OH,P1,39085,41.6053266,-81.4534492
1061779,3985190,Wilkesville,OH,P1,39163,39.0745195,-82.3259856
1061782,3985288,Williamsburg,OH,P1,39025,39.0542312,-84.0529886
1061788,3985484,Willoughby,OH,P1,39085,41.6397696,-81.4065011
1061791,3985736,Willshire,OH,P1,39161,40.7486584,-84.7910739
1061792,3985792,Wilmington,OH,P1,39027,39.4453393,-83.8285375
1061793,3985806,Wilmot,OH,P1,39151,40.6558931,-81.63207
1061794,3985946,Windham,OH,P1,39133,41.2350562,-81.0492611
1061801,3986478,Woodstock,OH,P1,39021,40.1739475,-83.5274254
1061805,3986772,Xenia,OH,P1,39057,39.6847822,-83.9296526
1061807,3986940,Yellow Springs,OH,P1,39057,39.8064486,-83.886874
1061809,3988070,Zanesfield,OH,P1,39091,40.338388,-83.6771533
1062554,3975210,Sugarcreek,OH,P1,39157,40.50312,-81.6409582
1062797,3932606,Groveport,OH,P1,39049,39.8783971,-82.8837888
1063113,3940670,Kirtland Hills,OH,P1,39085,41.623912,-81.309342
1064295,3900198,Ada,OH,P1,39065,40.7694969,-83.8227149
1064297,3900380,Adamsville,OH,P1,39119,40.0697925,-81.8823542
1064299,3900436,Addyston,OH,P1,39061,39.1367249,-84.709114
1064300,3900450,Adelphi,OH,P1,39141,39.4667304,-82.7471145
1064305,3901000,Akron,OH,P1,39153,41.0814447,-81.5190053
1064308,3901154,Alexandria,OH,P1,39089,40.0889524,-82.6123872
1064310,3901210,Alger,OH,P1,39065,40.7061631,-83.8438267
1064313,3901420,Alliance,OH,P1,39151,40.9153362,-81.1059309
1064320,3901798,Amherst,OH,P1,39093,41.3978217,-82.2223775
1064328,3902050,Andover,OH,P1,39007,41.6067211,-80.572296
1064331,3902092,Anna,OH,P1,39149,40.3944932,-84.1727231
1064333,3902120,Ansonia,OH,P1,39037,40.214492,-84.6369011
1064336,3902232,Apple Creek,OH,P1,39169,40.7517229,-81.8393038
1064338,3902316,Arcadia,OH,P1,39063,41.1083868,-83.5168725
1064339,3902344,Archbold,OH,P1,39051,41.5214401,-84.307172
1064342,3902400,Arlington,OH,P1,39063,40.8936647,-83.6502092
1064343,3902428,Arlington Heights,OH,P1,39061,39.2150584,-84.4554978
1064347,3902582,Ashley,OH,P1,39041,40.4089499,-82.955461
1064348,3902680,Ashville,OH,P1,39129,39.7156186,-82.9529584
1064359,3903086,Aurora,OH,P1,39133,41.3175549,-81.3453858
1064365,3903352,Avon,OH,P1,39093,41.4517093,-82.0354225
1064377,3903744,Baltic,OH,P1,39157,40.440066,-81.699016
1064378,3903758,Baltimore,OH,P1,39045,39.8453418,-82.6007185
1064381,3903926,Barnesville,OH,P1,39013,39.9881261,-81.1764961
1064389,3904192,Batesville,OH,P1,39121,39.9142377,-81.2812241
1064393,3904416,Bay Village,OH,P1,39035,41.4847663,-81.9220845
