GNIS ID,GEOID,Name,State,FIPS Class,County GEOID,Latitude,Longitude
58291,0550780,Oakgrove,AR,C4,05015,36.4561777,-93.4365744
65513,0538110,Lakeview,AR,C4,05107,34.4167691,-90.8009436
71610,0523650,Fiftysix,AR,C4,05137,35.9575734,-92.2184879
76355,0506430,Biscoe,AR,C4,05117,34.8209271,-91.4042954
77422,0537720,La Grange,AR,C4,05077,34.656488,-90.7328884
120788,0138248,Jacksons Gap,AL,C4,01123,32.8862364,-85.8116265
154970,0103724,Baker Hill,AL,C4,01005,31.7812748,-85.3021583
156909,0160984,Pleasant Grove,AL,C4,01071,34.9436942,-85.9216452
196400,0853560,New Raymer,CO,C4,08123,40.606653,-103.843839
213692,1007270,Bowers Beach,DE,C4,10001,39.0598349,-75.4013071
254139,0656056,Paso Robles,CA,C4,06079,35.6266369,-120.6910043
278455,1205150,Belleair Shores,FL,C4,12103,27.916688,-82.8453817
282293,1221435,Everglades City,FL,C4,12021,25.8601002,-81.380357
283408,1227325,Greenacres City,FL,C4,12099,26.623679,-80.1253213
284499,1233437,Indian Creek Village,FL,C4,12086,25.8781508,-80.1361566
284606,1234125,Islamorada,FL,C4,12087,24.9242995,-80.6278404
284706,1235210,Jacobs,FL,C4,12063,30.8949096,-85.3977091
285002,1235898,Jupiter Inlet Beach Colony,FL,C4,12099,26.9489465,-80.0747637
286403,1243075,Marco,FL,C4,12021,25.9725975,-81.7289763
295002,1232775,Howey-in-the-Hills,FL,C4,12069,28.7169384,-81.7734106
295287,1223650,Fort Barrancas (historical),FL,M1,12033,30.3479773,-87.2971948
295295,1224078,Fort McRee (historical),FL,M1,12033,30.3258333,-87.3169444
295296,1224395,Fort Redoubt (historical),FL,M1,12033,30.3554771,-87.2969171
295297,1224410,Fort San Carlos (historical),FL,M1,12033,30.3471439,-87.296917
295298,1224425,Fort Zachary Taylor (historical),FL,M1,12087,24.5475,-81.81
305079,1254500,Palm Springs North Census Designated Place,FL,U1,12086,25.9350949,-80.3338347
310670,1304196,Augusta,GA,C4,13245,33.4709702,-81.9748379
316522,1344340,La Grange,GA,C4,13285,33.039291,-85.0313269
331886,1335800,Gum Branch,GA,C4,13179,31.8582642,-81.7267801
355414,1321017,Cusseta,GA,C4,13053,32.3054268,-84.7727027
355464,1322472,DeSoto,GA,C4,13261,31.955448,-84.0621252
355642,1326224,Edgehill,GA,C4,13125,33.1523705,-82.6242982
355995,1332524,Georgetown,GA,C4,13239,31.884605,-85.1074308
397206,1677060,State Line Village,ID,C4,16055,47.7043448,-117.0374218
400590,1608700,Boise,ID,C4,16001,43.6135002,-116.2034505
406320,1715339,Coello,IL,C4,17055,37.9942168,-89.0672974
408937,1728820,Geff,IL,C4,17191,38.4425483,-88.4042141
409559,1731992,Gulfport,IL,C4,17071,40.813928,-91.0862558
409731,1732616,Logan,IL,C4,17055,37.9558825,-88.8403427
411684,1740675,Lafayette,IL,C4,17175,41.1080927,-89.9714998
414472,1752948,New Windsor,IL,C4,17131,41.2022584,-90.4423521
419798,1775874,Tower Lake,IL,C4,17097,42.2319682,-88.1520248
420187,1777083,Utica,IL,C4,17099,41.3405897,-89.010081
422272,1730679,Grand Chain,IL,C4,17153,37.2517187,-89.0234037
426969,1775458,Timewell,IL,C4,17009,40.007826,-90.8737433
426997,1742184,La Salle,IL,C4,17099,41.3333679,-89.0917497
428803,1703114000,City of Chicago,IL,C5,17031,41.837107,-87.6851202
446173,1884788,Windfall,IN,C4,18159,40.3630938,-85.9563738
449734,1872746,State Line,IN,C4,18171,40.1972589,-87.5269616
457951,1939630,Jewell,IA,C4,19079,42.3069254,-93.6402159
467384,1901135,City of Algona,IA,C2,19109,43.0743361,-94.2310707
467432,1905590,City of Belle Plaine,IA,C2,19011,41.8953732,-92.2750678
467463,1907030,City of Bloomfield,IA,C2,19051,40.7487331,-92.4173905
467532,1911080,City of Carroll,IA,C2,19027,42.0698362,-94.8646399
467567,1912000,City of Cedar Rapids,IA,C2,19113,41.9661705,-91.6783438
467589,1912315,City of Centerville,IA,C2,19007,40.7292389,-92.8716303
467591,1912720,City of Chariton,IA,C2,19117,41.0174477,-93.3096294
467592,1912765,City of Charles City,IA,C2,19067,43.0645466,-92.674476
467618,1914025,City of Clear Lake,IA,C2,19033,43.134732,-93.3740117
467625,1914430,City of Clinton,IA,C2,19045,41.8434374,-90.2411374
467666,1917265,City of Creston,IA,C2,19175,41.0597668,-94.3649873
467672,1918075,City of Dakota City,IA,C2,19091,42.7229126,-94.197677
467744,1922395,City of Dubuque,IA,C2,19061,42.5002906,-90.7069637
467769,1924465,City of Eldora,IA,C2,19083,42.360533,-93.1012949
467811,1926445,City of Fairfield,IA,C2,19101,41.0063597,-91.9665845
467827,1927165,City of Fayette,IA,C2,19065,42.8417553,-91.8037552
467843,1928515,City of Fort Dodge,IA,C2,19187,42.5098328,-94.1751313
467979,1933105,City of Grinnell,IA,C2,19157,41.7359234,-92.7244018
467990,1933780,City of Hamburg,IA,C2,19071,40.6062154,-95.6547199
467996,1933960,City of Hampton,IA,C2,19069,42.7419897,-93.2049901
468007,1934500,City of Harlan,IA,C2,19165,41.6495371,-95.3267946
468059,1937560,City of Humboldt,IA,C2,19091,42.7229097,-94.2240875
468071,1938280,City of Indianola,IA,C2,19181,41.3628869,-93.565162
468086,1938595,City of Iowa City,IA,C2,19103,41.655933,-91.5303835
468135,1939450,City of Jefferson,IA,C2,19073,42.0173187,-94.3799311
468166,1940845,City of Keokuk,IA,C2,19111,40.4094418,-91.4030286
468186,1942465,City of Lake City,IA,C2,19025,42.2676703,-94.7310547
468191,1942960,City of Lamoni,IA,C2,19053,40.6201407,-93.9308065
468204,1944535,City of Leon,IA,C2,19053,40.7408719,-93.7546149
468337,1948720,City of Malvern,IA,C2,19129,41.0037479,-95.5841414
468338,1948945,City of Manning,IA,C2,19027,41.9092377,-95.0642834
468366,1950160,City of Mason City,IA,C2,19033,43.1486959,-93.1996594
468415,1954480,City of Mount Ayr,IA,C2,19159,40.7141092,-94.2375407
468416,1954705,City of Mount Pleasant,IA,C2,19087,40.9624925,-91.5451313
468464,1959115,City of Onawa,IA,C2,19133,42.0264752,-96.0909165
468477,1959835,City of Osceola,IA,C2,19039,41.0304134,-93.7839844
468480,1959925,City of Oskaloosa,IA,C2,19123,41.2922094,-92.6404147
468637,1968520,City of Rolfe,IA,C2,19151,42.8129052,-94.5313069
468687,1972210,City of Sheffield,IA,C2,19069,42.8928994,-93.2086393
468690,1972480,City of Shellsburg,IA,C2,19011,42.0928763,-91.8712604
468720,1919373335,City of Sioux City,IA,C5,19193,42.49582,-96.3901319
468721,1973425,City of Sioux Rapids,IA,C2,19021,42.8916718,-95.1485378
468732,1974280,City of Spencer,IA,C2,19041,43.146729,-95.1534326
468754,1975630,City of Storm Lake,IA,C2,19021,42.6430944,-95.1960326
468764,1976260,City of Sumner,IA,C2,19017,42.8497898,-92.0969537
468776,1907176935,City of Tabor,IA,C6,19071,40.8949301,-95.6736246
468871,1981210,City of Vinton,IA,C2,19011,42.1631607,-92.0259699
468951,1982425,City of Waterloo,IA,C2,19013,42.4918245,-92.352183
468955,1982875,City of Waverly,IA,C2,19017,42.7249741,-92.4708058
468965,1983145,City of Webster City,IA,C2,19079,42.4622461,-93.8167703
468989,1984765,City of West Union,IA,C2,19065,42.9588745,-91.8130233
469011,1986520,City of Winterset,IA,C2,19121,41.3449771,-94.0138044
471381,2027050,Gove,KS,C4,20063,38.9577876,-100.4887486
471702,2035575,Johnson,KS,C4,20187,37.5705725,-101.7510047
472553,2040800,Lincoln,KS,C4,20105,39.0408395,-98.1447743
473837,2005400,Bellaire,KS,C4,20173,37.7625125,-97.266988
485539,2004100125,City of Abilene,KS,C5,20041,38.9229511,-97.2251507
485540,2007701975,City of Anthony,KS,C5,20077,37.1588619,-98.0418463
485541,2003502300,City of Arkansas City,KS,C5,20035,37.0726852,-97.0385149
485542,2000502900,City of Atchison,KS,C5,20005,39.5625233,-95.136875
485543,2001503300,City of Augusta,KS,C5,20015,37.6945022,-96.9730877
485544,2002104625,City of Baxter Springs,KS,C5,20021,37.019552,-94.7350731
485545,2017305337,City of Bel Aire,KS,C5,20173,37.7749026,-97.2457389
485546,2015705600,City of Belleville,KS,C5,20157,39.8245163,-97.6336608
485547,2012305775,City of Beloit,KS,C5,20123,39.4644724,-98.1082756
485548,2020907975,City of Bonner Springs,KS,C5,20209,39.0816878,-94.8775822
485549,2003109400,City of Burlington,KS,C5,20031,38.1931591,-95.7452784
485550,2019109900,City of Caldwell,KS,C5,20191,37.0350095,-97.6088678
485551,2012510375,City of Caney,KS,C5,20125,37.0139562,-95.9315177
485552,2013312500,City of Chanute,KS,C5,20133,37.6694935,-95.462076
485553,2012512925,City of Cherryvale,KS,C5,20125,37.2690039,-95.5536297
485554,2009912950,City of Chetopa,KS,C5,20099,37.0376312,-95.0923153
485555,2002713625,City of Clay Center,KS,C5,20027,39.3811978,-97.1277964
485556,2012514600,City of Coffeyville,KS,C5,20125,37.0350206,-95.6300635
485557,2019314650,City of Colby,KS,C5,20193,39.3848029,-101.0452123
485558,2002115075,City of Columbus,KS,C5,20021,37.1716139,-94.8440757
485559,2002915200,City of Concordia,KS,C5,20029,39.5668651,-97.6467663
485560,2012715925,City of Council Grove,KS,C5,20127,38.6617443,-96.4908027
485562,2009117850,City of De Soto,KS,C5,20091,38.9687274,-94.9550107
485563,2005718250,City of Dodge City,KS,C5,20057,37.7610037,-100.018225
485565,2009119825,City of Edgerton,KS,C5,20091,38.7716273,-94.970593
485566,2020920000,City of Edwardsville,KS,C5,20209,39.0764956,-94.8166175
485567,2001520075,City of El Dorado,KS,C5,20015,37.8209026,-96.8612898
485568,2000920425,City of Ellinwood,KS,C5,20009,38.3573592,-98.5836573
485569,2005120450,City of Ellis,KS,C5,20051,38.9346545,-99.5567917
485570,2005320500,City of Ellsworth,KS,C5,20053,38.7326385,-98.2285675
485571,2011121275,City of Emporia,KS,C5,20111,38.4027683,-96.1932767
485572,2007321800,City of Eureka,KS,C5,20073,37.8260478,-96.2890012
485573,2009122700,City of Fairway,KS,C5,20091,39.0245248,-94.6287174
485574,2011523600,City of Florence,KS,C5,20115,38.2431152,-96.9291976
485575,2001124000,City of Fort Scott,KS,C5,20011,37.828323,-94.7038779
485576,2020524575,City of Fredonia,KS,C5,20205,37.5328161,-95.8223142
485577,2003724850,City of Frontenac,KS,C5,20037,37.4580579,-94.7011434
485578,2002125100,City of Galena,KS,C5,20021,37.0750886,-94.6353247
485579,2005525325,City of Garden City,KS,C5,20055,37.9752244,-100.8526021
485580,2009125425,City of Gardner,KS,C5,20091,38.8122664,-94.9273983
485581,2000325925,City of Garnett,KS,C5,20003,38.2844345,-95.2407083
485582,2003726300,City of Girard,KS,C5,20037,37.509357,-94.8455693
485583,2018126875,City of Goodland,KS,C5,20181,39.3489827,-101.7141493
485584,2000928300,City of Great Bend,KS,C5,20009,38.3592617,-98.8016143
485585,2028675,City of Greensburg,KS,C1,20097,37.6048753,-99.2895685
485586,2007929600,City of Halstead,KS,C5,20079,37.9999694,-97.5101758
485587,2007730175,City of Harper,KS,C5,20077,37.2850722,-98.0275917
485588,2030825,City of Haviland,KS,C1,20097,37.6174129,-99.1058204
485589,2005131100,City of Hays,KS,C5,20051,38.8822279,-99.3222289
485590,2012731400,City of Herington,KS,C5,20127,38.696762,-96.8030861
485591,2001331675,City of Hiawatha,KS,C5,20013,39.8518551,-95.5379982
485592,2011532275,City of Hillsboro,KS,C5,20115,38.352756,-97.1991614
485593,2000932550,City of Hoisington,KS,C5,20009,38.5180629,-98.7773756
485594,2008532825,City of Holton,KS,C5,20085,39.4698758,-95.7319474
485595,2001333200,City of Horton,KS,C5,20013,39.6635074,-95.5325237
485596,2000133450,City of Humboldt,KS,C5,20001,37.8124669,-95.4363069
485597,2015533625,City of Hutchinson,KS,C5,20155,38.0671025,-97.9080831
485598,2012533875,City of Independence,KS,C5,20125,37.2254871,-95.719377
485599,2000134300,City of Iola,KS,C5,20001,37.927417,-95.4005462
485600,2006135750,City of Junction City,KS,C5,20061,39.0276541,-96.8508105
485601,2020936000,City of Kansas City,KS,C5,20209,39.1235059,-94.7441843
485602,2009536950,City of Kingman,KS,C5,20095,37.6479556,-98.116518
485603,2004737075,City of Kinsley,KS,C5,20047,37.9223769,-99.4114068
485604,2000137725,City of La Harpe,KS,C5,20001,37.9166204,-95.3022432
485605,2009137975,City of Lake Quivira,KS,C5,20091,39.0392909,-94.7685015
485607,2010338650,City of Lansing,KS,C5,20103,39.2427993,-94.8970663
485608,2014538700,City of Larned,KS,C5,20145,38.1833901,-99.1012605
485609,2004538900,City of Lawrence,KS,C5,20045,38.9597563,-95.2641494
485610,2010339000,City of Leavenworth,KS,C5,20103,39.3231954,-94.9243658
485611,2009139075,City of Leawood,KS,C5,20091,38.9075493,-94.6258232
485612,2009139350,City of Lenexa,KS,C5,20091,38.9609042,-94.8018429
485613,2017539825,City of Liberal,KS,C5,20175,37.0465533,-100.9295603
485614,2011341375,City of Lindsborg,KS,C5,20113,38.5773217,-97.6738325
485615,2012142875,City of Louisburg,KS,C5,20121,38.6202394,-94.6770498
485616,2015943525,City of Lyons,KS,C5,20159,38.3462193,-98.2044763
485617,2011343950,City of McPherson,KS,C5,20113,38.3713534,-97.6605405
485618,2016144250,City of Manhattan,KS,C5,20161,39.1885687,-96.6048036
485619,2011544750,City of Marion,KS,C5,20115,38.3546505,-97.0081755
485620,2011745050,City of Marysville,KS,C5,20117,39.8431647,-96.6387062
485621,2009146000,City of Merriam,KS,C5,20091,39.0186015,-94.6933581
485622,2014347075,City of Minneapolis,KS,C5,20143,39.1242887,-97.6996553
485623,2009147225,City of Mission,KS,C5,20091,39.0269747,-94.6568469
485624,2009147350,City of Mission Hills,KS,C5,20091,39.0140893,-94.6171229
485625,2009147425,City of Mission Woods,KS,C5,20091,39.0341885,-94.6106048
485626,2003749025,City of Mulberry,KS,C5,20037,37.5560821,-94.6234417
485627,2049075,City of Mullinville,KS,C1,20097,37.5885744,-99.4755601
485628,2020549650,City of Neodesha,KS,C5,20205,37.4241218,-95.684786
485629,2007950475,City of Newton,KS,C5,20079,38.0367428,-97.3449119
485630,2015550525,City of Nickerson,KS,C5,20155,38.148899,-98.0882605
485631,2013751500,City of Norton,KS,C5,20137,39.8362199,-99.891596
485632,2003952000,City of Oberlin,KS,C5,20039,39.8230398,-100.5307377
485633,2009152575,City of Olathe,KS,C5,20091,38.8833073,-94.8199706
485634,2013953200,City of Osage City,KS,C5,20139,38.6336463,-95.8218063
485635,2012153225,City of Osawatomie,KS,C5,20121,38.5087369,-94.9365295
485636,2014153325,City of Osborne,KS,C5,20141,39.4404521,-98.6994685
485637,2009953450,City of Oswego,KS,C5,20099,37.1673815,-95.112102
485638,2005953550,City of Ottawa,KS,C5,20059,38.5996438,-95.263602
485639,2009153775,City of Overland Park,KS,C5,20091,38.8869695,-94.6870283
485640,2012154250,City of Paola,KS,C5,20121,38.5788007,-94.8617
485641,2009954675,City of Parsons,KS,C5,20099,37.3424555,-95.2663773
485642,2014755675,City of Phillipsburg,KS,C5,20147,39.751229,-99.3209851
485643,2003756025,City of Pittsburg,KS,C5,20037,37.4129201,-94.6984904
485644,2009157575,City of Prairie Village,KS,C5,20091,38.9874323,-94.6361047
485645,2015157625,City of Pratt,KS,C5,20151,37.7045588,-98.7573351
485646,2009160825,City of Roeland Park,KS,C5,20091,39.0358541,-94.6374089
485647,2016761825,City of Russell,KS,C5,20167,38.8874555,-98.8513939
485648,2013162025,City of Sabetha,KS,C5,20131,39.912871,-95.7914203
485649,2016962700,City of Salina,KS,C5,20169,38.8135551,-97.6142905
485650,2002163325,City of Scammon,KS,C5,20021,37.278067,-94.8230263
485651,2013163950,City of Seneca,KS,C5,20131,39.8379977,-96.0696084
485652,2009164500,City of Shawnee,KS,C5,20091,39.0157827,-94.8076282
485653,2009167625,City of Spring Hill,KS,C5,20091,38.7565235,-94.8201061
485654,2015968200,City of Sterling,KS,C5,20159,38.2094068,-98.2063712
485655,2017771000,City of Topeka,KS,C5,20177,39.0345957,-95.6954546
485656,2020175825,City of Washington,KS,C5,20201,39.8161146,-97.0487174
485657,2002176350,City of Weir,KS,C5,20021,37.3094543,-94.7741438
485658,2019176475,City of Wellington,KS,C5,20191,37.2717673,-97.3972145
485660,2009177500,City of Westwood,KS,C5,20091,39.0393794,-94.6155796
485661,2009177525,City of Westwood Hills,KS,C5,20091,39.0389049,-94.6096636
485662,2017379000,City of Wichita,KS,C5,20173,37.6895147,-97.3443058
485663,2003579950,City of Winfield,KS,C5,20035,37.2378562,-96.9851391
485664,2020780700,City of Yates Center,KS,C5,20207,37.8668211,-95.753814
485866,2100946,Allen City,KY,C4,21071,37.6095426,-82.7276582
496343,2146000,Lexington,KY,C4,21067,37.9886892,-84.4777153
498153,2151906,Middlesboro,KY,C4,21013,36.6084155,-83.7165824
509453,2148000,Louisville,KY,C4,21111,38.2542376,-85.759407
531563,1117225,Fort DeRussy (historical),DC,M1,11001,38.9630556,-77.0511111
545142,2207155000,City of New Orleans,LA,C5,22071,30.0686438,-89.9281282
554912,2239090,Keatchie,LA,C4,22031,32.1884945,-93.9054624
582333,2300102060,City of Auburn,ME,C5,23001,44.0851429,-70.2492867
582334,2301102100,City of Augusta,ME,C5,23011,44.3341018,-69.7318763
582340,2301902795,City of Bangor,ME,C5,23019,44.8322681,-68.7906073
582343,2302303355,City of Bath,ME,C5,23023,43.9345529,-69.8346374
582347,2302703950,City of Belfast,ME,C5,23027,44.4266442,-69.0274559
582353,2303104860,City of Biddeford,ME,C5,23031,43.4439802,-70.3981522
582366,2301906925,City of Brewer,ME,C5,23019,44.7835592,-68.7351593
582382,2302909585,City of Calais,ME,C5,23029,45.1339522,-67.2239198
582389,2300310565,City of Caribou,ME,C5,23003,46.8661775,-67.9919866
582460,2302921730,City of Eastport,ME,C5,23029,44.9146291,-67.0111933
582465,2300923200,City of Ellsworth,ME,C5,23009,44.5841833,-68.4871464
582486,2301127085,City of Gardiner,ME,C5,23011,44.1910431,-69.7921173
582505,2301130550,City of Hallowell,ME,C5,23011,44.2904833,-69.8140658
582554,2300138740,City of Lewiston,ME,C5,23001,44.0914582,-70.1680816
582648,2301955225,City of Old Town,ME,C5,23019,44.9491101,-68.7248765
582683,2300560545,City of Portland,ME,C5,23005,43.6470835,-70.1682277
582686,2300360825,City of Presque Isle,ME,C5,23003,46.68672,-67.9873503
582698,2301363590,City of Rockland,ME,C5,23013,44.1250046,-69.1315572
582705,2303164675,City of Saco,ME,C5,23031,43.5206754,-70.4239514
582712,2365725,City of Sanford,ME,C1,23031,43.4243722,-70.7572974
582738,2300571990,City of South Portland,ME,C5,23005,43.6317883,-70.2861903
582795,2301180740,City of Waterville,ME,C5,23011,44.5441434,-69.6624345
582802,2300582105,City of Westbrook,ME,C5,23005,43.6953623,-70.3538808
618166,2501127060,City of Greenfield,MA,C5,25011,42.6140256,-72.5985637
618180,2501300840,City of Agawam Town,MA,C5,25013,42.065729,-72.6525517
618181,2501313660,City of Chicopee,MA,C5,25013,42.1763828,-72.5718555
618193,2501376030,City of Westfield,MA,C5,25013,42.1381926,-72.7561028
618194,2501377890,City of West Springfield Town,MA,C5,25013,42.1253245,-72.6502406
618195,2501501370,Town of Amherst,MA,C5,25015,42.3644722,-72.5068646
618199,2501519370,City of Easthampton Town,MA,C5,25015,42.2651401,-72.6720518
618223,2501721990,City of Everett,MA,C5,25017,42.4064415,-71.0544671
618227,2501737000,City of Lowell,MA,C5,25017,42.638871,-71.3217142
618228,2501738715,City of Marlborough,MA,C5,25017,42.3494008,-71.5468106
618241,2501772600,City of Waltham,MA,C5,25017,42.3889141,-71.2423132
618242,2501773440,City of Watertown Town,MA,C5,25017,42.3699733,-71.1774323
618248,2500103690,City of Barnstable Town,MA,C5,25001,41.6679499,-70.3573273
618273,2500346225,City of North Adams,MA,C5,25003,42.6844007,-73.1166037
618278,2500502690,City of Attleboro,MA,C5,25005,41.9311103,-71.2948922
618282,2500523000,City of Fall River,MA,C5,25005,41.7136704,-71.1013963
618284,2500546598,Town of North Attleborough,MA,C5,25005,41.9699139,-71.3344708
618292,2500901260,City of Amesbury Town,MA,C5,25009,42.8529481,-70.9446321
618293,2500905595,City of Beverly,MA,C5,25009,42.5582768,-70.8434612
618297,2500926150,City of Gloucester,MA,C5,25009,42.6306123,-70.6835946
618302,2500940710,City of Methuen Town,MA,C5,25009,42.7339839,-71.1888295
618305,2500945245,City of Newburyport,MA,C5,25009,42.812392,-70.8874414
618307,2500952490,City of Peabody,MA,C5,25009,42.5335293,-70.9724663
618316,2502107740,City of Braintree Town,MA,C5,25021,42.2038447,-71.0022177
618321,2502125172,City of Franklin Town,MA,C5,25021,42.0862129,-71.4112801
618328,2502156000,City of Randolph Town,MA,C5,25021,42.1778471,-71.0539614
618335,2502581005,City of Winthrop Town,MA,C5,25025,42.3794265,-70.9657219
618363,2502723875,City of Fitchburg,MA,C5,25027,42.5912403,-71.8156014
618364,2502725485,City of Gardner,MA,C5,25027,42.5845154,-71.9867555
618369,2502735075,City of Leominster,MA,C5,25027,42.5208785,-71.771671
618383,2502763345,City of Southbridge Town,MA,C5,25027,42.0604341,-72.0337671
619386,2501330840,City of Holyoke,MA,C5,25013,42.2125207,-72.6411014
619387,2501352144,City of Palmer Town,MA,C5,25013,42.1887958,-72.3111544
619388,2501367000,City of Springfield,MA,C5,25013,42.1155037,-72.5395208
619392,2501546330,City of Northampton,MA,C5,25015,42.326635,-72.6745339
619396,2501711000,City of Cambridge,MA,C5,25017,42.3758431,-71.1184919
619404,2501737875,City of Malden,MA,C5,25017,42.4304692,-71.0576168
619405,2501739835,City of Medford,MA,C5,25017,42.4234233,-71.1086728
619406,2501740115,City of Melrose,MA,C5,25017,42.4556148,-71.0590082
619408,2501745560,City of Newton,MA,C5,25017,42.3316041,-71.2084272
619409,2501762535,City of Somerville,MA,C5,25017,42.3907393,-71.1013518
619411,2501781035,City of Woburn,MA,C5,25017,42.4868785,-71.1542665
619424,2500353960,City of Pittsfield,MA,C5,25003,42.4517085,-73.2605219
619435,2500545000,City of New Bedford,MA,C5,25005,41.6614929,-70.9381965
619440,2500569170,City of Taunton,MA,C5,25005,41.9035822,-71.0942855
619447,2500929405,City of Haverhill,MA,C5,25009,42.7838791,-71.0871577
619449,2500934550,City of Lawrence,MA,C5,25009,42.7002436,-71.162615
619450,2500937490,City of Lynn,MA,C5,25009,42.4744867,-70.9607087
619453,2500959105,City of Salem,MA,C5,25009,42.5138568,-70.8983295
619461,2502155745,City of Quincy,MA,C5,25021,42.262159,-71.0072208
619462,2502178972,City of Weymouth Town,MA,C5,25021,42.2069012,-70.944428
619463,2502507000,City of Boston,MA,C5,25025,42.3322325,-71.0163903
619464,2502513205,City of Chelsea,MA,C5,25025,42.3959078,-71.0325106
619465,2502556585,City of Revere,MA,C5,25025,42.4187096,-70.9914535
619466,2502308130,City of Bridgewater Town,MA,C5,25023,41.9728295,-70.9748752
619467,2502309000,City of Brockton,MA,C5,25023,42.0820603,-71.0241898
619493,2502782000,City of Worcester,MA,C5,25027,42.2705432,-71.8079399
623384,2616100,Clarkston,MI,C4,26125,42.735863,-83.4188304
634090,2661010,Orchard Lake,MI,C4,26125,42.5830887,-83.3593798
640187,2706050,Birchwood,MN,C4,27163,45.0610773,-92.9760491
642486,2713978,Cross Lake,MN,C4,27035,46.6594065,-94.1138727
663772,2702510576,City of Center City,MN,C5,27025,45.3943071,-92.8141312
663797,2702511350,City of Chisago City,MN,C5,27025,45.347394,-92.9116254
663803,2702311548,City of Clara City,MN,C5,27023,44.9576595,-95.3670983
664359,2709326126,City of Grove City,MN,C5,27093,45.1480792,-94.6814923
664474,2700129096,City of Hill City,MN,C5,27001,46.9716875,-93.5969505
664666,2715734172,City of Lake City,MN,C5,27157,44.445196,-92.2795654
664992,2716943144,City of Minnesota City,MN,C5,27169,44.092292,-91.7500002
665301,2711551064,City of Pine City,MN,C5,27115,45.8368039,-92.9681751
665407,2713754060,City of Rice Lake,MN,C5,27137,46.8976617,-92.113672
665486,2702556266,City of Rush City,MN,C5,27025,45.6875217,-92.9655106
666076,2704972328,City of Zumbrota,MN,C5,27049,44.2949937,-92.6736118
670437,2827740,Glens,MS,C4,28003,34.8662004,-88.4139352
671516,2833820,Houlka,MS,C4,28017,34.0381648,-89.0220059
677875,2868280,Slate Spring,MS,C4,28013,33.7406725,-89.3711841
716380,2916802,Country Club Village,MO,C4,29003,39.8322164,-94.8216324
718500,2927280,Glenallen,MO,C4,29017,37.3178318,-90.0278816
718624,2927946,Gorin,MO,C4,29199,40.3600374,-92.024343
735634,2929098,Green Castle,MO,C4,29211,40.2625233,-92.877981
735684,2941348,Lees Summit,MO,C4,29095,38.9108408,-94.3821724
736301,2926992,Gifford,MO,C4,29121,40.0255868,-92.6815828
753200,2915220,Cobalt Village,MO,C4,29123,37.5450533,-90.2876178
756639,2964514,Saint Johns,MO,C4,29189,38.7133845,-90.3431708
756843,2975796,Velda Village,MO,C4,29189,38.6900512,-90.2942805
758447,2969230,South West City,MO,C4,29119,36.5125756,-94.6113332
767557,2965000,City of Saint Louis,MO,C7,29510,38.6358461,-90.245098
779015,3001600,Anaconda,MT,C4,30023,46.1285369,-112.9422641
780689,3011275,Butte,MT,C4,30093,46.0038153,-112.5347447
827532,3105700,Boelus,NE,C4,31093,41.0739015,-98.7156316
829654,3120015,Greeley,NE,C4,31077,41.5486236,-98.5311848
837849,3108300975,City of Alma,NE,C5,31083,40.1035656,-99.3656932
837869,3106703390,City of Beatrice,NE,C5,31067,40.2736001,-96.7455471
837886,3110705455,City of Bloomfield,NE,C5,31107,42.5984122,-97.648138
837893,3104106610,City of Broken Bow,NE,C5,31041,41.4050799,-99.6408693
837913,3112108535,City of Central City,NE,C5,31121,41.1134693,-98.0007364
837923,3103509375,City of Clay Center,NE,C5,31035,40.5254713,-98.0549955
837933,3114110110,City of Columbus,NE,C5,31141,41.4366106,-97.3565536
837947,3110711230,City of Creighton,NE,C5,31107,42.4648571,-97.9071463
837950,3110711440,City of Crofton,NE,C5,31107,42.7316127,-97.4986081
837956,3102312315,City of David City,NE,C5,31023,41.2577916,-97.1282132
838009,3106117530,City of Franklin,NE,C5,31061,40.0965495,-98.9514248
838010,3105317670,City of Fremont,NE,C5,31053,41.439563,-96.4873445
838012,3112517810,City of Fullerton,NE,C5,31125,41.3647181,-97.9726209
838022,3112518475,City of Genoa,NE,C5,31125,41.4462143,-97.7322018
838031,3107919595,City of Grand Island,NE,C5,31079,40.9217655,-98.3586465
838051,3100121415,City of Hastings,NE,C5,31001,40.5960049,-98.3899884
838058,3113722640,City of Holdrege,NE,C5,31137,40.4394338,-99.3773028
838076,3101925055,City of Kearney,NE,C5,31019,40.7011484,-99.0835023
838151,3100333775,City of Neligh,NE,C5,31003,42.1289449,-98.0298018
838161,3105334720,City of North Bend,NE,C5,31053,41.4619769,-96.78572
838169,3102135490,City of Oakland,NE,C5,31021,41.8355782,-96.4668155
838176,3108937105,City of O'Neill,NE,C5,31089,42.4610191,-98.646494
838195,3105139695,City of Ponca,NE,C5,31051,42.5649528,-96.7091616
838204,3101940710,City of Ravenna,NE,C5,31019,41.02892,-98.9116377
838238,3105344280,City of Scribner,NE,C5,31053,41.6651015,-96.6653291
838277,3103547955,City of Sutton,NE,C5,31035,40.6071628,-97.8588794
838280,3102148515,City of Tekamah,NE,C5,31021,41.7780428,-96.224693
838282,3111948935,City of Tilden,NE,C5,31119,42.0434939,-97.8318085
838310,3115550965,City of Wahoo,NE,C5,31155,41.2165424,-96.6172719
838328,3103952575,City of West Point,NE,C5,31039,41.8379523,-96.7057484
838335,3103953450,City of Wisner,NE,C5,31039,41.9891494,-96.9146535
838343,3111934230,City of Newman Grove,NE,C5,31119,41.7468924,-97.7767019
863219,3209700,Carson City,NV,C7,32510,39.1511204,-119.7475563
873545,3300705140,City of Berlin,NH,C5,33007,44.4868924,-71.259899
873567,3301912900,City of Claremont,NH,C5,33019,43.3789837,-72.3367209
873569,3301314200,City of Concord,NH,C5,33013,43.2305491,-71.5595256
873580,3301718820,City of Dover,NH,C5,33017,43.1886988,-70.8845327
873600,3301327380,City of Franklin,NH,C5,33013,43.4499117,-71.669118
873635,3300539300,City of Keene,NH,C5,33005,42.9493572,-72.2997614
873639,3300140180,City of Laconia,NH,C5,33001,43.5724718,-71.4775414
873643,3300941300,City of Lebanon,NH,C5,33009,43.635251,-72.2530994
873658,3301145140,City of Manchester,NH,C5,33011,42.9847769,-71.4446995
873672,3301150260,City of Nashua,NH,C5,33011,42.7491379,-71.4909445
873703,3301562900,City of Portsmouth,NH,C5,33015,43.0580866,-70.7825601
873708,3301765140,City of Rochester,NH,C5,33017,43.2989751,-70.9786086
873721,3301769940,City of Somersworth,NH,C5,33017,43.2533842,-70.8854874
876615,3426310,Gladstone,NJ,C4,34035,40.7226007,-74.6654381
878839,3401352620,Borough of North Caldwell,NJ,C5,34013,40.8629411,-74.2575939
879183,3457270,Peapack,NJ,C4,34035,40.7167675,-74.6565489
885134,3400100100,City of Absecon,NJ,C5,34001,39.4228127,-74.4943822
885135,3400300700,Borough of Allendale,NJ,C5,34003,41.0332133,-74.1332967
885136,3402500730,Borough of Allenhurst,NJ,C5,34025,40.2361302,-74.0014135
885137,3402500760,Borough of Allentown,NJ,C5,34025,40.1777925,-74.587313
885138,3404101030,Borough of Alpha,NJ,C5,34041,40.6597588,-75.1571142
885139,3400301090,Borough of Alpine,NJ,C5,34003,40.9616653,-73.9198203
885140,3403701330,Borough of Andover,NJ,C5,34037,40.9859359,-74.7428609
885141,3402501960,City of Asbury Park,NJ,C5,34025,40.2226467,-74.0108373
885142,3400102080,City of Atlantic City,NJ,C5,34001,39.3775581,-74.4515597
885143,3402502110,Borough of Atlantic Highlands,NJ,C5,34025,40.4213445,-74.0242688
885144,3400702200,Borough of Audubon,NJ,C5,34007,39.890572,-75.0721899
885145,3400702230,Borough of Audubon Park,NJ,C5,34007,39.8969261,-75.0890145
885146,3400902320,Borough of Avalon,NJ,C5,34009,39.0905508,-74.73568
885147,3402502440,Borough of Avon-by-the-Sea,NJ,C5,34025,40.1913367,-74.0150716
885148,3402903130,Borough of Barnegat Light,NJ,C5,34029,39.7533573,-74.1083092
885149,3400703250,Borough of Barrington,NJ,C5,34007,39.8689354,-75.051361
885150,3402903520,Borough of Bay Head,NJ,C5,34029,40.0697939,-74.0478459
885151,3401703580,City of Bayonne,NJ,C5,34017,40.664678,-74.1093324
885152,3402903940,Borough of Beach Haven,NJ,C5,34029,39.5657722,-74.248742
885153,3402904180,Borough of Beachwood,NJ,C5,34029,39.928622,-74.2022598
885154,3400704750,Borough of Bellmawr,NJ,C5,34007,39.8665564,-75.0941074
885155,3402504930,Borough of Belmar,NJ,C5,34025,40.1797642,-74.0240773
885156,3404104990,Town of Belvidere,NJ,C5,34041,40.8294412,-75.0727918
885157,3400305170,Borough of Bergenfield,NJ,C5,34003,40.923608,-73.9982014
885158,3400705440,Borough of Berlin,NJ,C5,34007,39.7915173,-74.9374585
885159,3403505590,Borough of Bernardsville,NJ,C5,34035,40.7268331,-74.5917819
885160,3400505740,City of Beverly,NJ,C5,34005,40.0651895,-74.9221938
885161,3403106340,Borough of Bloomingdale,NJ,C5,34031,41.0300234,-74.3318756
885162,3401906370,Borough of Bloomsbury,NJ,C5,34019,40.6537108,-75.0839339
885163,3400306490,Borough of Bogota,NJ,C5,34003,40.8750682,-74.029348
885164,3402706610,Town of Boonton,NJ,C5,34027,40.9047171,-74.4050041
885165,3400506670,City of Bordentown,NJ,C5,34005,40.1493871,-74.7083511
885166,3403506790,Borough of Bound Brook,NJ,C5,34035,40.5676397,-74.5383328
885167,3402506970,Borough of Bradley Beach,NJ,C5,34025,40.2017393,-74.0126369
885168,3403707300,Borough of Branchville,NJ,C5,34037,41.1470796,-74.7494383
885169,3401107600,City of Bridgeton,NJ,C5,34011,39.4285614,-75.2280699
885170,3402507750,Borough of Brielle,NJ,C5,34025,40.1048431,-74.0636954
885171,3400107810,City of Brigantine,NJ,C5,34001,39.4136065,-74.3784918
885172,3400708170,Borough of Brooklawn,NJ,C5,34007,39.878813,-75.1207514
885173,3400108680,Borough of Buena,NJ,C5,34001,39.5282298,-74.9447727
885174,3400508920,City of Burlington,NJ,C5,34005,40.0784541,-74.85236
885175,3402709040,Borough of Butler,NJ,C5,34027,40.9989992,-74.34714
885176,3401909280,Borough of Califon,NJ,C5,34019,40.7192209,-74.8370103
885177,3400710000,City of Camden,NJ,C5,34007,39.9361416,-75.1073325
885178,3400910270,City of Cape May,NJ,C5,34009,38.940707,-74.9031803
885179,3400910330,Borough of Cape May Point,NJ,C5,34009,38.93715,-74.9651592
885180,3400310480,Borough of Carlstadt,NJ,C5,34003,40.8247041,-74.0611849
885181,3402310750,Borough of Carteret,NJ,C5,34023,40.5838636,-74.2273192
885182,3402712100,Borough of Chatham,NJ,C5,34027,40.7404716,-74.3838156
885183,3400712550,Borough of Chesilhurst,NJ,C5,34007,39.7306397,-74.8785832
885184,3402712580,Borough of Chester,NJ,C5,34027,40.7873925,-74.6921291
885185,3401513360,Borough of Clayton,NJ,C5,34015,39.662711,-75.0782539
885186,3400713420,Borough of Clementon,NJ,C5,34007,39.804572,-74.9850036
885187,3400313570,Borough of Cliffside Park,NJ,C5,34003,40.8220508,-73.9879318
885188,3403113690,City of Clifton,NJ,C5,34031,40.8630321,-74.1575383
885189,3401913720,Town of Clinton,NJ,C5,34019,40.6359214,-74.9124639
885190,3400313810,Borough of Closter,NJ,C5,34003,40.973299,-73.9604379
885191,3400714260,Borough of Collingswood,NJ,C5,34007,39.9160522,-75.0758849
885192,3400115160,City of Corbin City,NJ,C5,34001,39.3046524,-74.7198607
885193,3400315820,Borough of Cresskill,NJ,C5,34003,40.940498,-73.9596072
885194,3402516660,Borough of Deal,NJ,C5,34025,40.2496814,-73.9973796
885195,3400317530,Borough of Demarest,NJ,C5,34003,40.9550415,-73.9567933
885196,3402718070,Town of Dover,NJ,C5,34027,40.8859212,-74.5596752
885197,3400318400,Borough of Dumont,NJ,C5,34003,40.9452573,-73.9922485
885198,3402318490,Borough of Dunellen,NJ,C5,34023,40.5902944,-74.4656519
885199,3401719360,Borough of East Newark,NJ,C5,34017,40.7509599,-74.1622556
885200,3401319390,City of East Orange,NJ,C5,34013,40.7650558,-74.211654
885201,3400319510,Borough of East Rutherford,NJ,C5,34003,40.8179034,-74.0853821
885202,3402519840,Borough of Eatontown,NJ,C5,34025,40.2912488,-74.0557768
885203,3400320020,Borough of Edgewater,NJ,C5,34003,40.8236505,-73.9740457
885204,3400120350,City of Egg Harbor City,NJ,C5,34001,39.5639907,-74.5961347
885205,3403921000,City of Elizabeth,NJ,C5,34039,40.665565,-74.1911036
885206,3403321240,Borough of Elmer,NJ,C5,34033,39.5918965,-75.1740063
885207,3400321300,Borough of Elmwood Park,NJ,C5,34003,40.9049456,-74.1200504
885208,3400321450,Borough of Emerson,NJ,C5,34003,40.974857,-74.0238886
885209,3400321480,City of Englewood,NJ,C5,34003,40.891686,-73.9735862
885210,3400321510,Borough of Englewood Cliffs,NJ,C5,34003,40.8822724,-73.9467239
885211,3402521570,Borough of Englishtown,NJ,C5,34025,40.297118,-74.3606819
885212,3400121870,City of Estell Manor,NJ,C5,34001,39.3586792,-74.7751504
885213,3402522440,Borough of Fair Haven,NJ,C5,34025,40.3618338,-74.0392367
885214,3400322470,Borough of Fair Lawn,NJ,C5,34003,40.9358769,-74.1176591
885215,3400322560,Borough of Fairview,NJ,C5,34003,40.8182129,-74.0022321
885216,3403922860,Borough of Fanwood,NJ,C5,34039,40.6417014,-74.3856922
885217,3403522890,Borough of Far Hills,NJ,C5,34035,40.6905442,-74.6257008
885218,3402522950,Borough of Farmingdale,NJ,C5,34025,40.1983575,-74.170082
885219,3400523250,Borough of Fieldsboro,NJ,C5,34005,40.1363661,-74.7315404
885220,3401923700,Borough of Flemington,NJ,C5,34019,40.5086418,-74.8598696
885221,3402723910,Borough of Florham Park,NJ,C5,34027,40.7772999,-74.3953662
885222,3400123940,Borough of Folsom,NJ,C5,34001,39.5928831,-74.8424399
885223,3400324420,Borough of Fort Lee,NJ,C5,34003,40.8508521,-73.9712725
885224,3403724930,Borough of Franklin,NJ,C5,34037,41.1100991,-74.5885953
885225,3400324990,Borough of Franklin Lakes,NJ,C5,34003,41.0085922,-74.2083431
885226,3402525200,Borough of Freehold,NJ,C5,34025,40.2595057,-74.2755683
885227,3401925350,Borough of Frenchtown,NJ,C5,34019,40.5272965,-75.0571303
885228,3400325770,City of Garfield,NJ,C5,34003,40.8791483,-74.1085046
885229,3403925800,Borough of Garwood,NJ,C5,34039,40.6513308,-74.3231515
885230,3400726070,Borough of Gibbsboro,NJ,C5,34007,39.8332026,-74.9657352
885231,3401526340,Borough of Glassboro,NJ,C5,34015,39.7013541,-75.1113351
885232,3401926550,Borough of Glen Gardner,NJ,C5,34019,40.7003855,-74.9395208
885233,3400326640,Borough of Glen Rock,NJ,C5,34003,40.9600698,-74.1249839
885234,3400726820,City of Gloucester City,NJ,C5,34007,39.892365,-75.1172185
885235,3401728650,Town of Guttenberg,NJ,C5,34017,40.792658,-74.004577
885236,3400328680,City of Hackensack,NJ,C5,34003,40.8890462,-74.0461666
885237,3404128710,Town of Hackettstown,NJ,C5,34041,40.8539666,-74.8256419
885238,3400728770,Borough of Haddonfield,NJ,C5,34007,39.8954671,-75.034529
885239,3400728800,Borough of Haddon Heights,NJ,C5,34007,39.8791136,-75.0644943
885240,3403129070,Borough of Haledon,NJ,C5,34031,40.9363217,-74.1887566
885241,3403729220,Borough of Hamburg,NJ,C5,34037,41.1484826,-74.5734968
885242,3400129430,Town of Hammonton,NJ,C5,34001,39.6572028,-74.7678044
885243,3401929460,Borough of Hampton,NJ,C5,34019,40.706835,-74.9641205
885244,3400330150,Borough of Harrington Park,NJ,C5,34003,40.9899087,-73.980354
885245,3401730210,Town of Harrison,NJ,C5,34017,40.7430755,-74.1531433
885246,3402930390,Borough of Harvey Cedars,NJ,C5,34029,39.699611,-74.1419224
885247,3400330420,Borough of Hasbrouck Heights,NJ,C5,34003,40.8618286,-74.0740872
885248,3400330540,Borough of Haworth,NJ,C5,34003,40.962231,-73.9975993
885249,3403130570,Borough of Hawthorne,NJ,C5,34031,40.9579608,-74.1581628
885250,3402330840,Borough of Helmetta,NJ,C5,34023,40.3776529,-74.4237906
885251,3401931320,Borough of High Bridge,NJ,C5,34019,40.6683711,-74.8940204
885252,3402331470,Borough of Highland Park,NJ,C5,34023,40.5005671,-74.4282965
885253,3402531500,Borough of Highlands,NJ,C5,34025,40.4044763,-73.9903979
885254,3402131620,Borough of Hightstown,NJ,C5,34021,40.2686078,-74.5252482
885255,3400331920,Borough of Hillsdale,NJ,C5,34003,41.007376,-74.044018
885256,3400732220,Borough of Hi-Nella,NJ,C5,34007,39.8365158,-75.0219648
885257,3401732250,City of Hoboken,NJ,C5,34017,40.7452062,-74.0281107
885258,3400332310,Borough of Ho-Ho-Kus,NJ,C5,34003,41.0000502,-74.0971754
885259,3403732910,Borough of Hopatcong,NJ,C5,34037,40.9541267,-74.6592634
885260,3402133150,Borough of Hopewell,NJ,C5,34021,40.3893089,-74.7637985
885261,3402534200,Borough of Interlaken,NJ,C5,34025,40.2349502,-74.0165395
885262,3402934530,Borough of Island Heights,NJ,C5,34029,39.9423462,-74.1452969
885263,3402334890,Borough of Jamesburg,NJ,C5,34023,40.3493486,-74.439968
885264,3401736000,City of Jersey City,NJ,C5,34017,40.7116248,-74.0649007
885265,3402536480,Borough of Keansburg,NJ,C5,34025,40.469004,-74.1484946
885266,3401736510,Town of Kearny,NJ,C5,34017,40.7528145,-74.1201815
885267,3403936690,Borough of Kenilworth,NJ,C5,34039,40.6781559,-74.2889033
885268,3402536810,Borough of Keyport,NJ,C5,34025,40.4327283,-74.2011967
885269,3402737110,Borough of Kinnelon,NJ,C5,34027,40.9847114,-74.3862185
885270,3402937770,Borough of Lakehurst,NJ,C5,34029,40.0132927,-74.3201736
885271,3401938610,City of Lambertville,NJ,C5,34019,40.3687487,-74.9430974
885272,3400739210,Borough of Laurel Springs,NJ,C5,34007,39.8213154,-75.0052416
885273,3402939390,Borough of Lavallette,NJ,C5,34029,39.9697847,-74.0723388
885274,3400739420,Borough of Lawnside,NJ,C5,34007,39.8673078,-75.0289032
885275,3401939630,Borough of Lebanon,NJ,C5,34019,40.6432406,-74.8350627
885276,3400340020,Borough of Leonia,NJ,C5,34003,40.8637978,-73.9899127
885277,3402740290,Borough of Lincoln Park,NJ,C5,34027,40.9239145,-74.3035036
885278,3403940350,City of Linden,NJ,C5,34039,40.6248825,-74.237602
885279,3400740440,Borough of Lindenwold,NJ,C5,34007,39.8172363,-74.9898508
885280,3400140530,City of Linwood,NJ,C5,34001,39.3435369,-74.5707631
885281,3400340680,Borough of Little Ferry,NJ,C5,34003,40.8463982,-74.0387895
885282,3402540770,Borough of Little Silver,NJ,C5,34025,40.3357265,-74.034617
885283,3402541010,Village of Loch Arbour,NJ,C5,34025,40.2322567,-74.0007932
885284,3400341100,Borough of Lodi,NJ,C5,34003,40.8783405,-74.0814345
885285,3402541310,City of Long Branch,NJ,C5,34025,40.2962471,-73.9897876
885286,3400141370,Borough of Longport,NJ,C5,34001,39.3086558,-74.5249161
885287,3402742510,Borough of Madison,NJ,C5,34027,40.7586053,-74.4169798
885288,3400742630,Borough of Magnolia,NJ,C5,34007,39.856195,-75.036397
885289,3402543050,Borough of Manasquan,NJ,C5,34025,40.1135723,-74.0367674
885290,3402943380,Borough of Mantoloking,NJ,C5,34029,40.0436803,-74.0509374
885291,3403543620,Borough of Manville,NJ,C5,34035,40.5420739,-74.5892053
885292,3400143890,City of Margate City,NJ,C5,34001,39.3309777,-74.5070306
885293,3402544520,Borough of Matawan,NJ,C5,34025,40.4127121,-74.2365661
885294,3400344880,Borough of Maywood,NJ,C5,34003,40.9024693,-74.0633825
885295,3400545210,Borough of Medford Lakes,NJ,C5,34005,39.8574922,-74.8112535
885296,3402745330,Borough of Mendham,NJ,C5,34027,40.7687085,-74.6002764
885297,3400745510,Borough of Merchantville,NJ,C5,34007,39.9502215,-75.0503373
885298,3402345690,Borough of Metuchen,NJ,C5,34023,40.5423827,-74.362842
885299,3402345900,Borough of Middlesex,NJ,C5,34023,40.5744411,-74.5010822
885300,3400346110,Borough of Midland Park,NJ,C5,34003,40.9951841,-74.1410319
885301,3401946260,Borough of Milford,NJ,C5,34019,40.5693638,-75.0915996
885302,3403546590,Borough of Millstone,NJ,C5,34035,40.500201,-74.5921284
885303,3402346620,Borough of Milltown,NJ,C5,34023,40.4504121,-74.4350917
885304,3401146680,City of Millville,NJ,C5,34011,39.3902492,-75.0560787
885305,3402547130,Borough of Monmouth Beach,NJ,C5,34025,40.3362714,-73.9857936
885306,3400347610,Borough of Montvale,NJ,C5,34003,41.0528914,-74.0498002
885307,3400347700,Borough of Moonachie,NJ,C5,34003,40.8408434,-74.0589991
885308,3402748210,Borough of Morris Plains,NJ,C5,34027,40.8356259,-74.4785783
885309,3402748300,Town of Morristown,NJ,C5,34027,40.7966723,-74.4772085
885310,3402748480,Borough of Mountain Lakes,NJ,C5,34027,40.890616,-74.4407166
885311,3403948510,Borough of Mountainside,NJ,C5,34039,40.6810519,-74.3601111
885312,3402748690,Borough of Mount Arlington,NJ,C5,34027,40.9189429,-74.6390857
885313,3400748750,Borough of Mount Ephraim,NJ,C5,34007,39.8805729,-75.0916945
885314,3401549680,Borough of National Park,NJ,C5,34015,39.8676215,-75.1851968
885315,3402549920,Borough of Neptune City,NJ,C5,34025,40.2004756,-74.0333416
885316,3402750130,Borough of Netcong,NJ,C5,34027,40.898512,-74.7019125
885317,3401351000,City of Newark,NJ,C5,34013,40.7244769,-74.1725452
885318,3402351210,City of New Brunswick,NJ,C5,34023,40.4870525,-74.445074
885319,3401551390,Borough of Newfield,NJ,C5,34015,39.5484155,-75.0166564
885320,3400351660,Borough of New Milford,NJ,C5,34003,40.9336855,-74.0195776
885321,3403951810,Borough of New Providence,NJ,C5,34039,40.6996361,-74.4034305
885322,3403751930,Town of Newton,NJ,C5,34037,41.0534313,-74.7526755
885323,3400352320,Borough of North Arlington,NJ,C5,34003,40.7874768,-74.127272
885324,3400152950,City of Northfield,NJ,C5,34001,39.3718593,-74.5542994
885325,3403153040,Borough of North Haledon,NJ,C5,34031,40.9627672,-74.1844257
885326,3403553280,Borough of North Plainfield,NJ,C5,34035,40.6209105,-74.4385417
885327,3400353430,Borough of Northvale,NJ,C5,34003,41.0100947,-73.9504381
885328,3400953490,City of North Wildwood,NJ,C5,34009,39.0058793,-74.7973403
885329,3400353610,Borough of Norwood,NJ,C5,34003,40.9933295,-73.9509885
885330,3400353850,Borough of Oakland,NJ,C5,34003,41.0313581,-74.2407874
885331,3400753880,Borough of Oaklyn,NJ,C5,34007,39.9023305,-75.0812802
885332,3400954360,City of Ocean City,NJ,C5,34009,39.2688864,-74.6009122
885333,3402954450,Borough of Ocean Gate,NJ,C5,34029,39.926777,-74.1351143
885334,3402554570,Borough of Oceanport,NJ,C5,34025,40.3160632,-74.0205173
885335,3403754660,Borough of Ogdensburg,NJ,C5,34037,41.0769111,-74.5973319
885336,3400354870,Borough of Old Tappan,NJ,C5,34003,41.0163929,-73.9855931
885337,3400354990,Borough of Oradell,NJ,C5,34003,40.956209,-74.031451
885338,3400355770,Borough of Palisades Park,NJ,C5,34003,40.8471365,-73.9966302
885339,3400555800,Borough of Palmyra,NJ,C5,34005,40.0025074,-75.0359549
885340,3400355950,Borough of Paramus,NJ,C5,34003,40.9455495,-74.0711705
885341,3400356130,Borough of Park Ridge,NJ,C5,34003,41.0352856,-74.0423689
885342,3403156550,City of Passaic,NJ,C5,34031,40.8574698,-74.1282124
885343,3403157000,City of Paterson,NJ,C5,34031,40.9146857,-74.1623725
885344,3401557150,Borough of Paulsboro,NJ,C5,34015,39.8399708,-75.2396431
885345,3403557300,Borough of Peapack and Gladstone,NJ,C5,34035,40.7168103,-74.6560838
885346,3400557480,Borough of Pemberton,NJ,C5,34005,39.9714009,-74.685845
885347,3402157600,Borough of Pennington,NJ,C5,34021,40.3262583,-74.7907074
885348,3403357750,Borough of Penns Grove,NJ,C5,34033,39.727704,-75.4690348
885349,3402358200,City of Perth Amboy,NJ,C5,34023,40.5197015,-74.270692
885350,3404158350,Town of Phillipsburg,NJ,C5,34041,40.6893385,-75.1820887
885351,3402958590,Borough of Pine Beach,NJ,C5,34029,39.9358645,-74.1700382
885352,3400758770,Borough of Pine Hill,NJ,C5,34007,39.7879148,-74.9857121
885353,3400758920,Borough of Pine Valley,NJ,C5,34007,39.7869622,-74.9741493
885354,3401559070,Borough of Pitman,NJ,C5,34015,39.7334907,-75.1305516
885355,3403959190,City of Plainfield,NJ,C5,34039,40.6154231,-74.415668
885356,3400159640,City of Pleasantville,NJ,C5,34001,39.3899374,-74.5168509
885357,3402959880,Borough of Point Pleasant,NJ,C5,34029,40.0772077,-74.0701422
885358,3402959910,Borough of Point Pleasant Beach,NJ,C5,34029,40.0928217,-74.0457099
885359,3403160090,Borough of Pompton Lakes,NJ,C5,34031,41.0024131,-74.2858356
885360,3400160600,City of Port Republic,NJ,C5,34001,39.532811,-74.4852293
885362,3403161170,Borough of Prospect Park,NJ,C5,34031,40.9380555,-74.1736052
885363,3403961530,City of Rahway,NJ,C5,34039,40.6076476,-74.2806623
885364,3400361680,Borough of Ramsey,NJ,C5,34003,41.0594869,-74.1453649
885365,3403561980,Borough of Raritan,NJ,C5,34035,40.5730818,-74.6431591
885366,3402562430,Borough of Red Bank,NJ,C5,34025,40.3480988,-74.067209
885367,3400362910,Borough of Ridgefield,NJ,C5,34003,40.8312995,-74.0147074
885368,3400362940,Village of Ridgefield Park,NJ,C5,34003,40.8543293,-74.0201162
885369,3400363000,Village of Ridgewood,NJ,C5,34003,40.9821355,-74.1127198
885370,3403163150,Borough of Ringwood,NJ,C5,34031,41.1064944,-74.2748731
885371,3402763300,Borough of Riverdale,NJ,C5,34027,40.9921033,-74.3124047
885372,3400363360,Borough of River Edge,NJ,C5,34003,40.926822,-74.0387317
885373,3400563660,Borough of Riverton,NJ,C5,34005,40.011569,-75.0149054
885374,3402764050,Borough of Rockaway,NJ,C5,34027,40.8969291,-74.5154979
885375,3400364170,Borough of Rockleigh,NJ,C5,34003,41.002602,-73.9326562
885376,3403564320,Borough of Rocky Hill,NJ,C5,34035,40.4001427,-74.6405535
885377,3402564410,Borough of Roosevelt,NJ,C5,34025,40.2211561,-74.4729749
885378,3401364590,Borough of Roseland,NJ,C5,34013,40.8208011,-74.3086794
885379,3403964620,Borough of Roselle,NJ,C5,34039,40.652691,-74.2598922
885380,3403964650,Borough of Roselle Park,NJ,C5,34039,40.6653089,-74.266558
885381,3402565130,Borough of Rumson,NJ,C5,34025,40.3625874,-74.0045812
885382,3400765160,Borough of Runnemede,NJ,C5,34007,39.8521636,-75.0739728
885383,3400365280,Borough of Rutherford,NJ,C5,34003,40.8204184,-74.1057936
885384,3400365400,Borough of Saddle River,NJ,C5,34003,41.0272958,-74.0955796
885385,3403365490,City of Salem,NJ,C5,34033,39.5680849,-75.4724155
885386,3402365790,Borough of Sayreville,NJ,C5,34023,40.4662108,-74.3197768
885387,3402566240,Borough of Sea Bright,NJ,C5,34025,40.3497712,-73.9815145
885388,3402566330,Borough of Sea Girt,NJ,C5,34025,40.12999,-74.0333498
885389,3400966390,City of Sea Isle City,NJ,C5,34009,39.1519847,-74.6977891
885390,3402966450,Borough of Seaside Heights,NJ,C5,34029,39.945156,-74.0786764
885391,3402966480,Borough of Seaside Park,NJ,C5,34029,39.926405,-74.0783479
885392,3401766570,Town of Secaucus,NJ,C5,34017,40.7810404,-74.0658908
885393,3401167020,Borough of Shiloh,NJ,C5,34011,39.4595488,-75.2969625
885394,3402967110,Borough of Ship Bottom,NJ,C5,34029,39.6458709,-74.1832737
885395,3402567350,Borough of Shrewsbury,NJ,C5,34025,40.3248973,-74.060029
885396,3400768340,Borough of Somerdale,NJ,C5,34007,39.8454165,-75.0217014
885397,3400168430,City of Somers Point,NJ,C5,34001,39.316679,-74.6066147
885398,3403568460,Borough of Somerville,NJ,C5,34035,40.5696383,-74.6092402
885399,3402368550,City of South Amboy,NJ,C5,34023,40.4862311,-74.2777575
885400,3402537560,Borough of Lake Como,NJ,C5,34025,40.1706059,-74.0262153
885401,3403568730,Borough of South Bound Brook,NJ,C5,34035,40.5535688,-74.5276689
885402,3402369390,Borough of South Plainfield,NJ,C5,34023,40.5747822,-74.4152523
885403,3402369420,Borough of South River,NJ,C5,34023,40.4454759,-74.3782828
885404,3402969510,Borough of South Toms River,NJ,C5,34029,39.941772,-74.2086826
885405,3402369810,Borough of Spotswood,NJ,C5,34023,40.3949055,-74.391962
885406,3402570110,Borough of Spring Lake,NJ,C5,34025,40.153206,-74.0262142
885407,3402570140,Borough of Spring Lake Heights,NJ,C5,34025,40.1521933,-74.0429303
885408,3403770380,Borough of Stanhope,NJ,C5,34037,40.9141415,-74.7026951
885409,3401970980,Borough of Stockton,NJ,C5,34019,40.4061234,-74.975828
885410,3400971010,Borough of Stone Harbor,NJ,C5,34009,39.0435063,-74.7689731
885411,3400771220,Borough of Stratford,NJ,C5,34007,39.82899,-75.015536
885412,3403971430,City of Summit,NJ,C5,34039,40.7153656,-74.3647035
885413,3402971640,Borough of Surf City,NJ,C5,34029,39.6644595,-74.1706754
885414,3403771670,Borough of Sussex,NJ,C5,34037,41.2095718,-74.6078575
885415,3401571850,Borough of Swedesboro,NJ,C5,34015,39.7458703,-75.3117448
885416,3400772240,Borough of Tavistock,NJ,C5,34007,39.8757582,-75.0272606
885417,3400372420,Borough of Tenafly,NJ,C5,34003,40.9175354,-73.9531879
885418,3400372480,Borough of Teterboro,NJ,C5,34003,40.8579432,-74.0593754
885419,3402573020,Borough of Tinton Falls,NJ,C5,34025,40.27083,-74.0948495
885420,3403173140,Borough of Totowa,NJ,C5,34031,40.9039073,-74.2213981
885421,3402174000,City of Trenton,NJ,C5,34021,40.2236972,-74.7640065
885422,3402974210,Borough of Tuckerton,NJ,C5,34029,39.5973002,-74.3305418
885423,3402574540,Borough of Union Beach,NJ,C5,34025,40.4454979,-74.1699834
885424,3401774630,City of Union City,NJ,C5,34017,40.7674253,-74.0322772
885425,3400375140,Borough of Upper Saddle River,NJ,C5,34003,41.0633517,-74.098489
885426,3400175620,City of Ventnor City,NJ,C5,34001,39.342009,-74.4826952
885427,3402775890,Borough of Victory Gardens,NJ,C5,34027,40.8761297,-74.5435298
885428,3401176070,City of Vineland,NJ,C5,34011,39.4652869,-74.9981335
885429,3400376400,Borough of Waldwick,NJ,C5,34003,41.0133187,-74.1258542
885430,3400376490,Borough of Wallington,NJ,C5,34003,40.8535664,-74.1069096
885431,3403176730,Borough of Wanaque,NJ,C5,34031,41.0439743,-74.2899958
885432,3404177270,Borough of Washington,NJ,C5,34041,40.7586995,-74.9824841
885433,3403577600,Borough of Watchung,NJ,C5,34035,40.6431582,-74.439121
885434,3401578110,Borough of Wenonah,NJ,C5,34015,39.7913268,-75.1485646
885435,3400978530,Borough of West Cape May,NJ,C5,34009,38.9422629,-74.9377689
885436,3403979040,Town of Westfield,NJ,C5,34039,40.6515491,-74.3432255
885437,3402579310,Borough of West Long Branch,NJ,C5,34025,40.288319,-74.0185282
885438,3401779610,Town of West New York,NJ,C5,34017,40.7856653,-74.0093773
885439,3403182423,Borough of Woodland Park,NJ,C5,34031,40.8904769,-74.1945678
885440,3401580120,Borough of Westville,NJ,C5,34015,39.8704403,-75.1301646
885441,3400980210,Borough of West Wildwood,NJ,C5,34009,39.0006073,-74.8235461
885442,3400380270,Borough of Westwood,NJ,C5,34003,40.9878583,-74.030882
885443,3402780390,Borough of Wharton,NJ,C5,34027,40.8998501,-74.580804
885444,3400981170,City of Wildwood,NJ,C5,34009,38.9876975,-74.8188677
885445,3400981200,Borough of Wildwood Crest,NJ,C5,34009,38.9717105,-74.8375851
885446,3400981890,Borough of Woodbine,NJ,C5,34009,39.2283504,-74.8096211
885447,3401582120,City of Woodbury,NJ,C5,34015,39.8378815,-75.1524263
885448,3401582180,Borough of Woodbury Heights,NJ,C5,34015,39.8159813,-75.151177
885449,3400382300,Borough of Woodcliff Lake,NJ,C5,34003,41.0252914,-74.0603431
885450,3400782450,Borough of Woodlynne,NJ,C5,34007,39.9166481,-75.0956242
885451,3400382570,Borough of Wood-Ridge,NJ,C5,34003,40.8507019,-74.0877346
885452,3403382720,Borough of Woodstown,NJ,C5,34033,39.6503049,-75.3251174
885453,3400582960,Borough of Wrightstown,NJ,C5,34005,40.0255897,-74.6319041
972496,3626869,Fort Jay (historical),NY,M1,36061,40.6911111,-74.0163889
972499,3626979,Fort Tilden (historical),NY,M1,36081,40.5623277,-73.8909696
973235,3626940,Fort Putnam (historical),NY,M1,36071,41.39,-73.9638889
978659,3600101000,City of Albany,NY,C5,36001,42.6663959,-73.798682
978677,3605702066,City of Amsterdam,NY,C5,36057,42.9419609,-74.1906023
978695,3601103078,City of Auburn,NY,C5,36011,42.9338366,-76.5684718
978713,3603704715,City of Batavia,NY,C5,36037,42.9986993,-78.18023
978716,3602705100,City of Beacon,NY,C5,36027,41.5035814,-73.9654363
978733,3600706607,City of Binghamton,NY,C5,36007,42.1013789,-75.9092651
978764,3602911000,City of Buffalo,NY,C5,36029,42.8922595,-78.8594294
978784,3606912144,City of Canandaigua,NY,C5,36069,42.8885114,-77.2804624
978847,3600116749,City of Cohoes,NY,C5,36001,42.7732757,-73.7077357
978867,3610118256,City of Corning,NY,C5,36101,42.1469575,-77.0561223
978870,3602318388,City of Cortland,NY,C5,36023,42.6003928,-76.1784076
978911,3601321105,City of Dunkirk,NY,C5,36013,42.4802287,-79.3324754
978938,3601524229,City of Elmira,NY,C5,36015,42.0937983,-76.8096953
978979,3607527815,City of Fulton,NY,C5,36075,43.3171155,-76.4167156
978992,3606928640,City of Geneva,NY,C5,36069,42.8644267,-76.9826362
979003,3605929113,City of Glen Cove,NY,C5,36059,40.8914755,-73.6441435
979004,3611329333,City of Glens Falls,NY,C5,36113,43.3108406,-73.6458536
979006,3603529443,City of Gloversville,NY,C5,36035,43.049062,-74.3465457
979078,3610135672,City of Hornell,NY,C5,36101,42.3330499,-77.6632203
979083,3602135969,City of Hudson,NY,C5,36021,42.2515206,-73.7858917
979099,3610938077,City of Ithaca,NY,C5,36109,42.4441287,-76.5031751
979102,3601338264,City of Jamestown,NY,C5,36013,42.0976152,-79.2366975
979110,3603538781,City of Johnstown,NY,C5,36035,43.0073025,-74.3755132
979118,3611139727,City of Kingston,NY,C5,36111,41.9295132,-73.9967932
979124,3602940189,City of Lackawanna,NY,C5,36029,42.8182568,-78.8326486
979157,3604342741,City of Little Falls,NY,C5,36043,43.0452231,-74.8565728
979164,3606343082,City of Lockport,NY,C5,36063,43.1698483,-78.695625
979167,3605943335,City of Long Beach,NY,C5,36059,40.5855903,-73.6654339
979207,3609146360,City of Mechanicville,NY,C5,36091,42.9035702,-73.6894391
979217,3607147042,City of Middletown,NY,C5,36071,41.4459208,-74.4235993
979245,3611949121,City of Mount Vernon,NY,C5,36119,40.9136008,-73.8290862
979258,3607150034,City of Newburgh,NY,C5,36071,41.5036973,-74.0204722
979271,3611950617,City of New Rochelle,NY,C5,36119,40.9229375,-73.7799105
979276,3606351055,City of Niagara Falls,NY,C5,36063,43.0920924,-79.0147317
979293,3606353682,City of North Tonawanda,NY,C5,36063,43.0457115,-78.865885
979296,3601753979,City of Norwich,NY,C5,36017,42.5333226,-75.5227591
979301,3608954485,City of Ogdensburg,NY,C5,36089,44.7087697,-75.4717838
979305,3600954716,City of Olean,NY,C5,36009,42.0818513,-78.4321392
979308,3605354837,City of Oneida,NY,C5,36053,43.0769328,-75.6620988
979309,3607754881,City of Oneonta,NY,C5,36077,42.4551121,-75.0666189
979325,3607555574,City of Oswego,NY,C5,36075,43.4585629,-76.5036137
979348,3611956979,City of Peekskill,NY,C5,36119,41.2883815,-73.9226862
979376,3601958574,City of Plattsburgh,NY,C5,36019,44.6950606,-73.4563085
979387,3607159388,City of Port Jervis,NY,C5,36071,41.3783357,-74.6909591
979392,3602759641,City of Poughkeepsie,NY,C5,36027,41.6949245,-73.9210478
979414,3608361148,City of Rensselaer,NY,C5,36083,42.6464936,-73.7327923
979426,3605563000,City of Rochester,NY,C5,36055,43.168875,-77.6159259
979430,3606563418,City of Rome,NY,C5,36065,43.2259763,-75.49089
979445,3611964309,City of Rye,NY,C5,36119,40.9494913,-73.6751102
979450,3600964749,City of Salamanca,NY,C5,36009,42.1631199,-78.723277
979462,3609165255,City of Saratoga Springs,NY,C5,36091,43.0674238,-73.7775079
979468,3609365508,City of Schenectady,NY,C5,36093,42.8025259,-73.9275595
979493,3666993,City of Sherrill,NY,C1,36065,43.070439,-75.599216
979539,3606773000,City of Syracuse,NY,C5,36067,43.0406862,-76.1437243
979550,3602974166,City of Tonawanda,NY,C5,36029,43.0105187,-78.8805371
979559,3608375484,City of Troy,NY,C5,36083,42.7354594,-73.6751339
979575,3606576540,City of Utica,NY,C5,36065,43.0961479,-75.2261395
979604,3604578608,City of Watertown,NY,C5,36045,43.9734224,-75.9094442
979606,3600178674,City of Watervliet,NY,C5,36001,42.7243194,-73.7068257
979637,3611981677,City of White Plains,NY,C5,36119,41.0220247,-73.7546929
979660,3611984000,City of Yonkers,NY,C5,36119,40.9466073,-73.8673502
979682,3677453,Victory Mills,NY,C4,36091,43.0878534,-73.594005
1020300,3723990,Fontana Village,NC,C4,37075,35.4356434,-83.819065
1033709,3801760480,City of Oxbow,ND,C5,38017,46.6628599,-96.81097
1035900,3807700100,City of Abercrombie,ND,C5,38077,46.4470392,-96.7295247
1035901,3809900340,City of Adams,ND,C5,38099,48.42015,-98.0736643
1035902,3810500940,City of Alamo,ND,C5,38105,48.5824518,-103.4675579
1035903,3805301180,City of Alexander,ND,C5,38053,47.8393187,-103.642574
1035904,3801701420,City of Alice,ND,C5,38017,46.7600458,-97.5562481
1035905,3805901700,City of Almont,ND,C5,38059,46.7283354,-101.502652
1035906,3801901740,City of Alsen,ND,C5,38019,48.6303048,-98.7048318
1035907,3802301860,City of Ambrose,ND,C5,38023,48.9559022,-103.4812551
1035908,3801701940,City of Amenia,ND,C5,38017,47.0064845,-97.2241043
1035909,3808702060,City of Amidon,ND,C5,38087,46.4822472,-103.319601
1035910,3804902220,City of Anamoose,ND,C5,38049,47.8828042,-100.2420079
1035911,3806302380,City of Aneta,ND,C5,38063,47.6795345,-97.9897231
1035912,3800902660,City of Antler,ND,C5,38009,48.9713187,-101.283164
1035913,3809902860,City of Ardoch,ND,C5,38099,48.2054463,-97.338033
1035914,3801703020,City of Argusville,ND,C5,38017,47.0500684,-96.9431407
1035915,3805303220,City of Arnegard,ND,C5,38053,47.8084186,-103.4387722
1035916,3801703300,City of Arthur,ND,C5,38017,47.1042681,-97.2183547
1035917,3805103540,City of Ashley,ND,C5,38051,46.034744,-99.3736771
1035918,3801704020,City of Ayr,ND,C5,38017,47.0411071,-97.4909324
1035919,3804904460,City of Balfour,ND,C5,38049,47.9509079,-100.5342567
1035920,3806904580,City of Balta,ND,C5,38069,48.1665915,-100.0368886
1035922,3807704940,City of Barney,ND,C5,38077,46.2658437,-96.9988342
1035924,3806705260,City of Bathgate,ND,C5,38067,48.8804113,-97.4738617
1035925,3803305420,City of Beach,ND,C5,38033,46.9188827,-104.0055058
1035926,3808905820,City of Belfield,ND,C5,38089,46.8860318,-103.1951748
1035927,3805505980,City of Benedict,ND,C5,38055,47.8301324,-101.084323
1035928,3804906180,City of Bergen,ND,C5,38049,48.0037236,-100.7198933
1035929,3804506300,City of Berlin,ND,C5,38045,46.3783728,-98.4884467
1035930,3810106460,City of Berthold,ND,C5,38101,48.3164841,-101.7590223
1035931,3805706660,City of Beulah,ND,C5,38057,47.2665576,-101.7734119
1035932,3803907020,City of Binford,ND,C5,38039,47.5604243,-98.345628
1035933,3809507180,City of Bisbee,ND,C5,38095,48.6272099,-99.3787732
1035934,3801507200,City of Bismarck,ND,C5,38015,46.8142745,-100.7694091
1035936,3800908460,City of Bottineau,ND,C5,38009,48.8247992,-100.4425225
1035937,3801308500,City of Bowbells,ND,C5,38013,48.8026545,-102.2456333
1035938,3810308580,City of Bowdon,ND,C5,38103,47.4685144,-99.7088678
1035939,3801108700,City of Bowman,ND,C5,38011,46.1843237,-103.402946
1035940,3802908900,City of Braddock,ND,C5,38029,46.5639779,-100.0896392
1035941,3801709320,City of Briarwood,ND,C5,38017,46.787002,-96.7947706
1035942,3800509460,City of Brinsmade,ND,C5,38005,48.1839787,-99.3236392
1035943,3807109700,City of Brocket,ND,C5,38071,48.2106881,-98.3555564
1035944,3809310060,City of Buchanan,ND,C5,38093,47.0625991,-98.8290177
1035945,3800110300,City of Bucyrus,ND,C5,38001,46.0645703,-102.7883168
1035946,3801710420,City of Buffalo,ND,C5,38017,46.9192597,-97.5506192
1035947,3810110940,City of Burlington,ND,C5,38101,48.2571768,-101.414555
1035948,3805511180,City of Butte,ND,C5,38055,47.8369684,-100.6658412
1035949,3809711340,City of Buxton,ND,C5,38097,47.6020651,-97.0975194
1035950,3801911580,City of Calio,ND,C5,38019,48.6237655,-98.9379614
1035951,3801911700,City of Calvin,ND,C5,38019,48.8518489,-98.9380212
1035952,3809511860,City of Cando,ND,C5,38095,48.4872211,-99.2024713
1035953,3806712060,City of Canton City,ND,C5,38067,48.6880338,-97.666135
1035954,3810112260,City of Carpio,ND,C5,38101,48.4434447,-101.7163169
1035955,3803112340,City of Carrington,ND,C5,38031,47.4519599,-99.130633
1035956,3803712460,City of Carson,ND,C5,38037,46.4223079,-101.5706178
1035957,3801712700,City of Casselton,ND,C5,38017,46.8972355,-97.2128936
1035958,3810312820,City of Cathay,ND,C5,38103,47.5540826,-99.4106832
1035959,3806712940,City of Cavalier,ND,C5,38067,48.7940193,-97.6226473
1035960,3808113020,City of Cayuga,ND,C5,38081,46.0760603,-97.3845155
1035961,3806513180,City of Center,ND,C5,38065,47.1149312,-101.2976762
1035969,3807714100,City of Christine,ND,C5,38077,46.5751493,-96.806637
1035970,3807114140,City of Churchs Ferry,ND,C5,38071,48.268604,-99.1943687
1035971,3809314660,City of Cleveland,ND,C5,38093,46.891027,-99.1195616
1035972,3809714740,City of Clifford,ND,C5,38097,47.3482002,-97.4100937
1035973,3808115100,City of Cogswell,ND,C5,38081,46.1069675,-97.7842304
1035974,3805515140,City of Coleharbor,ND,C5,38055,47.5425331,-101.2213654
1035975,3807715180,City of Colfax,ND,C5,38077,46.4709441,-96.8724566
1035976,3801315460,City of Columbus,ND,C5,38013,48.9049819,-102.7811759
1035977,3809915820,City of Conway,ND,C5,38099,48.2342794,-97.6750879
1035978,3803915900,City of Cooperstown,ND,C5,38039,47.4451021,-98.1258488
1035979,3809316380,City of Courtenay,ND,C5,38093,47.2241365,-98.5684916
1035980,3807116580,City of Crary,ND,C5,38071,48.0716377,-98.6384295
1035981,3802316940,City of Crosby,ND,C5,38023,48.916168,-103.2966228
1035982,3806717060,City of Crystal,ND,C5,38067,48.5980942,-97.6685742
1035983,3801718180,City of Davenport,ND,C5,38017,46.7148107,-97.0656821
1035984,3804318260,City of Dawson,ND,C5,38043,46.8679392,-99.7536196
1035985,3800318340,City of Dazey,ND,C5,38003,47.1883509,-98.2007022
1035987,3804918620,City of Deering,ND,C5,38049,48.3958314,-101.0498423
1035988,3810119300,City of Des Lacs,ND,C5,38101,48.2563909,-101.5636043
1035989,3807119420,City of Devils Lake,ND,C5,38071,48.1130786,-98.8747924
1035990,3804519580,City of Dickey,ND,C5,38045,46.5368012,-98.4680917
1035991,3808919620,City of Dickinson,ND,C5,38089,46.8917434,-102.7924219
1035994,3802519820,City of Dodge,ND,C5,38025,47.3056724,-102.2029358
1035995,3810119900,City of Donnybrook,ND,C5,38101,48.507731,-101.8870544
1035996,3810120020,City of Douglas,ND,C5,38101,47.8580091,-101.5018634
1035997,3804920300,City of Drake,ND,C5,38049,47.9225732,-100.3745433
1035998,3806720340,City of Drayton,ND,C5,38067,48.5620608,-97.1794957
1035999,3802520940,City of Dunn Center,ND,C5,38025,47.3526433,-102.6233705
1036000,3807921020,City of Dunseith,ND,C5,38079,48.813033,-100.062233
1036001,3807721220,City of Dwight,ND,C5,38077,46.303953,-96.7401433
1036016,3804522140,City of Edgeley,ND,C5,38045,46.3624736,-98.7126339
1036017,3809922260,City of Edinburg,ND,C5,38099,48.4955016,-97.8629678
1036018,3807122340,City of Edmore,ND,C5,38071,48.4124377,-98.4536455
1036019,3809522540,City of Egeland,ND,C5,38095,48.6281131,-99.0979598
1036020,3803723020,City of Elgin,ND,C5,38037,46.4014988,-101.847373
1036021,3802123220,City of Ellendale,ND,C5,38021,46.0043548,-98.5253539
1036022,3807323340,City of Elliott,ND,C5,38073,46.4022684,-97.8148799
1036023,3803524060,City of Emerado,ND,C5,38035,47.9302011,-97.3616287
1036024,3807324260,City of Enderlin,ND,C5,38073,46.6214996,-97.5955837
1036025,3810524540,City of Epping,ND,C5,38105,48.2816571,-103.3578373
1036027,3800524780,City of Esmond,ND,C5,38005,48.0330958,-99.7647598
1036028,3809925180,City of Fairdale,ND,C5,38099,48.4900368,-98.2312236
1036029,3807725300,City of Fairmount,ND,C5,38077,46.054695,-96.6029073
1036030,3801725700,City of Fargo,ND,C5,38017,46.8651178,-96.8291543
1036031,3810326180,City of Fessenden,ND,C5,38103,47.6493076,-99.627008
1036032,3800326380,City of Fingal,ND,C5,38003,46.762492,-97.7931577
1036033,3809126420,City of Finley,ND,C5,38091,47.512515,-97.8372681
1036034,3805926660,City of Flasher,ND,C5,38059,46.4521375,-101.2324518
1036035,3801326700,City of Flaxton,ND,C5,38013,48.8974422,-102.3932294
1036036,3802126980,City of Forbes,ND,C5,38021,45.9425106,-98.7820189
1036037,3809927060,City of Fordville,ND,C5,38099,48.2165923,-97.7953756
1036038,3809927100,City of Forest River,ND,C5,38099,48.2165537,-97.470319
1036039,3808127260,City of Forman,ND,C5,38081,46.1040129,-97.6369155
1036040,3807327580,City of Fort Ransom,ND,C5,38073,46.5245293,-97.9310577
1036042,3802327820,City of Fortuna,ND,C5,38023,48.9098767,-103.7782693
1036043,3808527860,City of Fort Yates,ND,C5,38085,46.0865941,-100.630078
1036045,3804728380,City of Fredonia,ND,C5,38047,46.3291753,-99.0956316
1036046,3801728720,City of Frontier,ND,C5,38017,46.8002753,-96.8332943
1036047,3802128780,City of Fullerton,ND,C5,38021,46.1632278,-98.4273128
1036048,3804728860,City of Gackle,ND,C5,38047,46.6264211,-99.1411988
1036049,3809728980,City of Galesburg,ND,C5,38097,47.2700982,-97.4087605
1036050,3800929180,City of Gardena,ND,C5,38009,48.7012374,-100.4980872
1036051,3801729220,City of Gardner,ND,C5,38017,47.1445112,-96.9686172
1036052,3805529460,City of Garrison,ND,C5,38055,47.653206,-101.4219146
1036053,3801129540,City of Gascoyne,ND,C5,38011,46.1189538,-103.078786
1036054,3803530180,City of Gilby,ND,C5,38035,48.0835024,-97.4677231
1036055,3808930460,City of Gladstone,ND,C5,38089,46.8595297,-102.5701153
1036056,3807530580,City of Glenburn,ND,C5,38075,48.513496,-101.2208916
1036057,3803130660,City of Glenfield,ND,C5,38031,47.4550715,-98.5662028
1036058,3805930860,City of Glen Ullin,ND,C5,38059,46.8119871,-101.8332291
1036059,3805731180,City of Golden Valley,ND,C5,38057,47.290152,-102.0652262
1036060,3803331420,City of Golva,ND,C5,38033,46.7346828,-103.9829088
1036061,3808331500,City of Goodrich,ND,C5,38083,47.4759213,-100.124721
1036062,3803131740,City of Grace City,ND,C5,38031,47.5513045,-98.8038704
1036063,3809931820,City of Grafton,ND,C5,38099,48.4142362,-97.4055247
1036064,3803532060,City of Grand Forks,ND,C5,38035,47.9213659,-97.0884195
1036065,3801732300,City of Grandin,ND,C5,38017,47.2367195,-97.003219
1036066,3807532580,City of Grano,ND,C5,38075,48.6153198,-101.5891708
1036067,3804932660,City of Granville,ND,C5,38049,48.2662828,-100.8451629
1036068,3807732900,City of Great Bend,ND,C5,38077,46.1546379,-96.8009949
1036069,3810533500,City of Grenora,ND,C5,38105,48.619859,-103.9366891
1036070,3808134020,City of Gwinner,ND,C5,38081,46.2256491,-97.6691375
1036071,3802934180,City of Hague,ND,C5,38029,46.0288913,-99.9991059
1036072,3802534340,City of Halliday,ND,C5,38025,47.3521458,-102.3387211
1036074,3810334460,City of Hamberg,ND,C5,38103,47.7633464,-99.5159628
1036075,3806734620,City of Hamilton,ND,C5,38067,48.8079819,-97.4517349
1036076,3807134860,City of Hampden,ND,C5,38071,48.5395984,-98.6543167
1036077,3807734900,City of Hankinson,ND,C5,38077,46.0734261,-96.8917906
1036079,3803935020,City of Hannaford,ND,C5,38039,47.3141807,-98.1889406
1036080,3801935060,City of Hannah,ND,C5,38019,48.9728835,-98.6902947
1036081,3809535140,City of Hansboro,ND,C5,38095,48.9524483,-99.3802393
1036083,3810335900,City of Harvey,ND,C5,38103,47.7685145,-99.9312235
1036084,3801735940,City of Harwood,ND,C5,38017,46.976164,-96.8801719
1036085,3809736100,City of Hatton,ND,C5,38097,47.6369672,-97.4582891
1036086,3808136140,City of Havana,ND,C5,38081,45.9517039,-97.6184423
1036087,3800136540,City of Haynes,ND,C5,38001,45.9739107,-102.4710079
1036088,3802936700,City of Hazelton,ND,C5,38029,46.4857243,-100.2810888
1036089,3805736780,City of Hazen,ND,C5,38057,47.2990443,-101.6259624
1036090,3805936860,City of Hebron,ND,C5,38059,46.9023073,-102.0443899
1036091,3800137700,City of Hettinger,ND,C5,38001,46.0033839,-102.634942
1036092,3809738100,City of Hillsboro,ND,C5,38097,47.4029717,-97.0634626
1036093,3809938780,City of Hoople,ND,C5,38099,48.5357894,-97.6388675
1036094,3809138860,City of Hope,ND,C5,38091,47.3243772,-97.7192031
1036095,3801738900,City of Horace,ND,C5,38017,46.7558253,-96.9078042
1036097,3801739460,City of Hunter,ND,C5,38017,47.1903684,-97.2130973
1036098,3810339580,City of Hurdsfield,ND,C5,38103,47.4467867,-99.9310017
1036099,3803539980,City of Inkster,ND,C5,38035,48.1512514,-97.6441502
1036100,3809340580,City of Jamestown,ND,C5,38093,46.9062956,-98.6936609
1036101,3804541180,City of Jud,ND,C5,38045,46.5257723,-98.8975516
1036102,3804941380,City of Karlsruhe,ND,C5,38049,48.0910445,-100.6162077
1036103,3800341500,City of Kathryn,ND,C5,38003,46.681174,-97.9703581
1036104,3810142020,City of Kenmare,ND,C5,38101,48.6728114,-102.0720322
1036105,3809342180,City of Kensal,ND,C5,38093,47.3000334,-98.7321066
1036106,3804942660,City of Kief,ND,C5,38049,47.8599898,-100.5132993
1036107,3802542700,City of Killdeer,ND,C5,38025,47.3688561,-102.7470709
1036109,3801742780,City of Kindred,ND,C5,38017,46.6493789,-97.0169406
1036110,3800543260,City of Knox,ND,C5,38005,48.3439477,-99.6911117
1036111,3800943500,City of Kramer,ND,C5,38009,48.691031,-100.7076501
1036112,3804543580,City of Kulm,ND,C5,38045,46.3019467,-98.9466072
1036113,3806344300,City of Lakota,ND,C5,38063,48.0428683,-98.3467667
1036115,3804544540,City of LaMoure,ND,C5,38045,46.3574167,-98.2965406
1036116,3800944700,City of Landa,ND,C5,38009,48.8958547,-100.9119866
1036117,3801944780,City of Langdon,ND,C5,38019,48.7623719,-98.3747104
1036118,3809944860,City of Lankin,ND,C5,38099,48.3146699,-97.9202585
1036119,3800944900,City of Lansford,ND,C5,38009,48.6269525,-101.3758912
1036120,3803545020,City of Larimore,ND,C5,38035,47.9090651,-97.6270039
1036122,3807145300,City of Lawton,ND,C5,38071,48.3035701,-98.3684086
1036123,3800345460,City of Leal,ND,C5,38003,47.1049155,-98.3155269
1036124,3800545580,City of Leeds,ND,C5,38005,48.2878397,-99.4346997
1036125,3805145740,City of Lehr,ND,C5,38051,46.282395,-99.3529295
1036126,3803745860,City of Leith,ND,C5,38037,46.3626371,-101.638488
1036128,3801745980,City of Leonard,ND,C5,38017,46.65229,-97.2499446
1036129,3807746460,City of Lidgerwood,ND,C5,38077,46.0737517,-97.1451116
1036130,3801346540,City of Lignite,ND,C5,38013,48.8771688,-102.5644281
1036131,3801546640,City of Lincoln,ND,C5,38015,46.7689343,-100.6977373
1036132,3802946980,City of Linton,ND,C5,38029,46.2685117,-100.2336044
1036133,3807347100,City of Lisbon,ND,C5,38073,46.4385241,-97.6840767
1036134,3800347140,City of Litchville,ND,C5,38003,46.6565631,-98.1917015
1036135,3801947660,City of Loma,ND,C5,38019,48.6417108,-98.5247734
1036136,3807548020,City of Loraine,ND,C5,38075,48.8683541,-101.5678895
1036137,3802148460,City of Ludden,ND,C5,38021,46.0081541,-98.1254212
1036138,3809148580,City of Luverne,ND,C5,38091,47.251424,-97.9348167
1036141,3808349020,City of McClusky,ND,C5,38083,47.4839895,-100.4425332
1036142,3803149260,City of McHenry,ND,C5,38031,47.5764055,-98.5909961
1036143,3806349580,City of McVille,ND,C5,38063,47.765268,-98.1755286
1036144,3800549620,City of Maddock,ND,C5,38005,47.9623868,-99.5292943
1036145,3810149820,City of Makoti,ND,C5,38101,47.9633305,-101.8029076
1036146,3805949900,City of Mandan,ND,C5,38059,46.8290096,-100.88708
1036147,3807750380,City of Mantador,ND,C5,38077,46.1654945,-96.9778513
1036148,3803550420,City of Manvel,ND,C5,38035,48.0727824,-97.1779289
1036149,3801750580,City of Mapleton,ND,C5,38017,46.8915312,-97.053257
1036150,3804550780,City of Marion,ND,C5,38045,46.6090718,-98.3375149
1036151,3808750860,City of Marmarth,ND,C5,38087,46.2959628,-103.9330346
1036152,3808351060,City of Martin,ND,C5,38083,47.8267696,-100.1153022
1036153,3805551380,City of Max,ND,C5,38055,47.8204205,-101.2911059
1036154,3800951420,City of Maxbass,ND,C5,38009,48.7224474,-101.1423648
1036155,3809751500,City of Mayville,ND,C5,38097,47.4981839,-97.3263556
1036157,3809351860,City of Medina,ND,C5,38093,46.8938399,-99.2998853
1036158,3800751900,City of Medora,ND,C5,38007,46.9123091,-103.5252185
1036159,3805552340,City of Mercer,ND,C5,38055,47.4904601,-100.7104271
1036161,3806352740,City of Michigan City,ND,C5,38063,48.0247457,-98.1197377
1036162,3808152940,City of Milnor,ND,C5,38081,46.2604405,-97.4571536
1036163,3801953020,City of Milton,ND,C5,38019,48.6260063,-98.0459641
1036164,3800553220,City of Minnewaukan,ND,C5,38005,48.0698278,-99.2500448
1036165,3810153380,City of Minot,ND,C5,38101,48.2374757,-101.2779748
1036166,3809953540,City of Minto,ND,C5,38099,48.2924108,-97.3730459
1036167,3807553780,City of Mohall,ND,C5,38075,48.7661093,-101.5169793
1036168,3802153820,City of Monango,ND,C5,38021,46.1734062,-98.5951753
1036169,3809353980,City of Montpelier,ND,C5,38093,46.6989659,-98.5884641
1036170,3807754220,City of Mooreton,ND,C5,38077,46.268931,-96.8757773
1036171,3804154620,City of Mott,ND,C5,38041,46.3744014,-102.3188972
1036172,3806754740,City of Mountain,ND,C5,38067,48.684305,-97.8648067
1036173,3801955020,City of Munich,ND,C5,38019,48.6728555,-98.8384341
1036174,3807955220,City of Mylo,ND,C5,38079,48.6358411,-99.6179207
1036175,3804755420,City of Napoleon,ND,C5,38047,46.5039299,-99.7683322
1036176,3806755620,City of Neche,ND,C5,38067,48.9830431,-97.5516987
1036177,3801955740,City of Nekoma,ND,C5,38019,48.5762579,-98.3755334
1036179,3800956020,City of Newburg,ND,C5,38009,48.7138781,-100.9126396
1036180,3804156180,City of New England,ND,C5,38041,46.5408175,-102.8669619
1036181,3803756420,City of New Leipzig,ND,C5,38037,46.3757681,-101.9515986
1036182,3802756620,City of New Rockford,ND,C5,38027,47.6797505,-99.1376862
1036183,3805956700,City of New Salem,ND,C5,38059,46.843115,-101.4178332
1036184,3806156740,City of New Town,ND,C5,38061,47.9890755,-102.4883065
1036185,3803556780,City of Niagara,ND,C5,38035,47.9983021,-97.8716668
1036186,3800357180,City of Nome,ND,C5,38003,46.6757965,-97.8162548
1036187,3802357220,City of Noonan,ND,C5,38023,48.8898613,-103.0099513
1036197,3801758120,City of North River,ND,C5,38017,46.9502963,-96.8021187
1036204,3803558300,City of Northwood,ND,C5,38035,47.7365973,-97.5652265
1036205,3802158740,City of Oakes,ND,C5,38021,46.1397046,-98.0871221
1036206,3800559020,City of Oberon,ND,C5,38005,47.9242084,-99.2059115
1036207,3800359660,City of Oriska,ND,C5,38003,46.931117,-97.7905394
1036208,3801960100,City of Osnabrock,ND,C5,38019,48.6698997,-98.1488771
1036209,3800960380,City of Overly,ND,C5,38009,48.6811388,-100.1510198
1036211,3801760500,City of Page,ND,C5,38017,47.1591898,-97.5681313
1036212,3806160620,City of Palermo,ND,C5,38061,48.337968,-102.2297441
1036213,3809960900,City of Park River,ND,C5,38099,48.3910593,-97.7426809
1036214,3806160940,City of Parshall,ND,C5,38061,47.9595073,-102.1338035
1036215,3806361460,City of Pekin,ND,C5,38063,47.791911,-98.3277695
1036216,3806761580,City of Pembina,ND,C5,38067,48.9669312,-97.2476093
1036217,3809561780,City of Perth,ND,C5,38095,48.7147227,-99.458124
1036218,3806361860,City of Petersburg,ND,C5,38063,48.0131835,-98.0003838
1036219,3804362060,City of Pettibone,ND,C5,38043,47.1170687,-99.5208155
1036220,3805762260,City of Pick City,ND,C5,38057,47.5110005,-101.4573036
1036221,3800362540,City of Pillsbury,ND,C5,38003,47.2071231,-97.7956914
1036222,3809362620,City of Pingree,ND,C5,38093,47.163823,-98.9085628
1036223,3809962780,City of Pisek,ND,C5,38099,48.3106439,-97.7102804
1036224,3806162980,City of Plaza,ND,C5,38061,48.0259898,-101.9594223
1036226,3801363740,City of Portal,ND,C5,38013,48.9946377,-102.5479135
1036227,3809763900,City of Portland,ND,C5,38097,47.4995109,-97.3693056
1036228,3801364140,City of Powers Lake,ND,C5,38013,48.5640289,-102.6456869
1036229,3801764320,City of Prairie Rose,ND,C5,38017,46.8171205,-96.8353947
1036231,3810565580,City of Ray,ND,C5,38105,48.341637,-103.1635155
1036232,3800165900,City of Reeder,ND,C5,38001,46.1059263,-102.9421638
1036233,3801565980,City of Regan,ND,C5,38015,47.1567938,-100.5272984
1036234,3804166020,City of Regent,ND,C5,38041,46.422197,-102.5580519
1036235,3801766040,City of Reile's Acres,ND,C5,38017,46.9269643,-96.8666386
1036236,3809766260,City of Reynolds,ND,C5,38097,47.6685295,-97.1059679
1036237,3801166300,City of Rhame,ND,C5,38011,46.2346491,-103.6549824
1036238,3808966500,City of Richardton,ND,C5,38089,46.8841615,-102.3331629
1036239,3805566980,City of Riverdale,ND,C5,38055,47.4975346,-101.3661367
1036240,3804367180,City of Robinson,ND,C5,38043,47.1420621,-99.7813319
1036241,3809567500,City of Rocklake,ND,C5,38095,48.7901597,-99.2458982
1036242,3800367620,City of Rogers,ND,C5,38003,47.0740308,-98.2031272
1036243,3807967780,City of Rolette,ND,C5,38079,48.6608974,-99.8416752
1036244,3807967820,City of Rolla,ND,C5,38079,48.8609445,-99.618075
1036245,3806168540,City of Ross,ND,C5,38061,48.3127752,-102.5435091
1036246,3806968860,City of Rugby,ND,C5,38069,48.3653698,-99.9904011
1036247,3805569140,City of Ruso,ND,C5,38055,47.8373319,-100.9342684
1036249,3808169340,City of Rutland,ND,C5,38081,46.0543433,-97.5068012
1036250,3810169460,City of Ryder,ND,C5,38101,47.9211038,-101.6694179
1036251,3807969980,City of Saint John,ND,C5,38079,48.9437666,-99.7130965
1036252,3806770260,City of Saint Thomas,ND,C5,38067,48.6192359,-97.447107
1036253,3800370380,City of Sanborn,ND,C5,38003,46.9427934,-98.2238119
1036254,3801970780,City of Sarles,ND,C5,38019,48.9449674,-98.9968815
1036255,3810170980,City of Sawyer,ND,C5,38101,48.0894576,-101.0533135
1036256,3801171500,City of Scranton,ND,C5,38011,46.1494795,-103.1429774
1036257,3808571660,City of Selfridge,ND,C5,38085,46.0416822,-100.9243572
1036258,3803371780,City of Sentinel Butte,ND,C5,38033,46.9195129,-103.8399725
1036259,3809171940,City of Sharon,ND,C5,38091,47.5973966,-97.899413
1036260,3807372180,City of Sheldon,ND,C5,38073,46.5884915,-97.4943824
1036261,3807572540,City of Sherwood,ND,C5,38075,48.9618669,-101.6328017
1036262,3802772580,City of Sheyenne,ND,C5,38027,47.8272875,-99.1168325
1036263,3800372820,City of Sibley,ND,C5,38003,47.218602,-97.9653062
1036264,3808573820,City of Solen,ND,C5,38085,46.3873125,-100.7956474
1036265,3800974020,City of Souris,ND,C5,38009,48.9099588,-100.6826475
1036274,3808974185,City of South Heart,ND,C5,38089,46.8690892,-102.9926766
1036282,3809374740,City of Spiritwood Lake,ND,C5,38093,47.0743065,-98.5866135
1036283,3810574780,City of Springbrook,ND,C5,38105,48.252117,-103.4617834
1036284,3806175380,City of Stanley,ND,C5,38061,48.3137116,-102.3973362
1036285,3805775420,City of Stanton,ND,C5,38057,47.3186815,-101.3822165
1036286,3807175580,City of Starkweather,ND,C5,38071,48.452084,-98.8784409
1036287,3804375780,City of Steele,ND,C5,38043,46.8568009,-99.9181253
1036288,3802976500,City of Strasburg,ND,C5,38029,46.1337724,-100.1610573
1036289,3809376620,City of Streeter,ND,C5,38093,46.6576178,-99.3568179
1036290,3810177180,City of Surrey,ND,C5,38101,48.2433047,-101.1333097
1036291,3810377660,City of Sykeston,ND,C5,38103,47.4660711,-99.3993152
1036292,3804377980,City of Tappen,ND,C5,38043,46.8716032,-99.6270959
1036293,3808978180,City of Taylor,ND,C5,38089,46.9017985,-102.422192
1036294,3803578660,City of Thompson,ND,C5,38035,47.7752009,-97.1054021
1036295,3810578940,City of Tioga,ND,C5,38105,48.3947469,-102.9431269
1036296,3807579140,City of Tolley,ND,C5,38075,48.7303015,-101.8270831
1036297,3806379180,City of Tolna,ND,C5,38063,47.8256994,-98.4381643
1036298,3801779340,City of Tower City,ND,C5,38017,46.9263089,-97.6760348
1036299,3804979420,City of Towner,ND,C5,38049,48.3471207,-100.4069835
1036300,3805579940,City of Turtle Lake,ND,C5,38055,47.52158,-100.8907261
1036302,3804380140,City of Tuttle,ND,C5,38043,47.144491,-99.9934039
1036303,3805580660,City of Underwood,ND,C5,38055,47.4551516,-101.1416021
1036305,3804980860,City of Upham,ND,C5,38049,48.5815502,-100.7284324
1036306,3800381180,City of Valley City,ND,C5,38003,46.9222365,-98.0054975
1036307,3804981620,City of Velva,ND,C5,38049,48.0581929,-100.9328873
1036308,3805181700,City of Venturia,ND,C5,38051,45.99714,-99.5508022
1036309,3804581900,City of Verona,ND,C5,38045,46.3626287,-98.077149
1036310,3804982380,City of Voltaire,ND,C5,38049,48.0186704,-100.8440061
1036311,3807782660,City of Wahpeton,ND,C5,38077,46.272142,-96.6118117
1036312,3807782780,City of Walcott,ND,C5,38077,46.5504726,-96.9375497
1036313,3801982940,City of Wales,ND,C5,38019,48.8952382,-98.600806
1036314,3806782980,City of Walhalla,ND,C5,38067,48.921039,-97.9175166
1036315,3800583580,City of Warwick,ND,C5,38005,47.8547305,-98.7056461
1036316,3805583700,City of Washburn,ND,C5,38055,47.2920512,-101.0278394
1036317,3805383860,City of Watford City,ND,C5,38053,47.8026571,-103.2676883
1036321,3801784780,City of West Fargo,ND,C5,38017,46.8573426,-96.905709
1036323,3800985020,City of Westhope,ND,C5,38009,48.9111765,-101.0177099
1036333,3806185540,City of White Earth,ND,C5,38061,48.3798677,-102.7717554
1036334,3810586020,City of Wildrose,ND,C5,38105,48.6299518,-103.1836677
1036335,3810586220,City of Williston,ND,C5,38105,48.1814262,-103.6363367
1036336,3800986380,City of Willow City,ND,C5,38009,48.6046914,-100.293311
1036337,3805586580,City of Wilton,ND,C5,38055,47.1580922,-100.7841706
1036338,3800386620,City of Wimbledon,ND,C5,38003,47.169067,-98.458629
1036339,3801586780,City of Wing,ND,C5,38015,47.1422664,-100.2823174
1036340,3805187020,City of Wishek,ND,C5,38051,46.2554096,-99.5545927
1036341,3806987180,City of Wolford,ND,C5,38069,48.4974827,-99.7038147
1036342,3809387580,City of Woodworth,ND,C5,38093,47.1422263,-99.3042284
1036343,3807787740,City of Wyndmere,ND,C5,38077,46.2641286,-97.1311822
1036344,3800587860,City of York,ND,C5,38005,48.3132429,-99.5732567
1036345,3805788140,City of Zap,ND,C5,38057,47.2846814,-101.9232773
1036346,3805188180,City of Zeeland,ND,C5,38051,45.9729436,-99.832442
1037261,3837380,Hensel,ND,C4,38067,48.6883262,-97.6664791
1037262,3852660,Michigan,ND,C4,38063,48.0249959,-98.1170454
1037265,3867580,Rock Lake,ND,C4,38095,48.7902841,-99.2462492
1037272,3866040,Reiles Acres,ND,C4,38017,46.9230219,-96.8653603
1058107,3982348,Wayne Lakes Park,OH,C4,39037,40.0231047,-84.6619007
1060840,3903562,Bailey Lake,OH,C4,39005,40.945889,-82.3596088
1065424,3979282,Valley View,OH,C4,39049,39.9656193,-83.0724082
1085454,3908868,Brinkhaven,OH,C4,39083,40.4695087,-82.1940453
1085479,3955090,New Matamoras,OH,C4,39167,39.5245195,-81.0670544
1085488,3974902,Stout,OH,C4,39001,38.6639639,-83.3790756
1085490,3976750,Thurman,OH,C4,39053,38.9000766,-82.4457123
1085493,3981935,Waverly,OH,C4,39131,39.126735,-82.9854553
1085655,3919540,Croton,OH,C4,39089,40.2386739,-82.6923934
1085658,3934202,Village of Hartford,OH,C1,39089,40.2395447,-82.688382
1085666,3981935,Village of Waverly,OH,C1,39131,39.1256027,-82.9836003
1085668,3935255,Village of Highland Hills,OH,C2,39035,41.4506931,-81.5190711
1085670,3901725970,City of Fairfield,OH,C5,39017,39.3301416,-84.5409394
1085671,3950176,City of Milford,OH,C2,39025,39.169884,-84.2810574
1085694,3943554,City of Lima,OH,C2,39003,40.7409158,-84.1119883
1085702,3902568,City of Ashland,OH,C2,39005,40.8668291,-82.3156652
1085723,3918350,City of Conneaut,OH,C2,39007,41.927792,-80.5685057
1085735,3956700,Village of North Kingsville,OH,C2,39007,41.9188717,-80.6722925
1085740,3967600,Village of Roaming Shores,OH,C1,39007,41.6353532,-80.8245587
1085809,3901733012,City of Hamilton,OH,C5,39017,39.3938368,-84.5652498
1085814,3901749840,City of Middletown,OH,C6,39017,39.5033182,-84.3658487
1085821,3977322,City of Trenton,OH,C2,39017,39.4790741,-84.4620075
1085859,3902374118,City of Springfield,OH,C5,39023,39.930033,-83.7958759
1085865,3945108,City of Loveland,OH,C2,39061,39.2676398,-84.2732735
1085891,3923730,City of East Liverpool,OH,C2,39029,40.6332484,-80.5677755
1085906,3982740,Village of Wellsville,OH,C2,39029,40.6042765,-80.6549491
1085913,3918868,City of Coshocton,OH,C2,39031,40.2618156,-81.8479302
1085937,3903329162,City of Galion,OH,C6,39033,40.7384206,-82.7792544
1085949,3904416,City of Bay Village,OH,C2,39035,41.4885572,-81.9285328
1085950,3904500,City of Beachwood,OH,C2,39035,41.4758725,-81.5029756
1085951,3904878,City of Bedford,OH,C2,39035,41.391928,-81.5359707
1085952,3904920,City of Bedford Heights,OH,C2,39035,41.4041399,-81.5052901
1085953,3905550,Village of Bentleyville,OH,C2,39035,41.4121502,-81.4121328
1085954,3905690,City of Berea,OH,C2,39035,41.3695986,-81.8641815
1085955,3908336,Village of Bratenahl,OH,C2,39035,41.554928,-81.6051556
1085956,3908364,City of Brecksville,OH,C2,39035,41.3079506,-81.6191621
1085957,3909064,City of Broadview Heights,OH,C2,39035,41.3195482,-81.6778968
1085958,3909246,City of Brooklyn,OH,C2,39035,41.434867,-81.7497119
1085959,3909274,Village of Brooklyn Heights,OH,C2,39035,41.4179777,-81.6681159
1085960,3909288,City of Brook Park,OH,C2,39035,41.4036616,-81.8218048
1085962,3913358,Village of Chagrin Falls,OH,C1,39035,41.4319247,-81.3887359
1085963,3916000,City of Cleveland,OH,C2,39035,41.4792804,-81.6802053
1085964,3916014,City of Cleveland Heights,OH,C2,39035,41.511247,-81.5635471
1085965,3919806,Village of Cuyahoga Heights,OH,C2,39035,41.4350243,-81.6562237
1085966,3923380,City of East Cleveland,OH,C2,39035,41.5316369,-81.5794256
1085967,3925704,City of Euclid,OH,C2,39035,41.5923554,-81.5190155
1085968,3926446,City of Fairview Park,OH,C2,39035,41.4419966,-81.8529488
1085969,3929428,City of Garfield Heights,OH,C2,39035,41.419922,-81.603756
1085970,3929498,Village of Gates Mills,OH,C2,39035,41.5315356,-81.409981
1085971,3930632,Village of Glenwillow,OH,C2,39035,41.3608304,-81.472712
1085972,3935252,City of Highland Heights,OH,C2,39035,41.5517841,-81.469126
1085973,3936918,Village of Hunting Valley,OH,C2,39035,41.4802275,-81.4107669
1085974,3937240,City of Independence,OH,C2,39035,41.3779973,-81.6384517
1085975,3941664,City of Lakewood,OH,C2,39035,41.4846547,-81.8015701
1085976,3943918,Village of Linndale,OH,C2,39035,41.4451311,-81.7664309
1085977,3945556,City of Lyndhurst,OH,C2,39035,41.5172482,-81.4922331
1085978,3947306,City of Maple Heights,OH,C2,39035,41.4093676,-81.5625295
1085979,3948468,Village of Mayfield,OH,C2,39035,41.5501576,-81.4368306
1085980,3948482,City of Mayfield Heights,OH,C2,39035,41.5174498,-81.4534104
1085981,3949644,City of Middleburg Heights,OH,C2,39035,41.3695531,-81.8150469
1085982,3952052,Village of Moreland Hills,OH,C2,39035,41.442229,-81.4292625
1085983,3954250,Village of Newburgh Heights,OH,C2,39035,41.4509395,-81.6627394
1085984,3956882,City of North Olmsted,OH,C2,39035,41.4149294,-81.9191227
1085985,3956924,Village of North Randall,OH,C2,39035,41.4326243,-81.5290541
1085986,3957008,City of North Royalton,OH,C2,39035,41.3137911,-81.7449868
1085987,3957750,Village of Oakwood,OH,C2,39035,41.366868,-81.503598
1085989,3958422,City of Olmsted Falls,OH,C2,39035,41.365708,-81.9038488
1085990,3958604,Village of Orange,OH,C2,39035,41.4414382,-81.4742548
1085991,3961000,City of Parma,OH,C2,39035,41.3842624,-81.7285859
1085992,3961028,City of Parma Heights,OH,C2,39035,41.3865235,-81.7636613
1085993,3961686,City of Pepper Pike,OH,C2,39035,41.4800276,-81.4619702
1085994,3966894,City of Richmond Heights,OH,C2,39035,41.558931,-81.5028684
1085996,3968056,City of Rocky River,OH,C2,39035,41.4731358,-81.8533512
1085997,3971416,City of Seven Hills,OH,C2,39035,41.3803079,-81.6736088
1085998,3971682,City of Shaker Heights,OH,C2,39035,41.4744071,-81.5495403
1085999,3972928,City of Solon,OH,C2,39035,41.3864652,-81.4400152
1086000,3973264,City of South Euclid,OH,C2,39035,41.523959,-81.5244841
1086001,3975098,City of Strongsville,OH,C2,39035,41.3127859,-81.83132
1086002,3978932,City of University Heights,OH,C2,39035,41.4947848,-81.5348979
1086003,3979268,Village of Valley View,OH,C2,39035,41.3831339,-81.6067213
1086004,3980738,Village of Walton Hills,OH,C2,39035,41.3661803,-81.5554122
1086006,3980990,City of Warrensville Heights,OH,C2,39035,41.4363095,-81.5221779
1086007,3983622,City of Westlake,OH,C2,39035,41.4524412,-81.9294228
1086008,3986394,Village of Woodmere,OH,C2,39035,41.459854,-81.4798717
1086041,3902582,Village of Ashley,OH,C2,39041,40.4098054,-82.9516527
1086057,3975602,Village of Sunbury,OH,C1,39041,40.2484639,-82.8804416
1086065,3939662,Village of Kelleys Island,OH,C2,39043,41.6033658,-82.7028418
1086070,3970380,City of Sandusky,OH,C2,39043,41.4564793,-82.7143052
1086078,3941720,City of Lancaster,OH,C1,39045,39.7248595,-82.6048675
1086095,3981718,City of Washington Court House,OH,C2,39047,39.5381127,-83.4281099
1086097,3906278,City of Bexley,OH,C2,39049,39.9650233,-82.9342441
1086101,3904918000,City of Columbus,OH,C6,39049,39.9861349,-82.9854777
1086103,3931304,City of Grandview Heights,OH,C2,39049,39.979363,-83.0408295
1086116,3979002,City of Upper Arlington,OH,C2,39049,40.027171,-83.070386
1086118,3904983342,City of Westerville,OH,C6,39049,40.1241183,-82.9209658
1086119,3984742,City of Whitehall,OH,C2,39049,39.9682354,-82.8833434
1086167,3911321000,City of Dayton,OH,C5,39113,39.7805647,-84.20026
1086175,3986772,City of Xenia,OH,C2,39057,39.6828652,-83.9413859
1086196,3901672,Village of Amberley,OH,C2,39061,39.2034897,-84.4282875
1086198,3902428,Village of Arlington Heights,OH,C2,39061,39.2153449,-84.4555422
1086199,3907300,City of Blue Ash,OH,C2,39061,39.2480258,-84.3826733
1086200,3914128,City of Cheviot,OH,C2,39061,39.1576549,-84.6139076
1086201,3906115000,City of Cincinnati,OH,C5,39061,39.1412087,-84.5060223
1086205,3921266,City of Deer Park,OH,C2,39061,39.2038648,-84.3977696
1086207,3925186,Village of Elmwood Place,OH,C2,39061,39.1855492,-84.4890003
1086208,3925802,Village of Evendale,OH,C2,39061,39.2508711,-84.4267396
1086209,3927706,City of Forest Park,OH,C2,39061,39.2860876,-84.5258255
1086210,3930380,Village of Glendale,OH,C2,39061,39.2706579,-84.4585374
1086211,3930786,Village of Golf Manor,OH,C2,39061,39.1877677,-84.4469083
1086213,3932158,Village of Greenhills,OH,C2,39061,39.2669597,-84.5193577
1086215,3943722,Village of Lincoln Heights,OH,C2,39061,39.2435047,-84.4570042
1086216,3944366,Village of Lockland,OH,C2,39061,39.2278612,-84.4564499
1086218,3946312,City of Madeira,OH,C2,39061,39.1856251,-84.3732534
1086219,3947600,Village of Mariemont,OH,C2,39061,39.1429211,-84.3783214
1086221,3952752,City of Mount Healthy,OH,C2,39061,39.2337721,-84.5467357
1086222,3955678,Village of Newtown,OH,C2,39061,39.124327,-84.3515735
1086223,3956322,City of North College Hill,OH,C2,39061,39.2174676,-84.5520543
1086224,3957386,City of Norwood,OH,C2,39061,39.1604917,-84.4535419
1086225,3965732,City of Reading,OH,C2,39061,39.2242284,-84.4333422
1086226,3969470,Village of Saint Bernard,OH,C2,39061,39.1711184,-84.4954906
1086227,3906171892,City of Sharonville,OH,C6,39061,39.2825159,-84.4071329
1086228,3972522,Village of Silverton,OH,C2,39061,39.1883331,-84.4009292
1086229,3974104,City of Springdale,OH,C2,39061,39.2909006,-84.4759518
1086233,3976428,Village of Terrace Park,OH,C2,39061,39.1583643,-84.3111869
1086234,3976582,City of The Village of Indian Hill,OH,C2,39061,39.1915825,-84.3344279
1086236,3986366,Village of Woodlawn,OH,C2,39061,39.255562,-84.4710533
1086237,3986730,City of Wyoming,OH,C2,39061,39.2296805,-84.4815646
1086245,3927048,City of Findlay,OH,C2,39063,41.046909,-83.6379001
1086341,3905228,City of Bellevue,OH,C2,39077,41.2744938,-82.8401891
1086352,3957302,City of Norwalk,OH,C2,39077,41.2443498,-82.6088393
1086362,3985232,City of Willard,OH,C2,39077,41.0517714,-82.7232273
1086375,3982712,City of Wellston,OH,C2,39079,39.1172073,-82.5375032
1086386,3974608,City of Steubenville,OH,C2,39081,40.3653475,-80.6518572
1086397,3928658,Village of Fredericktown,OH,C2,39083,40.4784826,-82.5486977
1086410,3953102,City of Mount Vernon,OH,C2,39083,40.3853958,-82.4737354
1086416,3923618,City of Eastlake,OH,C2,39085,41.6582791,-81.4321861
1086417,3926306,Village of Fairport Harbor,OH,C1,39085,41.7476033,-81.2731034
1086418,3931234,Village of Grand River,OH,C1,39085,41.741806,-81.2846327
1086419,3940642,City of Kirtland,OH,C2,39085,41.5968951,-81.3406237
1086420,3940670,Village of Kirtland Hills,OH,C2,39085,41.6361985,-81.3192799
1086421,3941398,Village of Lakeline,OH,C2,39085,41.6595043,-81.4545201
1086424,3946480,Village of Madison,OH,C1,39085,41.7722593,-81.0529828
1086425,3949056,City of Mentor,OH,C2,39085,41.689414,-81.3361589
1086426,3949098,City of Mentor-on-the-Lake,OH,C2,39085,41.7134922,-81.3650518
1086427,3956910,Village of North Perry,OH,C1,39085,41.800253,-81.124136
1086428,3959416,City of Painesville,OH,C2,39085,41.7240364,-81.2536181
1086431,3961882,Village of Perry,OH,C1,39085,41.7636738,-81.1430128
1086432,3976834,Village of Timberlake,OH,C2,39085,41.6655222,-81.4427983
1086433,3980402,Village of Waite Hill,OH,C2,39085,41.6124621,-81.3858646
1086434,3985036,City of Wickliffe,OH,C2,39085,41.6072373,-81.4690219
1086435,3985484,City of Willoughby,OH,C2,39085,41.6461245,-81.4083624
1086436,3985512,City of Willoughby Hills,OH,C2,39085,41.5872813,-81.4332627
1086437,3985638,City of Willowick,OH,C2,39085,41.6342998,-81.4679048
1086463,3934748,City of Heath,OH,C2,39089,40.0241521,-82.4411267
1086473,3954040,City of Newark,OH,C2,39089,40.0705899,-82.4249995
1086476,3961112,City of Pataskala,OH,C2,39089,40.0109497,-82.7154718
1086498,3901798,City of Amherst,OH,C2,39093,41.402213,-82.2303234
1086500,3903352,City of Avon,OH,C2,39093,41.4485514,-82.0187031
1086501,3903464,City of Avon Lake,OH,C2,39093,41.4945027,-82.0160748
1086508,3925256,City of Elyria,OH,C2,39093,41.3760073,-82.1059586
1086514,3944856,City of Lorain,OH,C2,39093,41.4409808,-82.1840003
1086515,3956966,City of North Ridgeville,OH,C2,39093,41.3851847,-82.0194768
1086521,3972060,Village of Sheffield,OH,C2,39093,41.4558841,-82.0911701
1086522,3972088,City of Sheffield Lake,OH,C2,39093,41.4883456,-82.097857
1086524,3933376,Village of Harbor View,OH,C2,39095,41.6932645,-83.4447535
1086527,3948342,City of Maumee,OH,C2,39095,41.5696326,-83.6635343
1086529,3958730,City of Oregon,OH,C2,39095,41.6530375,-83.4319764
1086530,3959010,Village of Ottawa Hills,OH,C2,39095,41.6681073,-83.6432597
1086537,3909577000,City of Toledo,OH,C5,39095,41.6639098,-83.5821892
1086545,3909744674,City of London,OH,C5,39097,39.893577,-83.4376129
1086559,3909911066,City of Campbell,OH,C5,39099,41.0776944,-80.5903158
1086567,3955118,Village of New Middletown,OH,C2,39099,40.9647502,-80.5597231
1086569,3971220,Village of Sebring,OH,C2,39099,40.920668,-81.0230886
1086572,3909975126,City of Struthers,OH,C5,39099,41.0509754,-80.5920208
1086573,3909988000,City of Youngstown,OH,C5,39099,41.0993071,-80.646342
1086589,3909680,City of Brunswick,OH,C2,39103,41.2464855,-81.8198105
1086600,3948790,City of Medina,OH,C1,39103,41.1358279,-81.8693672
1086669,3911336610,City of Huber Heights,OH,C6,39113,39.8594924,-84.1130243
1086672,3940040,City of Kettering,OH,C2,39113,39.6956476,-84.1494662
1086676,3952010,City of Moraine,OH,C2,39113,39.6982936,-84.2458162
1086677,3957764,City of Oakwood,OH,C2,39113,39.7202213,-84.1733253
1086680,3979492,City of Vandalia,OH,C2,39113,39.879036,-84.1929403
1086682,3983090,City of West Carrollton,OH,C2,39113,39.6700771,-84.2541893
1086738,3911988084,City of Zanesville,OH,C5,39119,39.9565511,-82.01323
1086822,3903086,City of Aurora,OH,C2,39133,41.3118501,-81.3450139
1086829,3929442,Village of Garrettsville,OH,C2,39133,41.2843094,-81.0932422
1086832,3951058,Village of Mogadore,OH,C2,39153,41.0522881,-81.399378
1086840,3975014,City of Streetsboro,OH,C2,39133,41.2396416,-81.3455787
1086842,3975196,Village of Sugar Bush Knolls,OH,C2,39133,41.2038476,-81.3470829
1086845,3924234,City of Eaton,OH,C2,39135,39.7506169,-84.6342167
1086879,3947138,City of Mansfield,OH,C2,39139,40.7656386,-82.5274834
1086909,3928826,City of Fremont,OH,C2,39143,41.3534748,-83.1147678
1086911,3914332256,Village of Green Springs,OH,C5,39143,41.2568872,-83.0529744
1086930,3954166,Village of New Boston,OH,C2,39145,38.7516347,-82.9352022
1086933,3964304,City of Portsmouth,OH,C2,39145,38.7538611,-82.944432
1086945,3914728014,City of Fostoria,OH,C6,39147,41.1601031,-83.4120511
1086956,3976778,City of Tiffin,OH,C2,39147,41.1164644,-83.1804742
1086972,3915101420,City of Alliance,OH,C6,39151,40.9107027,-81.1189229
1086974,3912000,City of Canton,OH,C2,39151,40.8077962,-81.3675723
1086980,3945094,City of Louisville,OH,C2,39151,40.8370413,-81.2641516
1086982,3948244,City of Massillon,OH,C2,39151,40.783819,-81.5253096
1086993,3901000,City of Akron,OH,C2,39153,41.0798515,-81.5219474
1086994,3903828,City of Barberton,OH,C2,39153,41.0094551,-81.6037036
1086997,3907790,Village of Boston Heights,OH,C2,39153,41.2538591,-81.5089564
1086998,3916182,Village of Clinton,OH,C2,39153,40.928379,-81.6304226
1087001,3919778,City of Cuyahoga Falls,OH,C2,39153,41.1402513,-81.4842643
1087005,3941454,Village of Lakemore,OH,C2,39153,41.0214602,-81.4263597
1087006,3945976,City of Macedonia,OH,C2,39153,41.3147577,-81.4988927
1087008,3953312,City of Munroe Falls,OH,C2,39153,41.1385786,-81.4343564
1087010,3956448,Village of Northfield,OH,C2,39153,41.3426262,-81.5285481
1087012,3957260,City of Norton,OH,C2,39153,41.0293731,-81.6460755
1087013,3966152,Village of Reminderville,OH,C2,39153,41.3337612,-81.4017761
1087016,3972494,Village of Silver Lake,OH,C2,39153,41.1593419,-81.4605533
1087018,3974944,City of Stow,OH,C2,39153,41.1764941,-81.4344037
1087019,3976106,City of Tallmadge,OH,C2,39153,41.1022962,-81.421652
1087020,3978050,City of Twinsburg,OH,C2,39153,41.3220326,-81.4450872
1087038,3944912,Village of Lordstown,OH,C2,39155,41.1683922,-80.8589879
1087042,3915558674,Village of Orangeville,OH,C5,39155,41.3421087,-80.5276178
1087046,3915580892,City of Warren,OH,C5,39155,41.2390106,-80.8174009
1087060,3955216,City of New Philadelphia,OH,C2,39157,40.4860505,-81.4400452
1087116,3942364,City of Lebanon,OH,C2,39165,39.4254318,-84.2133294
1087127,3905424,City of Belpre,OH,C2,39167,39.2814278,-81.5970474
1087138,3947628,City of Marietta,OH,C2,39167,39.4240818,-81.4465256
1087163,3986548,City of Wooster,OH,C2,39169,40.8170906,-81.933574
1087167,3909792,City of Bryan,OH,C2,39171,41.4706184,-84.5482607
1087179,3907972,City of Bowling Green,OH,C2,39173,41.3775622,-83.6495005
1087191,3957190,City of Northwood,OH,C2,39173,41.6089005,-83.4836524
1087193,3962148,City of Perrysburg,OH,C2,39173,41.5377287,-83.641257
1087197,3968686,City of Rossford,OH,C2,39173,41.5812358,-83.568193
1090465,4008600,Breckinridge,OK,C4,40047,36.4369774,-97.7317205
1101499,4042150,Leflore,OK,C4,40079,34.8987103,-94.9802358
1102839,4001500,Alluwe,OK,C4,40105,36.6103685,-95.4871973
1102841,4017200,Cordell,OK,C4,40149,35.290608,-98.988411
1102842,4021800,Duke,OK,C4,40065,34.6614558,-99.5700917
1102846,4062250,Red Bird,OK,C4,40145,35.885656,-95.5888674
1102850,4060950,Pryor,OK,C4,40097,36.3084275,-95.3169136
1120893,4126615,Camp Warner (historical),OR,M1,41037,42.3983333,-120.1363889
1168237,4202192,Alum Bank,PA,C4,42009,40.1806336,-78.6136291
1182289,4253256,New Bloomfield,PA,C4,42099,40.4198062,-77.1863718
1189109,4275552,Susquehanna,PA,C4,42115,41.9434141,-75.5996271
1197994,4245768,Lyon Station (historical),PA,C4,42011,40.4839832,-75.7585274
1201949,4215544,Conemaugh,PA,C4,42021,40.3267408,-78.9080805
1214750,4200100116,Borough of Abbottstown,PA,C5,42001,39.8842375,-76.9888224
1214751,4200102928,Borough of Arendtsville,PA,C5,42001,39.9233084,-77.2998618
1214752,4200105536,Borough of Bendersville,PA,C5,42001,39.9812758,-77.2493155
1214753,4200106296,Borough of Biglerville,PA,C5,42001,39.9303407,-77.2463186
1214754,4200107560,Borough of Bonneauville,PA,C5,42001,39.8104256,-77.13626
1214755,4200111472,Borough of Carroll Valley,PA,C5,42001,39.7498395,-77.3804812
1214756,4200120792,Borough of East Berlin,PA,C5,42001,39.9368909,-76.979366
1214757,4200124560,Borough of Fairfield,PA,C5,42001,39.7890013,-77.3698195
1214758,4200128960,Borough of Gettysburg,PA,C5,42001,39.8303677,-77.233853
1214759,4200143944,Borough of Littlestown,PA,C5,42001,39.7451704,-77.0892127
1214760,4200146376,Borough of McSherrystown,PA,C5,42001,39.8035271,-77.0198895
1214761,4200153920,Borough of New Oxford,PA,C5,42001,39.863001,-77.0554774
1214762,4200187136,Borough of York Springs,PA,C5,42001,40.0093306,-77.1159071
1214763,4200303320,Borough of Aspinwall,PA,C5,42003,40.4928488,-79.9037359
1214764,4200303608,Borough of Avalon,PA,C5,42003,40.5011009,-80.0680327
1214765,4200303928,Borough of Baldwin,PA,C5,42003,40.3743256,-79.9542687
1214766,4200305216,Borough of Bell Acres,PA,C5,42003,40.5897788,-80.1737812
1214767,4200305312,Borough of Bellevue,PA,C5,42003,40.4944827,-80.05499
1214768,4200305504,Borough of Ben Avon,PA,C5,42003,40.5058269,-80.0814818
1214769,4200305520,Borough of Ben Avon Heights,PA,C5,42003,40.512545,-80.0730812
1214770,4200306064,Municipality of Bethel Park,PA,C5,42003,40.3238063,-80.0364175
1214771,4200307000,Borough of Blawnox,PA,C5,42003,40.492186,-79.8599404
1214772,4200307976,Borough of Brackenridge,PA,C5,42003,40.6079175,-79.7410372
1214773,4200307992,Borough of Braddock,PA,C5,42003,40.4018169,-79.8689193
1214774,4200308008,Borough of Braddock Hills,PA,C5,42003,40.4180059,-79.8629264
1214775,4200308064,Borough of Bradford Woods,PA,C5,42003,40.636949,-80.0809002
1214776,4200308416,Borough of Brentwood,PA,C5,42003,40.373378,-79.9757839
1214777,4200308624,Borough of Bridgeville,PA,C5,42003,40.3577441,-80.106101
1214778,4200311336,Borough of Carnegie,PA,C5,42003,40.4079875,-80.0860375
