GNIS ID,GEOID,Name,Short Name,State,FIPS Class,Latitude,Longitude
23901,04027,Yuma County,Yuma,AZ,H1,32.7694043,-113.9055638
25441,04001,Apache County,Apache,AZ,H1,35.3956031,-109.4888541
25442,04003,Cochise County,Cochise,AZ,H1,31.8795613,-109.7513001
25443,04005,Coconino County,Coconino,AZ,H1,35.8387309,-111.7705132
25444,04009,Graham County,Graham,AZ,H1,32.9327158,-109.8874379
25445,04015,Mohave County,Mohave,AZ,H1,35.7040582,-113.7579112
25446,04019,Pima County,Pima,AZ,H1,32.0973867,-111.7899302
25447,04021,Pinal County,Pinal,AZ,H1,32.9043583,-111.3447269
37026,04013,Maricopa County,Maricopa,AZ,H1,33.3488294,-112.4912825
40471,04007,Gila County,Gila,AZ,H1,33.7997499,-110.8117371
40472,04023,Santa Cruz County,Santa Cruz,AZ,H1,31.526001,-110.8465712
42807,04011,Greenlee County,Greenlee,AZ,H1,33.2154832,-109.2402169
42808,04017,Navajo County,Navajo,AZ,H1,35.3995394,-110.3214029
42809,04025,Yavapai County,Yavapai,AZ,H1,34.5998814,-112.5538639
43540,04012,La Paz County,La Paz,AZ,H1,33.729264,-113.981338
63755,05001,Arkansas County,Arkansas,AR,H1,34.2908084,-91.3749055
63756,05003,Ashley County,Ashley,AR,H1,33.191222,-91.7684476
63757,05011,Bradley County,Bradley,AR,H1,33.4664224,-92.1624016
63758,05013,Calhoun County,Calhoun,AR,H1,33.5580342,-92.5030442
63759,05021,Clay County,Clay,AR,H1,36.3683942,-90.4173836
63760,05025,Cleveland County,Cleveland,AR,H1,33.8983632,-92.1851442
63761,05027,Columbia County,Columbia,AR,H1,33.2142872,-93.2273087
66845,05019,Clark County,Clark,AR,H1,34.0509559,-93.1763675
66846,05029,Conway County,Conway,AR,H1,35.2622146,-92.7013154
66847,05031,Craighead County,Craighead,AR,H1,35.8307887,-90.6328413
66848,05037,Cross County,Cross,AR,H1,35.2957261,-90.7712269
66849,05039,Dallas County,Dallas,AR,H1,33.9698311,-92.6544402
66850,05041,Desha County,Desha,AR,H1,33.8333332,-91.2539443
66851,05043,Drew County,Drew,AR,H1,33.5894506,-91.7200205
66852,05045,Faulkner County,Faulkner,AR,H1,35.1469786,-92.3320441
66853,05047,Franklin County,Franklin,AR,H1,35.5123506,-93.8906194
66854,05049,Fulton County,Fulton,AR,H1,36.3816696,-91.8182377
66855,05051,Garland County,Garland,AR,H1,34.576686,-93.1504249
66856,05053,Grant County,Grant,AR,H1,34.2900177,-92.423583
66857,05055,Greene County,Greene,AR,H1,36.1176977,-90.5590717
66858,05057,Hempstead County,Hempstead,AR,H1,33.7353046,-93.6684432
66859,05059,Hot Spring County,Hot Spring,AR,H1,34.3176343,-92.9460057
66860,05065,Izard County,Izard,AR,H1,36.0948747,-91.9134172
66861,05067,Jackson County,Jackson,AR,H1,35.5992305,-91.2145707
66862,05069,Jefferson County,Jefferson,AR,H1,34.2687851,-91.9315146
66863,05071,Johnson County,Johnson,AR,H1,35.5700549,-93.45991
66864,05073,Lafayette County,Lafayette,AR,H1,33.2409811,-93.607039
66865,05075,Lawrence County,Lawrence,AR,H1,36.0412474,-91.1070748
66866,05077,Lee County,Lee,AR,H1,34.7806229,-90.7820673
66872,05061,Howard County,Howard,AR,H1,34.0887429,-93.9934934
66873,05079,Lincoln County,Lincoln,AR,H1,33.9574676,-91.7333249
66874,05081,Little River County,Little River,AR,H1,33.7005399,-94.2343409
66975,05015,Carroll County,Carroll,AR,H1,36.3410285,-93.5382487
66983,05023,Cleburne County,Cleburne,AR,H1,35.5381092,-92.0267357
67102,05125,Saline County,Saline,AR,H1,34.6466181,-92.6765729
69160,05017,Chicot County,Chicot,AR,H1,33.2672553,-91.2939728
69161,05033,Crawford County,Crawford,AR,H1,35.5890909,-94.2428596
69162,05035,Crittenden County,Crittenden,AR,H1,35.207942,-90.3088607
69163,05063,Independence County,Independence,AR,H1,35.7415796,-91.5697244
69164,05085,Lonoke County,Lonoke,AR,H1,34.7542703,-91.8886677
69165,05087,Madison County,Madison,AR,H1,36.0109646,-93.724563
69166,05091,Miller County,Miller,AR,H1,33.3121466,-93.8915606
69167,05095,Monroe County,Monroe,AR,H1,34.6778384,-91.2038915
69168,05097,Montgomery County,Montgomery,AR,H1,34.5387936,-93.6595317
69169,05099,Nevada County,Nevada,AR,H1,33.6639661,-93.3071433
69170,05103,Ouachita County,Ouachita,AR,H1,33.593355,-92.8819344
69171,05105,Perry County,Perry,AR,H1,34.9473747,-92.9314711
69172,05107,Phillips County,Phillips,AR,H1,34.4282913,-90.8480221
69173,05109,Pike County,Pike,AR,H1,34.163498,-93.6563417
69174,05111,Poinsett County,Poinsett,AR,H1,35.5740321,-90.66294
69175,05113,Polk County,Polk,AR,H1,34.4858447,-94.2280685
69176,05117,Prairie County,Prairie,AR,H1,34.8297887,-91.552772
69177,05119,Pulaski County,Pulaski,AR,H1,34.7699318,-92.3117996
69178,05121,Randolph County,Randolph,AR,H1,36.3414833,-91.0277165
69179,05127,Scott County,Scott,AR,H1,34.860763,-94.0632491
69180,05129,Searcy County,Searcy,AR,H1,35.9109029,-92.6994883
69181,05131,Sebastian County,Sebastian,AR,H1,35.1997162,-94.2741404
69182,05133,Sevier County,Sevier,AR,H1,33.9971994,-94.2412174
69183,05135,Sharp County,Sharp,AR,H1,36.1611568,-91.4798635
69895,05005,Baxter County,Baxter,AR,H1,36.2871885,-92.3369713
69896,05007,Benton County,Benton,AR,H1,36.3387236,-94.2561898
69897,05009,Boone County,Boone,AR,H1,36.3085991,-93.0915627
69898,05089,Marion County,Marion,AR,H1,36.2683475,-92.6842202
69899,05093,Mississippi County,Mississippi,AR,H1,35.7639015,-90.054166
69900,05101,Newton County,Newton,AR,H1,35.9199747,-93.2178672
69901,05115,Pope County,Pope,AR,H1,35.4476331,-93.0341601
69902,05137,Stone County,Stone,AR,H1,35.8598662,-92.1566836
69903,05139,Union County,Union,AR,H1,33.1713631,-92.5972883
69904,05141,Van Buren County,Van Buren,AR,H1,35.5806506,-92.515702
69905,05143,Washington County,Washington,AR,H1,35.9790675,-94.215579
69906,05145,White County,White,AR,H1,35.2562741,-91.7455506
69907,05147,Woodruff County,Woodruff,AR,H1,35.1863344,-91.2430774
69908,05149,Yell County,Yell,AR,H1,35.0025972,-93.4112494
82850,05083,Logan County,Logan,AR,H1,35.2152725,-93.7163062
83331,05123,Saint Francis County,St. Francis,AR,H1,35.0220054,-90.7477854
161526,01001,Autauga County,Autauga,AL,H1,32.5349208,-86.6427573
161527,01003,Baldwin County,Baldwin,AL,H1,30.660974,-87.7498447
161528,01005,Barbour County,Barbour,AL,H1,31.8696032,-85.393197
161529,01007,Bibb County,Bibb,AL,H1,32.9986443,-87.1264391
161530,01009,Blount County,Blount,AL,H1,33.9808674,-86.567371
161531,01011,Bullock County,Bullock,AL,H1,32.1005542,-85.7156972
161532,01013,Butler County,Butler,AL,H1,31.7524339,-86.6802892
161533,01015,Calhoun County,Calhoun,AL,H1,33.7714282,-85.8260346
161534,01017,Chambers County,Chambers,AL,H1,32.9143722,-85.3920429
161535,01019,Cherokee County,Cherokee,AL,H1,34.175956,-85.6037937
161536,01021,Chilton County,Chilton,AL,H1,32.8478532,-86.7188137
161537,01023,Choctaw County,Choctaw,AL,H1,32.0196108,-88.2632013
161538,01025,Clarke County,Clarke,AL,H1,31.6766596,-87.8308099
161539,01027,Clay County,Clay,AL,H1,33.2690859,-85.8605471
161540,01029,Cleburne County,Cleburne,AL,H1,33.6745577,-85.518768
161541,01031,Coffee County,Coffee,AL,H1,31.4026272,-85.9882069
161542,01033,Colbert County,Colbert,AL,H1,34.7004338,-87.8049853
161543,01035,Conecuh County,Conecuh,AL,H1,31.4292652,-86.9936743
161544,01037,Coosa County,Coosa,AL,H1,32.9362268,-86.2476593
161545,01039,Covington County,Covington,AL,H1,31.2484924,-86.4512425
161546,01041,Crenshaw County,Crenshaw,AL,H1,31.7315002,-86.3135389
161547,01043,Cullman County,Cullman,AL,H1,34.1319411,-86.8676194
161548,01045,Dale County,Dale,AL,H1,31.4318271,-85.6110368
161549,01047,Dallas County,Dallas,AL,H1,32.3259693,-87.1064804
161550,01049,DeKalb County,DeKalb,AL,H1,34.459773,-85.8041426
161551,01051,Elmore County,Elmore,AL,H1,32.596648,-86.1491466
161552,01053,Escambia County,Escambia,AL,H1,31.1261225,-87.1616199
161553,01055,Etowah County,Etowah,AL,H1,34.0452541,-86.0347622
161554,01057,Fayette County,Fayette,AL,H1,33.7212061,-87.738862
161555,01059,Franklin County,Franklin,AL,H1,34.4416706,-87.843812
161556,01061,Geneva County,Geneva,AL,H1,31.0950167,-85.8389849
161557,01063,Greene County,Greene,AL,H1,32.8531388,-87.9522309
161558,01065,Hale County,Hale,AL,H1,32.7626642,-87.6291177
161559,01067,Henry County,Henry,AL,H1,31.5146944,-85.2414063
161560,01069,Houston County,Houston,AL,H1,31.153188,-85.3025274
161561,01071,Jackson County,Jackson,AL,H1,34.779416,-85.9993005
161562,01073,Jefferson County,Jefferson,AL,H1,33.5543143,-86.8964896
161563,01075,Lamar County,Lamar,AL,H1,33.7792058,-88.0968989
161564,01077,Lauderdale County,Lauderdale,AL,H1,34.9013724,-87.653998
161565,01079,Lawrence County,Lawrence,AL,H1,34.521652,-87.3110445
161566,01081,Lee County,Lee,AL,H1,32.6011365,-85.3555627
161567,01083,Limestone County,Limestone,AL,H1,34.8100783,-86.9813748
161568,01085,Lowndes County,Lowndes,AL,H1,32.15475,-86.6501077
161569,01087,Macon County,Macon,AL,H1,32.3859737,-85.6926687
161570,01089,Madison County,Madison,AL,H1,34.7630897,-86.5502065
161572,01091,Marengo County,Marengo,AL,H1,32.2476134,-87.7895193
161573,01093,Marion County,Marion,AL,H1,34.1365497,-87.8871384
161574,01095,Marshall County,Marshall,AL,H1,34.3669621,-86.306637
161575,01097,Mobile County,Mobile,AL,H1,30.6851469,-88.1975295
161576,01099,Monroe County,Monroe,AL,H1,31.5708367,-87.3654308
161577,01101,Montgomery County,Montgomery,AL,H1,32.2202579,-86.2076143
161578,01103,Morgan County,Morgan,AL,H1,34.453472,-86.8529216
161579,01105,Perry County,Perry,AL,H1,32.6384657,-87.2944008
161580,01107,Pickens County,Pickens,AL,H1,33.2808769,-88.0886926
161581,01109,Pike County,Pike,AL,H1,31.8027085,-85.9409081
161582,01111,Randolph County,Randolph,AL,H1,33.2937873,-85.4590702
161583,01113,Russell County,Russell,AL,H1,32.28838,-85.1849624
161584,01117,Shelby County,Shelby,AL,H1,33.264277,-86.6606484
161585,01119,Sumter County,Sumter,AL,H1,32.5910175,-88.1987896
161586,01121,Talladega County,Talladega,AL,H1,33.3800574,-86.1659069
161587,01123,Tallapoosa County,Tallapoosa,AL,H1,32.8624049,-85.7975022
161588,01125,Tuscaloosa County,Tuscaloosa,AL,H1,33.2895498,-87.52503
161589,01127,Walker County,Walker,AL,H1,33.8033347,-87.2973574
161590,01129,Washington County,Washington,AL,H1,31.4076038,-88.2078768
161591,01131,Wilcox County,Wilcox,AL,H1,31.9892402,-87.3082018
161592,01133,Winston County,Winston,AL,H1,34.1492251,-87.3736834
164997,01115,Saint Clair County,St. Clair,AL,H1,33.7157029,-86.3146878
198116,08001,Adams County,Adams,CO,H1,39.8736402,-104.3378006
198117,08003,Alamosa County,Alamosa,CO,H1,37.5728931,-105.7882882
198118,08005,Arapahoe County,Arapahoe,CO,H1,39.6497751,-104.339236
198119,08007,Archuleta County,Archuleta,CO,H1,37.1936094,-107.0482883
198120,08009,Baca County,Baca,CO,H1,37.3191788,-102.5604766
198121,08011,Bent County,Bent,CO,H1,37.9550856,-103.0717046
198122,08013,Boulder County,Boulder,CO,H1,40.0924598,-105.3577057
198123,08015,Chaffee County,Chaffee,CO,H1,38.7469031,-106.1940667
198124,08017,Cheyenne County,Cheyenne,CO,H1,38.8279397,-102.6033958
198125,08019,Clear Creek County,Clear Creek,CO,H1,39.6891024,-105.644359
198126,08021,Conejos County,Conejos,CO,H1,37.2006875,-106.191628
198127,08023,Costilla County,Costilla,CO,H1,37.2779523,-105.4282497
198128,08025,Crowley County,Crowley,CO,H1,38.3266611,-103.7848257
198129,08027,Custer County,Custer,CO,H1,38.1086779,-105.3674718
198130,08029,Delta County,Delta,CO,H1,38.8613738,-107.8628768
198131,08031,Denver County,Denver,CO,H6,39.7621563,-104.8758189
198132,08033,Dolores County,Dolores,CO,H1,37.7516108,-108.5172653
198133,08035,Douglas County,Douglas,CO,H1,39.329723,-104.9295611
198134,08037,Eagle County,Eagle,CO,H1,39.6278256,-106.6952993
198135,08041,El Paso County,El Paso,CO,H1,38.8320891,-104.5255846
198136,08039,Elbert County,Elbert,CO,H1,39.28656,-104.1358915
198137,08043,Fremont County,Fremont,CO,H1,38.4729725,-105.4396571
198138,08045,Garfield County,Garfield,CO,H1,39.5993072,-107.9039562
198139,08047,Gilpin County,Gilpin,CO,H1,39.8575581,-105.5225315
198140,08049,Grand County,Grand,CO,H1,40.1026149,-106.1183583
198141,08051,Gunnison County,Gunnison,CO,H1,38.6667977,-107.0317001
198142,08053,Hinsdale County,Hinsdale,CO,H1,37.8213416,-107.3003118
198143,08055,Huerfano County,Huerfano,CO,H1,37.6846796,-104.9605845
198144,08057,Jackson County,Jackson,CO,H1,40.6664327,-106.3427947
198145,08059,Jefferson County,Jefferson,CO,H1,39.5864286,-105.2504678
198146,08061,Kiowa County,Kiowa,CO,H1,38.4326851,-102.7403405
198147,08063,Kit Carson County,Kit Carson,CO,H1,39.3054413,-102.6028874
198148,08067,La Plata County,La Plata,CO,H1,37.286582,-107.8432707
198149,08065,Lake County,Lake,CO,H1,39.2023795,-106.3448377
198150,08069,Larimer County,Larimer,CO,H1,40.6664171,-105.4611443
198151,08071,Las Animas County,Las Animas,CO,H1,37.3158385,-104.0386998
198152,08073,Lincoln County,Lincoln,CO,H1,38.9880686,-103.5139654
198153,08075,Logan County,Logan,CO,H1,40.7246687,-103.1100957
198154,08077,Mesa County,Mesa,CO,H1,39.0182905,-108.4664402
198155,08079,Mineral County,Mineral,CO,H1,37.6689957,-106.9240946
198156,08081,Moffat County,Moffat,CO,H1,40.6184222,-108.2072906
198157,08083,Montezuma County,Montezuma,CO,H1,37.338434,-108.5966698
198158,08085,Montrose County,Montrose,CO,H1,38.402156,-108.2694511
198159,08087,Morgan County,Morgan,CO,H1,40.2627444,-103.8098222
198160,08089,Otero County,Otero,CO,H1,37.9027017,-103.7164457
198161,08091,Ouray County,Ouray,CO,H1,38.1554972,-107.7693168
198162,08093,Park County,Park,CO,H1,39.1193029,-105.7171747
198163,08095,Phillips County,Phillips,CO,H1,40.5938843,-102.3575796
198164,08097,Pitkin County,Pitkin,CO,H1,39.2171057,-106.9165777
198165,08099,Prowers County,Prowers,CO,H1,37.9551832,-102.393349
198166,08101,Pueblo County,Pueblo,CO,H1,38.1734202,-104.5128456
198167,08103,Rio Blanco County,Rio Blanco,CO,H1,39.9798358,-108.2172258
198168,08105,Rio Grande County,Rio Grande,CO,H1,37.5825228,-106.3832104
198169,08107,Routt County,Routt,CO,H1,40.4850679,-106.9911932
198170,08109,Saguache County,Saguache,CO,H1,38.0805528,-106.2815556
198171,08111,San Juan County,San Juan,CO,H1,37.7640431,-107.6761473
198172,08113,San Miguel County,San Miguel,CO,H1,38.0037404,-108.4059221
198173,08115,Sedgwick County,Sedgwick,CO,H1,40.875905,-102.3517912
198174,08117,Summit County,Summit,CO,H1,39.6341708,-106.1163791
198175,08119,Teller County,Teller,CO,H1,38.882172,-105.1618264
198176,08121,Washington County,Washington,CO,H1,39.9710618,-103.2012529
198177,08123,Weld County,Weld,CO,H1,40.5548278,-104.3925328
198178,08125,Yuma County,Yuma,CO,H1,40.0028993,-102.4242263
217269,10005,Sussex County,Sussex,DE,H1,38.6832972,-75.3395416
217270,10003,New Castle County,New Castle,DE,H1,39.5783299,-75.6389781
217271,10001,Kent County,Kent,DE,H1,39.0959543,-75.5046136
277273,06017,El Dorado County,El Dorado,CA,H1,38.778738,-120.5246469
277274,06019,Fresno County,Fresno,CA,H1,36.7581801,-119.6493226
277275,06021,Glenn County,Glenn,CA,H1,39.5984048,-122.3922068
277277,06025,Imperial County,Imperial,CA,H1,33.039506,-115.3653197
277280,06031,Kings County,Kings,CA,H1,36.0753605,-119.8155027
277281,06033,Lake County,Lake,CA,H1,39.0996453,-122.7531839
277283,06037,Los Angeles County,Los Angeles,CA,H1,34.1980015,-118.261017
277284,06039,Madera County,Madera,CA,H1,37.2180441,-119.7626445
277285,06041,Marin County,Marin,CA,H1,38.0551833,-122.7488586
277286,06043,Mariposa County,Mariposa,CA,H1,37.5815223,-119.905517
277287,06045,Mendocino County,Mendocino,CA,H1,39.4336238,-123.4315539
277288,06047,Merced County,Merced,CA,H1,37.1918705,-120.717688
277289,06049,Modoc County,Modoc,CA,H1,41.5898336,-120.725029
277290,06051,Mono County,Mono,CA,H1,37.9389903,-118.8867093
277291,06053,Monterey County,Monterey,CA,H1,36.2397744,-121.3089016
277292,06055,Napa County,Napa,CA,H1,38.5064737,-122.3305332
277294,06059,Orange County,Orange,CA,H1,33.6769131,-117.7761462
277295,06061,Placer County,Placer,CA,H1,39.0634272,-120.7176516
277296,06063,Plumas County,Plumas,CA,H1,40.0046825,-120.8385976
277297,06065,Riverside County,Riverside,CA,H1,33.7436803,-115.9938489
277298,06067,Sacramento County,Sacramento,CA,H1,38.4493148,-121.3442434
277299,06069,San Benito County,San Benito,CA,H1,36.6057059,-121.0749955
277300,06071,San Bernardino County,San Bernardino,CA,H1,34.8414382,-116.1784608
277301,06073,San Diego County,San Diego,CA,H1,33.0282032,-116.7702074
277302,06075,San Francisco County,San Francisco,CA,H6,37.7782251,-122.4424955
277303,06077,San Joaquin County,San Joaquin,CA,H1,37.934746,-121.2714032
277304,06079,San Luis Obispo County,San Luis Obispo,CA,H1,35.3874185,-120.4521969
277305,06081,San Mateo County,San Mateo,CA,H1,37.4362097,-122.3556632
277306,06083,Santa Barbara County,Santa Barbara,CA,H1,34.5383441,-120.0307862
277307,06085,Santa Clara County,Santa Clara,CA,H1,37.232484,-121.6962789
277308,06087,Santa Cruz County,Santa Cruz,CA,H1,37.0216059,-122.0097874
277310,06091,Sierra County,Sierra,CA,H1,39.5804001,-120.5159964
277311,06093,Siskiyou County,Siskiyou,CA,H1,41.5926866,-122.5403678
277312,06095,Solano County,Solano,CA,H1,38.2669191,-121.9400069
277314,06099,Stanislaus County,Stanislaus,CA,H1,37.5591374,-120.9976829
277315,06101,Sutter County,Sutter,CA,H1,39.034524,-121.6948443
277317,06105,Trinity County,Trinity,CA,H1,40.6506936,-123.1126277
277318,06107,Tulare County,Tulare,CA,H1,36.2201566,-118.8004725
277319,06109,Tuolumne County,Tuolumne,CA,H1,38.0276014,-119.9547536
277320,06111,Ventura County,Ventura,CA,H1,34.3575285,-119.1260272
277321,06113,Yolo County,Yolo,CA,H1,38.6866465,-121.9016205
277322,06115,Yuba County,Yuba,CA,H1,39.2690077,-121.3512627
293656,12031,Duval County,Duval,FL,H6,30.3354409,-81.6480088
294452,12027,DeSoto County,DeSoto,FL,H1,27.1863202,-81.809301
295724,12075,Levy County,Levy,FL,H1,29.2822056,-82.7886131
295725,12029,Dixie County,Dixie,FL,H1,29.5812415,-83.1870325
295726,12019,Clay County,Clay,FL,H1,29.9830675,-81.8578842
295727,12131,Walton County,Walton,FL,H1,30.6184688,-86.1715163
295728,12123,Taylor County,Taylor,FL,H1,30.0195666,-83.6189726
295729,12121,Suwannee County,Suwannee,FL,H1,30.1956117,-82.9914924
295730,12089,Nassau County,Nassau,FL,H1,30.6105781,-81.7714179
295731,12079,Madison County,Madison,FL,H1,30.444143,-83.4701228
295732,12067,Lafayette County,Lafayette,FL,H1,29.9855183,-83.1810673
295733,12065,Jefferson County,Jefferson,FL,H1,30.4234582,-83.9004745
295734,12063,Jackson County,Jackson,FL,H1,30.795391,-85.2154596
295735,12059,Holmes County,Holmes,FL,H1,30.8678906,-85.8141024
295736,12047,Hamilton County,Hamilton,FL,H1,30.4964267,-82.9479591
295737,12033,Escambia County,Escambia,FL,H1,30.6143964,-87.3413642
295738,12005,Bay County,Bay,FL,H1,30.2376465,-85.6326228
295739,12101,Pasco County,Pasco,FL,H1,28.3067397,-82.4388684
295740,12119,Sumter County,Sumter,FL,H1,28.7048225,-82.0809954
295741,12115,Sarasota County,Sarasota,FL,H1,27.1824778,-82.3649735
295742,12015,Charlotte County,Charlotte,FL,H1,26.8998458,-81.9503081
295743,12043,Glades County,Glades,FL,H1,26.9564757,-81.1889796
295744,12081,Manatee County,Manatee,FL,H1,27.4775225,-82.3575396
295745,12103,Pinellas County,Pinellas,FL,H1,27.9026762,-82.7395539
295746,12049,Hardee County,Hardee,FL,H1,27.4926982,-81.8099258
295747,12105,Polk County,Polk,FL,H1,27.9488658,-81.6976805
295748,12097,Osceola County,Osceola,FL,H1,28.0626646,-81.1494998
295749,12009,Brevard County,Brevard,FL,H1,28.3003141,-80.7012055
295750,12095,Orange County,Orange,FL,H1,28.5144161,-81.3234735
295751,12053,Hernando County,Hernando,FL,H1,28.5561708,-82.4684892
295752,12017,Citrus County,Citrus,FL,H1,28.8475697,-82.5201067
295753,12011,Broward County,Broward,FL,H1,26.1518566,-80.4558852
295754,12021,Collier County,Collier,FL,H1,26.099239,-81.3809731
295755,12086,Miami-Dade County,Miami-Dade,FL,H1,25.6089682,-80.4986668
295756,12055,Highlands County,Highlands,FL,H1,27.3434043,-81.3409709
295757,12057,Hillsborough County,Hillsborough,FL,H1,27.906229,-82.3469205
295758,12071,Lee County,Lee,FL,H1,26.5756897,-81.9154527
295759,12087,Monroe County,Monroe,FL,H1,24.9843807,-80.667946
295760,12093,Okeechobee County,Okeechobee,FL,H1,27.386292,-80.8885759
295761,12099,Palm Beach County,Palm Beach,FL,H1,26.6475682,-80.4365085
295762,12133,Washington County,Washington,FL,H1,30.6105923,-85.6653287
303633,12041,Gilchrist County,Gilchrist,FL,H1,29.7258227,-82.8003665
303634,12007,Bradford County,Bradford,FL,H1,29.9499596,-82.1687778
303665,12117,Seminole County,Seminole,FL,H1,28.7169753,-81.2363279
306909,12023,Columbia County,Columbia,FL,H1,30.2242402,-82.621539
306910,12107,Putnam County,Putnam,FL,H1,29.6086348,-81.7443041
306911,12037,Franklin County,Franklin,FL,H1,29.8116836,-84.8004566
306912,12129,Wakulla County,Wakulla,FL,H1,30.1477727,-84.3756072
306913,12125,Union County,Union,FL,H1,30.0438389,-82.3714417
306914,12113,Santa Rosa County,Santa Rosa,FL,H1,30.6929038,-87.0184494
306915,12091,Okaloosa County,Okaloosa,FL,H1,30.6650297,-86.5921751
306916,12073,Leon County,Leon,FL,H1,30.4580386,-84.2778813
306917,12045,Gulf County,Gulf,FL,H1,29.9086211,-85.2610063
306918,12039,Gadsden County,Gadsden,FL,H1,30.5794689,-84.6135993
306919,12013,Calhoun County,Calhoun,FL,H1,30.4060342,-85.1972072
306920,12003,Baker County,Baker,FL,H1,30.331071,-82.2845873
306921,12127,Volusia County,Volusia,FL,H1,29.0634497,-81.1485748
306922,12083,Marion County,Marion,FL,H1,29.2102023,-82.0566757
307624,12061,Indian River County,Indian River,FL,H1,27.6963908,-80.5740896
307626,12051,Hendry County,Hendry,FL,H1,26.5534899,-81.1659013
308371,12109,Saint Johns County,St. Johns,FL,H1,29.9121824,-81.4098865
308372,12111,Saint Lucie County,St. Lucie,FL,H1,27.3808664,-80.4456031
308547,12035,Flagler County,Flagler,FL,H1,29.4711478,-81.2929946
308548,12001,Alachua County,Alachua,FL,H1,29.6747551,-82.3577015
308549,12077,Liberty County,Liberty,FL,H1,30.2413631,-84.8829112
308550,12085,Martin County,Martin,FL,H1,27.0816211,-80.3984704
308551,12069,Lake County,Lake,FL,H1,28.7614689,-81.7113032
326638,13019,Berrien County,Berrien,GA,H1,31.2760599,-83.229622
326650,13045,Carroll County,Carroll,GA,H1,33.5827979,-85.0797631
326666,13077,Coweta County,Coweta,GA,H1,33.3534617,-84.7633607
326700,13145,Harris County,Harris,GA,H1,32.7360042,-84.9089882
326713,13171,Lamar County,Lamar,GA,H1,33.0765358,-84.1394627
326719,13183,Long County,Long,GA,H1,31.7525848,-81.745767
326720,13185,Lowndes County,Lowndes,GA,H1,30.8338569,-83.2677077
326757,13263,Talbot County,Talbot,GA,H1,32.6994863,-84.5330102
326781,13311,White County,White,GA,H1,34.6463601,-83.747115
342832,13007,Baker County,Baker,GA,H1,31.3261839,-84.4446695
342852,13043,Candler County,Candler,GA,H1,32.4034428,-82.0736728
342918,13079,Crawford County,Crawford,GA,H1,32.7145017,-83.9863423
342985,13165,Jenkins County,Jenkins,GA,H1,32.7924711,-81.963532
343073,13207,Monroe County,Monroe,GA,H1,33.0138973,-83.9186821
343153,13225,Peach County,Peach,GA,H1,32.5687781,-83.8268782
343238,13287,Turner County,Turner,GA,H1,31.7163848,-83.624093
343365,13321,Worth County,Worth,GA,H1,31.5515117,-83.8508757
343390,13177,Lee County,Lee,GA,H1,31.7795066,-84.1411344
343504,13261,Sumter County,Sumter,GA,H1,32.0399692,-84.1970414
343585,13233,Polk County,Polk,GA,H1,34.0017845,-85.1881534
343645,13205,Mitchell County,Mitchell,GA,H1,31.2253197,-84.1943088
343835,13275,Thomas County,Thomas,GA,H1,30.8636815,-83.9193134
343878,13075,Cook County,Cook,GA,H1,31.153991,-83.4304651
343936,13071,Colquitt County,Colquitt,GA,H1,31.1883905,-83.7688483
344074,13037,Calhoun County,Calhoun,GA,H1,31.5291973,-84.6245077
344088,13201,Miller County,Miller,GA,H1,31.1639914,-84.7307217
344090,13277,Tift County,Tift,GA,H1,31.4574378,-83.5265943
344107,13197,Marion County,Marion,GA,H1,32.3533782,-84.5246379
344129,13249,Schley County,Schley,GA,H1,32.2616858,-84.3147208
344156,13269,Taylor County,Taylor,GA,H1,32.5554593,-84.2504642
344784,13005,Bacon County,Bacon,GA,H1,31.5536748,-82.4526851
344805,13061,Clay County,Clay,GA,H1,31.6262755,-84.9801029
345041,13099,Early County,Early,GA,H1,31.3228327,-84.9036434
345220,13279,Toombs County,Toombs,GA,H1,32.1217203,-82.3312929
345255,13009,Baldwin County,Baldwin,GA,H1,33.0692758,-83.2495906
345367,13169,Jones County,Jones,GA,H1,33.0251332,-83.5605242
345456,13289,Twiggs County,Twiggs,GA,H1,32.6672014,-83.4270835
345499,13315,Wilcox County,Wilcox,GA,H1,31.9728932,-83.4323638
345518,13027,Brooks County,Brooks,GA,H1,30.8419677,-83.5802119
345642,13125,Glascock County,Glascock,GA,H1,33.22928,-82.6107022
345714,13163,Jefferson County,Jefferson,GA,H1,33.0548441,-82.4181515
345784,13003,Atkinson County,Atkinson,GA,H1,31.2971083,-82.8799929
345923,13109,Evans County,Evans,GA,H1,32.156763,-81.8868846
346008,13211,Morgan County,Morgan,GA,H1,33.5908249,-83.4923823
346144,13159,Jasper County,Jasper,GA,H1,33.3164336,-83.6880896
346482,13231,Pike County,Pike,GA,H1,33.0922652,-84.3892347
346568,13175,Laurens County,Laurens,GA,H1,32.4636566,-82.9222384
346664,13167,Johnson County,Johnson,GA,H1,32.7014651,-82.6600811
346759,13293,Upson County,Upson,GA,H1,32.88127,-84.2993435
346824,13319,Wilkinson County,Wilkinson,GA,H1,32.8024055,-83.1712491
346892,13199,Meriwether County,Meriwether,GA,H1,33.0406559,-84.6883116
346957,13193,Macon County,Macon,GA,H1,32.3583892,-84.0424796
347067,13149,Heard County,Heard,GA,H1,33.2970284,-85.1282704
347246,13237,Putnam County,Putnam,GA,H1,33.3217674,-83.3728414
347360,13259,Stewart County,Stewart,GA,H1,32.0784622,-84.8352024
347445,13267,Tattnall County,Tattnall,GA,H1,32.0457484,-82.0581759
347451,13023,Bleckley County,Bleckley,GA,H1,32.4344414,-83.3278388
347456,13069,Coffee County,Coffee,GA,H1,31.5492718,-82.849201
347465,13083,Dade County,Dade,GA,H1,34.8545207,-85.5045272
347505,13283,Treutlen County,Treutlen,GA,H1,32.4038815,-82.5672825
347508,13107,Emanuel County,Emanuel,GA,H1,32.5897619,-82.3017085
347593,13235,Pulaski County,Pulaski,GA,H1,32.2322989,-83.4759619
347654,13265,Taliaferro County,Taliaferro,GA,H1,33.5660908,-82.8787645
347777,13301,Warren County,Warren,GA,H1,33.4089634,-82.6767617
347828,13105,Elbert County,Elbert,GA,H1,34.1167933,-82.8400955
347944,13033,Burke County,Burke,GA,H1,33.0611535,-82.0007812
348092,13101,Echols County,Echols,GA,H1,30.7100896,-82.8939352
348102,13173,Lanier County,Lanier,GA,H1,31.0378936,-83.0626534
348116,13091,Dodge County,Dodge,GA,H1,32.1721824,-83.1684
348209,13141,Hancock County,Hancock,GA,H1,33.270426,-83.0006869
348428,13303,Washington County,Washington,GA,H1,32.9695357,-82.7958992
348672,13133,Greene County,Greene,GA,H1,33.5787842,-83.1666552
348794,13189,McDuffie County,McDuffie,GA,H1,33.4828555,-82.4813705
348865,13073,Columbia County,Columbia,GA,H1,33.5441207,-82.2640623
349086,13229,Pierce County,Pierce,GA,H1,31.3587576,-82.2127427
349113,13001,Appling County,Appling,GA,H1,31.7492804,-82.2889836
349230,13011,Banks County,Banks,GA,H1,34.3541323,-83.4973711
349324,13119,Franklin County,Franklin,GA,H1,34.3754359,-83.2291753
349570,13157,Jackson County,Jackson,GA,H1,34.1338822,-83.5663489
349912,13223,Paulding County,Paulding,GA,H1,33.9205456,-84.8672885
350028,13257,Stephens County,Stephens,GA,H1,34.5539439,-83.2934331
350204,13251,Screven County,Screven,GA,H1,32.7505866,-81.6119346
350219,13103,Effingham County,Effingham,GA,H1,32.3673104,-81.3413453
350302,13031,Bulloch County,Bulloch,GA,H1,32.396814,-81.7431818
350496,13029,Bryan County,Bryan,GA,H1,32.0132243,-81.4424722
350547,13239,Quitman County,Quitman,GA,H1,31.8673306,-85.0187842
350608,13305,Wayne County,Wayne,GA,H1,31.5514337,-81.9167587
350637,13143,Haralson County,Haralson,GA,H1,33.7942334,-85.2110263
351012,13053,Chattahoochee County,Chattahoochee,GA,H6,32.3469718,-84.7870497
351094,13111,Fannin County,Fannin,GA,H1,34.8641147,-84.3198526
351252,13281,Towns County,Towns,GA,H1,34.9166292,-83.7372728
351259,13095,Dougherty County,Dougherty,GA,H1,31.533374,-84.2162537
351260,13123,Gilmer County,Gilmer,GA,H1,34.6911781,-84.455627
351261,13131,Grady County,Grady,GA,H1,30.8746728,-84.2344263
351262,13221,Oglethorpe County,Oglethorpe,GA,H1,33.880648,-83.0807032
351263,13253,Seminole County,Seminole,GA,H1,30.9387779,-84.8688701
351264,13297,Walton County,Walton,GA,H1,33.7815571,-83.7338466
351265,13317,Wilkes County,Wilkes,GA,H1,33.7819452,-82.7432267
351278,13309,Wheeler County,Wheeler,GA,H1,32.1170652,-82.7245933
351285,13065,Clinch County,Clinch,GA,H1,30.9149469,-82.7062371
351312,13085,Dawson County,Dawson,GA,H1,34.4442981,-84.1706357
351383,13137,Habersham County,Habersham,GA,H1,34.6310213,-83.5311159
351489,13241,Rabun County,Rabun,GA,H1,34.8817245,-83.4020707
351604,13015,Bartow County,Bartow,GA,H1,34.2378635,-84.8405079
351605,13025,Brantley County,Brantley,GA,H1,31.1968761,-81.9818953
351606,13017,Ben Hill County,Ben Hill,GA,H1,31.7597819,-83.220459
351607,13081,Crisp County,Crisp,GA,H1,31.922932,-83.768104
351608,13093,Dooly County,Dooly,GA,H1,32.1571786,-83.7987514
352213,13055,Chattooga County,Chattooga,GA,H1,34.4750153,-85.3452914
352234,13087,Decatur County,Decatur,GA,H1,30.8783441,-84.5790702
352238,13273,Terrell County,Terrell,GA,H1,31.776881,-84.4369222
352242,13243,Randolph County,Randolph,GA,H1,31.7626227,-84.7541921
352276,13209,Montgomery County,Montgomery,GA,H1,32.1733642,-82.5348173
352287,13307,Webster County,Webster,GA,H6,32.0466489,-84.5510527
352295,13035,Butts County,Butts,GA,H1,33.2878507,-83.9571695
352302,13155,Irwin County,Irwin,GA,H1,31.602283,-83.276375
353055,13255,Spalding County,Spalding,GA,H1,33.2608685,-84.2841597
353193,13291,Union County,Union,GA,H1,34.8340186,-83.9907597
353230,13047,Catoosa County,Catoosa,GA,H1,34.9036574,-85.1382469
353513,13313,Whitfield County,Whitfield,GA,H1,34.8056116,-84.9672206
353665,13115,Floyd County,Floyd,GA,H1,34.2631627,-85.2142787
354216,13295,Walker County,Walker,GA,H1,34.7356589,-85.3009849
356672,13129,Gordon County,Gordon,GA,H1,34.5033592,-84.8757527
356774,13219,Oconee County,Oconee,GA,H1,33.834939,-83.4370538
356886,13191,McIntosh County,McIntosh,GA,H1,31.4838062,-81.3755664
356958,13271,Telfair County,Telfair,GA,H1,31.929801,-82.9389875
356976,13013,Barrow County,Barrow,GA,H1,33.9931962,-83.712755
357095,13179,Liberty County,Liberty,GA,H1,31.8072289,-81.4562557
357196,13187,Lumpkin County,Lumpkin,GA,H1,34.5721859,-84.0026502
357428,13215,Muscogee County,Muscogee,GA,H6,32.5099614,-84.8770409
357592,13247,Rockdale County,Rockdale,GA,H1,33.6542354,-84.0266083
357722,13299,Ware County,Ware,GA,H1,31.0536325,-82.4236758
357747,13049,Charlton County,Charlton,GA,H1,30.7817272,-82.1376881
358024,13245,Richmond County,Richmond,GA,H6,33.3596349,-82.0735491
365280,15001,Hawaii County,Hawaii,HI,H1,19.6023968,-155.5228859
365281,15003,Honolulu County,Honolulu,HI,H6,21.4554312,-157.9613774
365282,15007,Kauai County,Kauai,HI,H1,22.0110799,-159.7054382
365283,15009,Maui County,Maui,HI,H1,20.8677354,-156.6170588
394803,16065,Madison County,Madison,ID,H1,43.7841403,-111.6591885
394807,16067,Minidoka County,Minidoka,ID,H1,42.85426,-113.6374638
394896,16075,Payette County,Payette,ID,H1,44.006758,-116.7608466
394951,16077,Power County,Power,ID,H1,42.6936561,-112.840656
395066,16001,Ada County,Ada,ID,H1,43.4511,-116.2411666
395067,16003,Adams County,Adams,ID,H1,44.889588,-116.4538829
395090,16007,Bear Lake County,Bear Lake,ID,H1,42.2847872,-111.3297388
395091,16005,Bannock County,Bannock,ID,H1,42.6684852,-112.2246188
395157,16015,Boise County,Boise,ID,H1,43.9891395,-115.7303225
395158,16017,Bonner County,Bonner,ID,H1,48.300025,-116.6010614
395159,16021,Boundary County,Boundary,ID,H1,48.766894,-116.462903
395190,16009,Benewah County,Benewah,ID,H1,47.2175379,-116.6586542
395406,16029,Caribou County,Caribou,ID,H1,42.7705181,-111.5622153
395407,16019,Bonneville County,Bonneville,ID,H1,43.3877424,-111.6147527
395408,16043,Fremont County,Fremont,ID,H1,44.2287741,-111.4819559
395441,16047,Gooding County,Gooding,ID,H1,42.9710217,-114.8115149
395442,16045,Gem County,Gem,ID,H1,44.0615465,-116.397519
395585,16041,Franklin County,Franklin,ID,H1,42.1810917,-111.8132011
395613,16057,Latah County,Latah,ID,H1,46.8161762,-116.7117232
395622,16061,Lewis County,Lewis,ID,H1,46.2369925,-116.4263262
395624,16063,Lincoln County,Lincoln,ID,H1,43.0024009,-114.1382073
395661,16055,Kootenai County,Kootenai,ID,H1,47.6743566,-116.701762
395662,16053,Jerome County,Jerome,ID,H1,42.6899047,-114.2639414
395696,16013,Blaine County,Blaine,ID,H1,43.4119406,-113.9801476
395697,16035,Clearwater County,Clearwater,ID,H1,46.6737194,-115.6569071
395698,16031,Cassia County,Cassia,ID,H1,42.283881,-113.6000883
395699,16049,Idaho County,Idaho,ID,H1,45.8441977,-115.4674871
399297,16081,Teton County,Teton,ID,H1,43.7594299,-111.2076145
399334,16083,Twin Falls County,Twin Falls,ID,H1,42.3558759,-114.6671485
399394,16069,Nez Perce County,Nez Perce,ID,H1,46.3268492,-116.7502769
399406,16027,Canyon County,Canyon,ID,H1,43.625087,-116.7092701
399408,16025,Camas County,Camas,ID,H1,43.4633261,-114.8057769
399751,16051,Jefferson County,Jefferson,ID,H1,43.8201325,-112.3113025
399754,16059,Lemhi County,Lemhi,ID,H1,44.9432467,-113.933251
399755,16033,Clark County,Clark,ID,H1,44.2839056,-112.3512975
399756,16085,Valley County,Valley,ID,H1,44.7666379,-115.5662804
399757,16087,Washington County,Washington,ID,H1,44.4524548,-116.7847813
399758,16037,Custer County,Custer,ID,H1,44.2411157,-114.2817225
399759,16071,Oneida County,Oneida,ID,H1,42.1949698,-112.5393566
399760,16073,Owyhee County,Owyhee,ID,H1,42.5814261,-116.1699684
400252,16039,Elmore County,Elmore,ID,H1,43.3538854,-115.4692624
400593,16011,Bingham County,Bingham,ID,H1,43.2165581,-112.3980785
401703,16023,Butte County,Butte,ID,H1,43.7229326,-113.172034
422190,17037,DeKalb County,DeKalb,IL,H1,41.8935286,-88.7703148
422191,17043,DuPage County,DuPage,IL,H1,41.8519578,-88.0856254
422247,17099,LaSalle County,LaSalle,IL,H1,41.3439945,-88.8859462
424202,17001,Adams County,Adams,IL,H1,39.9878941,-91.1884889
424203,17003,Alexander County,Alexander,IL,H1,37.1915992,-89.3376425
424204,17005,Bond County,Bond,IL,H1,38.8868166,-89.4355495
424205,17007,Boone County,Boone,IL,H1,42.3230797,-88.8233634
424206,17009,Brown County,Brown,IL,H1,39.9618116,-90.7503423
424207,17011,Bureau County,Bureau,IL,H1,41.4041524,-89.5286775
424208,17013,Calhoun County,Calhoun,IL,H1,39.1692953,-90.6675298
424209,17015,Carroll County,Carroll,IL,H1,42.0686857,-89.9344133
424210,17017,Cass County,Cass,IL,H1,39.9735655,-90.2473857
424211,17019,Champaign County,Champaign,IL,H1,40.1400839,-88.1991919
424212,17021,Christian County,Christian,IL,H1,39.5457933,-89.2772681
424213,17023,Clark County,Clark,IL,H1,39.3335669,-87.7877227
424214,17025,Clay County,Clay,IL,H1,38.7541624,-88.4901924
424215,17027,Clinton County,Clinton,IL,H1,38.6064519,-89.4224849
424216,17029,Coles County,Coles,IL,H1,39.5202869,-88.2217953
424218,17033,Crawford County,Crawford,IL,H1,39.0026864,-87.7595569
424219,17035,Cumberland County,Cumberland,IL,H1,39.2733166,-88.2402304
424222,17041,Douglas County,Douglas,IL,H1,39.7694639,-88.217355
424224,17045,Edgar County,Edgar,IL,H1,39.6785346,-87.7455709
424225,17047,Edwards County,Edwards,IL,H1,38.4165327,-88.0532689
424226,17049,Effingham County,Effingham,IL,H1,39.0597698,-88.5898573
424227,17051,Fayette County,Fayette,IL,H1,39.0001909,-89.0241435
424228,17053,Ford County,Ford,IL,H1,40.597177,-88.2232587
424229,17055,Franklin County,Franklin,IL,H1,37.992285,-88.9241539
424230,17057,Fulton County,Fulton,IL,H1,40.4727664,-90.2074727
424231,17059,Gallatin County,Gallatin,IL,H1,37.7627465,-88.2305034
424232,17061,Greene County,Greene,IL,H1,39.3561992,-90.3904943
424233,17063,Grundy County,Grundy,IL,H1,41.2850936,-88.4184785
424234,17065,Hamilton County,Hamilton,IL,H1,38.0815736,-88.5391056
424235,17067,Hancock County,Hancock,IL,H1,40.4037764,-91.1646975
424236,17069,Hardin County,Hardin,IL,H1,37.5182024,-88.2668508
424237,17071,Henderson County,Henderson,IL,H1,40.8181171,-90.9251109
424238,17073,Henry County,Henry,IL,H1,41.3531333,-90.1314173
424239,17075,Iroquois County,Iroquois,IL,H1,40.7472261,-87.8243044
424240,17077,Jackson County,Jackson,IL,H1,37.7851397,-89.3821157
424241,17079,Jasper County,Jasper,IL,H1,39.0100311,-88.1538114
424242,17081,Jefferson County,Jefferson,IL,H1,38.3005203,-88.924008
424243,17083,Jersey County,Jersey,IL,H1,39.0856618,-90.3566834
424244,17085,Jo Daviess County,Jo Daviess,IL,H1,42.3658161,-90.2125864
424245,17087,Johnson County,Johnson,IL,H1,37.4596312,-88.8808893
424246,17089,Kane County,Kane,IL,H1,41.9389045,-88.4286384
424247,17091,Kankakee County,Kankakee,IL,H1,41.1377056,-87.8618045
424248,17093,Kendall County,Kendall,IL,H1,41.5905386,-88.4288474
424249,17095,Knox County,Knox,IL,H1,40.9318175,-90.2132587
424252,17101,Lawrence County,Lawrence,IL,H1,38.719948,-87.7267298
424253,17103,Lee County,Lee,IL,H1,41.7461933,-89.3003867
424254,17105,Livingston County,Livingston,IL,H1,40.8915571,-88.5577173
424255,17107,Logan County,Logan,IL,H1,40.124557,-89.3675459
424256,17115,Macon County,Macon,IL,H1,39.8599952,-88.9615968
424257,17117,Macoupin County,Macoupin,IL,H1,39.2610151,-89.9244333
424258,17119,Madison County,Madison,IL,H1,38.829853,-89.9051681
424259,17121,Marion County,Marion,IL,H1,38.6495905,-88.918973
424260,17123,Marshall County,Marshall,IL,H1,41.0331742,-89.3447772
424261,17125,Mason County,Mason,IL,H1,40.2396484,-89.9167838
424266,17129,Menard County,Menard,IL,H1,40.0273969,-89.8021702
424270,17137,Morgan County,Morgan,IL,H1,39.7155649,-90.2014959
424275,17147,Piatt County,Piatt,IL,H1,40.0103666,-88.5910912
424277,17151,Pope County,Pope,IL,H1,37.4127633,-88.5615845
424279,17155,Putnam County,Putnam,IL,H1,41.2044694,-89.2858328
424281,17159,Richland County,Richland,IL,H1,38.7123604,-88.0851013
424282,17161,Rock Island County,Rock Island,IL,H1,41.4673298,-90.5674259
424283,17165,Saline County,Saline,IL,H1,37.7531828,-88.5408011
424286,17171,Scott County,Scott,IL,H1,39.644142,-90.4746958
424288,17175,Stark County,Stark,IL,H1,41.0933644,-89.7974941
424293,17185,Wabash County,Wabash,IL,H1,38.4460655,-87.8442504
424296,17191,Wayne County,Wayne,IL,H1,38.4295646,-88.4256136
424297,17193,White County,White,IL,H1,38.0874782,-88.1795669
426598,17039,De Witt County,De Witt,IL,H1,40.1746286,-88.9040902
446852,18131,Pulaski County,Pulaski,IN,H1,41.0418321,-86.6987793
446853,18135,Randolph County,Randolph,IN,H1,40.1576396,-85.0113104
446854,18139,Rush County,Rush,IN,H1,39.6199484,-85.4657612
450335,18173,Warrick County,Warrick,IN,H1,38.0921662,-87.2720537
450336,18177,Wayne County,Wayne,IN,H1,39.8644165,-85.0098761
450337,18179,Wells County,Wells,IN,H1,40.7291866,-85.2212199
450338,18181,White County,White,IN,H1,40.7497716,-86.8654694
450339,18017,Cass County,Cass,IN,H1,40.7614915,-86.3459466
450340,18019,Clark County,Clark,IN,H1,38.4771946,-85.7072716
450341,18021,Clay County,Clay,IN,H1,39.3927279,-87.1157584
450342,18023,Clinton County,Clinton,IN,H1,40.3016906,-86.4751595
450343,18027,Daviess County,Daviess,IN,H1,38.70241,-87.0720685
450344,18029,Dearborn County,Dearborn,IN,H1,39.1451925,-84.9732576
450345,18031,Decatur County,Decatur,IN,H1,39.3069999,-85.501143
450346,18033,DeKalb County,DeKalb,IN,H1,41.39758,-84.9990843
450347,18035,Delaware County,Delaware,IN,H1,40.2275253,-85.3968993
450348,18039,Elkhart County,Elkhart,IN,H1,41.5973845,-85.8587553
450349,18041,Fayette County,Fayette,IN,H1,39.6400558,-85.178725
450350,18043,Floyd County,Floyd,IN,H1,38.3189286,-85.9068307
450351,18045,Fountain County,Fountain,IN,H1,40.1208708,-87.2419917
450352,18047,Franklin County,Franklin,IN,H1,39.4148645,-85.0602849
450353,18049,Fulton County,Fulton,IN,H1,41.0469633,-86.2635837
450354,18051,Gibson County,Gibson,IN,H1,38.3118253,-87.5845947
450355,18053,Grant County,Grant,IN,H1,40.5158446,-85.6547259
450356,18057,Hamilton County,Hamilton,IN,H1,40.0724895,-86.0520143
450357,18059,Hancock County,Hancock,IN,H1,39.82355,-85.7732376
450358,18063,Hendricks County,Hendricks,IN,H1,39.7695174,-86.5099759
450359,18065,Henry County,Henry,IN,H1,39.9310397,-85.3964354
450360,18067,Howard County,Howard,IN,H1,40.4835856,-86.1169307
450361,18069,Huntington County,Huntington,IN,H1,40.82924,-85.4881723
450362,18075,Jay County,Jay,IN,H1,40.4379184,-85.0056353
450363,18077,Jefferson County,Jefferson,IN,H1,38.7858227,-85.4385729
450364,18079,Jennings County,Jennings,IN,H1,38.9969301,-85.6280646
450365,18081,Johnson County,Johnson,IN,H1,39.4899708,-86.1016369
450366,18083,Knox County,Knox,IN,H1,38.6890899,-87.4180084
450367,18085,Kosciusko County,Kosciusko,IN,H1,41.2440973,-85.8607177
450368,18087,LaGrange County,LaGrange,IN,H1,41.6426063,-85.4264979
450369,18183,Whitley County,Whitley,IN,H1,41.1393753,-85.5051179
450370,18095,Madison County,Madison,IN,H1,40.1616556,-85.7193452
450371,18097,Marion County,Marion,IN,H6,39.7817097,-86.1384717
450372,18099,Marshall County,Marshall,IN,H1,41.324849,-86.2617613
450373,18103,Miami County,Miami,IN,H1,40.769504,-86.0450231
450374,18107,Montgomery County,Montgomery,IN,H1,40.0403785,-86.8932998
450375,18109,Morgan County,Morgan,IN,H1,39.4815483,-86.4462122
450376,18111,Newton County,Newton,IN,H1,40.9558477,-87.3975366
450377,18113,Noble County,Noble,IN,H1,41.3985995,-85.4174667
450378,18115,Ohio County,Ohio,IN,H1,38.9500946,-84.9650431
450379,18119,Owen County,Owen,IN,H1,39.3128101,-86.8376544
450380,18121,Parke County,Parke,IN,H1,39.773625,-87.2063598
450381,18125,Pike County,Pike,IN,H1,38.3987832,-87.2321643
450382,18127,Porter County,Porter,IN,H1,41.5088383,-87.0733191
450383,18129,Posey County,Posey,IN,H1,38.0218916,-87.8684712
450384,18133,Putnam County,Putnam,IN,H1,39.6662618,-86.8449998
450385,18137,Ripley County,Ripley,IN,H1,39.1034547,-85.2623864
450386,18143,Scott County,Scott,IN,H1,38.68507,-85.7474681
450387,18145,Shelby County,Shelby,IN,H1,39.5236922,-85.7917004
450388,18147,Spencer County,Spencer,IN,H1,38.014059,-87.0077059
450389,18149,Starke County,Starke,IN,H1,41.2809264,-86.6476486
450390,18151,Steuben County,Steuben,IN,H1,41.6438679,-85.0007649
450391,18153,Sullivan County,Sullivan,IN,H1,39.0888347,-87.4146904
450392,18155,Switzerland County,Switzerland,IN,H1,38.8261608,-85.0369979
450393,18157,Tippecanoe County,Tippecanoe,IN,H1,40.3886187,-86.8940974
450394,18159,Tipton County,Tipton,IN,H1,40.3113452,-86.051859
450395,18161,Union County,Union,IN,H1,39.6255458,-84.925142
450396,18163,Vanderburgh County,Vanderburgh,IN,H1,38.0249579,-87.585785
450397,18165,Vermillion County,Vermillion,IN,H1,39.8537975,-87.4639735
450398,18167,Vigo County,Vigo,IN,H1,39.4306386,-87.3899645
450399,18169,Wabash County,Wabash,IN,H1,40.845693,-85.7940057
450400,18171,Warren County,Warren,IN,H1,40.3469033,-87.3533145
450401,18001,Adams County,Adams,IN,H1,40.7456599,-84.9366547
450402,18003,Allen County,Allen,IN,H1,41.0908709,-85.066562
450403,18007,Benton County,Benton,IN,H1,40.6062585,-87.310906
450404,18009,Blackford County,Blackford,IN,H1,40.4736006,-85.3248199
450405,18011,Boone County,Boone,IN,H1,40.0508014,-86.4686962
450406,18015,Carroll County,Carroll,IN,H1,40.5828586,-86.5634841
450494,18073,Jasper County,Jasper,IN,H1,41.0229983,-87.1161212
450495,18089,Lake County,Lake,IN,H1,41.4722121,-87.3763856
450507,18091,LaPorte County,LaPorte,IN,H1,41.5490216,-86.7423662
451665,18175,Washington County,Washington,IN,H1,38.5999842,-86.1053059
451674,18025,Crawford County,Crawford,IN,H1,38.2924146,-86.4517084
451675,18037,Dubois County,Dubois,IN,H1,38.3642764,-86.8798021
451676,18055,Greene County,Greene,IN,H1,39.0363277,-86.9620464
451677,18061,Harrison County,Harrison,IN,H1,38.1951229,-86.1113109
451678,18071,Jackson County,Jackson,IN,H1,38.9064175,-86.0375413
451679,18101,Martin County,Martin,IN,H1,38.7080112,-86.8030655
451680,18105,Monroe County,Monroe,IN,H1,39.1609177,-86.5231373
451681,18117,Orange County,Orange,IN,H1,38.5417789,-86.4950693
451682,18123,Perry County,Perry,IN,H1,38.0796491,-86.6380318
451683,18005,Bartholomew County,Bartholomew,IN,H1,39.2059706,-85.897603
451684,18013,Brown County,Brown,IN,H1,39.1962112,-86.2273748
451703,18093,Lawrence County,Lawrence,IN,H1,38.8411629,-86.4834511
452855,18141,Saint Joseph County,St. Joseph,IN,H1,41.616718,-86.2898577
465190,19001,Adair County,Adair,IA,H1,41.3307464,-94.4709413
465191,19003,Adams County,Adams,IA,H1,41.0289839,-94.6991849
465192,19005,Allamakee County,Allamakee,IA,H1,43.2842838,-91.3780923
465193,19007,Appanoose County,Appanoose,IA,H1,40.7431635,-92.8686104
465194,19009,Audubon County,Audubon,IA,H1,41.6845893,-94.9058222
465195,19011,Benton County,Benton,IA,H1,42.0801864,-92.0656912
465196,19013,Black Hawk County,Black Hawk,IA,H1,42.4700957,-92.3088197
465197,19015,Boone County,Boone,IA,H1,42.0365064,-93.931644
465198,19017,Bremer County,Bremer,IA,H1,42.7745872,-92.3180548
465199,19019,Buchanan County,Buchanan,IA,H1,42.4707777,-91.8378392
465200,19021,Buena Vista County,Buena Vista,IA,H1,42.7354936,-95.151149
465201,19023,Butler County,Butler,IA,H1,42.7315661,-92.7901934
465202,19025,Calhoun County,Calhoun,IA,H1,42.3851849,-94.6404136
465203,19027,Carroll County,Carroll,IA,H1,42.0362382,-94.8605593
465204,19029,Cass County,Cass,IA,H1,41.3314876,-94.9278266
465205,19031,Cedar County,Cedar,IA,H1,41.7723207,-91.1324125
465206,19033,Cerro Gordo County,Cerro Gordo,IA,H1,43.0815577,-93.2608184
465207,19035,Cherokee County,Cherokee,IA,H1,42.7356226,-95.6238055
465208,19037,Chickasaw County,Chickasaw,IA,H1,43.0600413,-92.3176637
465209,19039,Clarke County,Clarke,IA,H1,41.0290323,-93.7851578
465210,19043,Clayton County,Clayton,IA,H1,42.8447493,-91.3414328
465211,19045,Clinton County,Clinton,IA,H1,41.8980358,-90.5319724
465212,19047,Crawford County,Crawford,IA,H1,42.0372125,-95.3819678
465213,19049,Dallas County,Dallas,IA,H1,41.6848582,-94.0397619
465214,19051,Davis County,Davis,IA,H1,40.7476891,-92.4097173
465215,19053,Decatur County,Decatur,IA,H1,40.7376827,-93.7862814
465216,19055,Delaware County,Delaware,IA,H1,42.4712109,-91.3673502
465217,19057,Des Moines County,Des Moines,IA,H1,40.9231752,-91.1814856
465218,19059,Dickinson County,Dickinson,IA,H1,43.3779848,-95.1508301
465219,19061,Dubuque County,Dubuque,IA,H1,42.4688224,-90.8825219
465220,19063,Emmet County,Emmet,IA,H1,43.3780225,-94.6784803
465221,19065,Fayette County,Fayette,IA,H1,42.8625962,-91.8443243
465222,19067,Floyd County,Floyd,IA,H1,43.0599208,-92.7890033
465223,19069,Franklin County,Franklin,IA,H1,42.7325459,-93.262473
465224,19071,Fremont County,Fremont,IA,H1,40.7455892,-95.6046765
465225,19073,Greene County,Greene,IA,H1,42.0362378,-94.3968236
465226,19075,Grundy County,Grundy,IA,H1,42.4018651,-92.7914177
465227,19077,Guthrie County,Guthrie,IA,H1,41.6837548,-94.501055
465228,19079,Hamilton County,Hamilton,IA,H1,42.3837722,-93.7068086
465229,19081,Hancock County,Hancock,IA,H1,43.0818861,-93.7342723
465230,19083,Hardin County,Hardin,IA,H1,42.3838803,-93.2404025
465231,19085,Harrison County,Harrison,IA,H1,41.6828527,-95.8169209
465232,19087,Henry County,Henry,IA,H1,40.9879712,-91.5445346
465233,19089,Howard County,Howard,IA,H1,43.3567673,-92.3171989
465234,19091,Humboldt County,Humboldt,IA,H1,42.7764686,-94.2071868
465235,19093,Ida County,Ida,IA,H1,42.3868747,-95.5134962
465236,19095,Iowa County,Iowa,IA,H1,41.6863229,-92.065524
465237,19097,Jackson County,Jackson,IA,H1,42.1717426,-90.5742294
465238,19099,Jasper County,Jasper,IA,H1,41.6860389,-93.0537645
465239,19101,Jefferson County,Jefferson,IA,H1,41.0317621,-91.9488729
465240,19103,Johnson County,Johnson,IA,H1,41.6715511,-91.5880849
465241,19105,Jones County,Jones,IA,H1,42.1212397,-91.1314352
465242,19107,Keokuk County,Keokuk,IA,H1,41.336465,-92.1786426
465243,19109,Kossuth County,Kossuth,IA,H1,43.20413,-94.2067199
465244,19111,Lee County,Lee,IA,H1,40.6419822,-91.4792644
465245,19113,Linn County,Linn,IA,H1,42.0789478,-91.5989646
465246,19115,Louisa County,Louisa,IA,H1,41.2185072,-91.2596183
465247,19117,Lucas County,Lucas,IA,H1,41.0293738,-93.3277207
465248,19119,Lyon County,Lyon,IA,H1,43.380497,-96.2102924
465249,19121,Madison County,Madison,IA,H1,41.3307142,-94.0155619
465250,19123,Mahaska County,Mahaska,IA,H1,41.3352035,-92.6409094
465251,19125,Marion County,Marion,IA,H1,41.3344515,-93.0994366
465252,19127,Marshall County,Marshall,IA,H1,42.0358492,-92.9987713
465253,19129,Mills County,Mills,IA,H1,41.0334523,-95.6213267
465254,19131,Mitchell County,Mitchell,IA,H1,43.3564124,-92.7890315
465255,19133,Monona County,Monona,IA,H1,42.0516662,-95.9599235
465256,19135,Monroe County,Monroe,IA,H1,41.0297826,-92.8689877
465257,19137,Montgomery County,Montgomery,IA,H1,41.03014,-95.1563758
465258,19139,Muscatine County,Muscatine,IA,H1,41.4839221,-91.1127562
465259,19141,O'Brien County,O'Brien,IA,H1,43.0837527,-95.6248783
465260,19143,Osceola County,Osceola,IA,H1,43.3785704,-95.6236852
465261,19145,Page County,Page,IA,H1,40.739144,-95.1501749
465262,19147,Palo Alto County,Palo Alto,IA,H1,43.0820643,-94.6781371
465263,19149,Plymouth County,Plymouth,IA,H1,42.7378473,-96.2140274
465264,19151,Pocahontas County,Pocahontas,IA,H1,42.7341351,-94.6787466
465265,19153,Polk County,Polk,IA,H1,41.6855048,-93.5735335
465266,19155,Pottawattamie County,Pottawattamie,IA,H1,41.3366123,-95.5423935
465267,19157,Poweshiek County,Poweshiek,IA,H1,41.6864422,-92.5314684
465268,19159,Ringgold County,Ringgold,IA,H1,40.7352023,-94.2439719
465269,19161,Sac County,Sac,IA,H1,42.3862604,-95.1053946
465270,19163,Scott County,Scott,IA,H1,41.6370978,-90.6232428
465271,19165,Shelby County,Shelby,IA,H1,41.6850926,-95.3102113
465272,19167,Sioux County,Sioux,IA,H1,43.0826174,-96.1778828
465273,19169,Story County,Story,IA,H1,42.0362415,-93.4650448
465274,19171,Tama County,Tama,IA,H1,42.0798117,-92.5325425
465275,19173,Taylor County,Taylor,IA,H1,40.7374324,-94.6964148
465276,19175,Union County,Union,IA,H1,41.0277304,-94.2423792
465277,19177,Van Buren County,Van Buren,IA,H1,40.7532343,-91.9499783
465278,19179,Wapello County,Wapello,IA,H1,41.0305845,-92.4094499
465279,19181,Warren County,Warren,IA,H1,41.3343735,-93.5613594
465280,19183,Washington County,Washington,IA,H1,41.3356002,-91.7178702
465281,19185,Wayne County,Wayne,IA,H1,40.7394702,-93.3273639
465282,19187,Webster County,Webster,IA,H1,42.4279495,-94.1817746
465283,19189,Winnebago County,Winnebago,IA,H1,43.3775678,-93.7341955
465284,19191,Winneshiek County,Winneshiek,IA,H1,43.2906788,-91.8437036
465285,19193,Woodbury County,Woodbury,IA,H1,42.3897292,-96.0447949
465286,19195,Worth County,Worth,IA,H1,43.3773984,-93.2608475
465287,19197,Wright County,Wright,IA,H1,42.7331189,-93.7351465
465625,19041,Clay County,Clay,IA,H1,43.0825804,-95.1509194
481811,20065,Graham County,Graham,KS,H1,39.349716,-99.8832526
481812,20191,Sumner County,Sumner,KS,H1,37.2372753,-97.4765502
484969,20183,Smith County,Smith,KS,H1,39.7851564,-98.7854728
484970,20001,Allen County,Allen,KS,H1,37.8857349,-95.3013889
484971,20003,Anderson County,Anderson,KS,H1,38.2142048,-95.2933285
484972,20005,Atchison County,Atchison,KS,H1,39.53174,-95.3134446
484973,20007,Barber County,Barber,KS,H1,37.2288385,-98.6847906
484974,20009,Barton County,Barton,KS,H1,38.478964,-98.7564643
484975,20011,Bourbon County,Bourbon,KS,H1,37.8552256,-94.8492968
484976,20013,Brown County,Brown,KS,H1,39.8264989,-95.5642197
484977,20015,Butler County,Butler,KS,H1,37.7812708,-96.8390655
484978,20017,Chase County,Chase,KS,H1,38.3020466,-96.5939294
484979,20019,Chautauqua County,Chautauqua,KS,H1,37.1500572,-96.2453783
484980,20021,Cherokee County,Cherokee,KS,H1,37.1693061,-94.846269
484981,20023,Cheyenne County,Cheyenne,KS,H1,39.7858693,-101.7311042
484982,20025,Clark County,Clark,KS,H1,37.235523,-99.8203077
484983,20027,Clay County,Clay,KS,H1,39.3497164,-97.1651724
484984,20029,Cloud County,Cloud,KS,H1,39.4802974,-97.6492819
484985,20031,Coffey County,Coffey,KS,H1,38.2368379,-95.7341118
484986,20033,Comanche County,Comanche,KS,H1,37.1912804,-99.2718715
484987,20035,Cowley County,Cowley,KS,H1,37.2377527,-96.8374892
484988,20037,Crawford County,Crawford,KS,H1,37.5073151,-94.8518114
484989,20039,Decatur County,Decatur,KS,H1,39.7847565,-100.4598995
484990,20041,Dickinson County,Dickinson,KS,H1,38.8665006,-97.1527028
484991,20043,Doniphan County,Doniphan,KS,H1,39.7880806,-95.1467942
484992,20045,Douglas County,Douglas,KS,H1,38.8846595,-95.2926063
484993,20047,Edwards County,Edwards,KS,H1,37.8876488,-99.3121708
484994,20049,Elk County,Elk,KS,H1,37.4536881,-96.2440867
484995,20051,Ellis County,Ellis,KS,H1,38.9147513,-99.3172316
484996,20053,Ellsworth County,Ellsworth,KS,H1,38.6966277,-98.2047303
484997,20057,Ford County,Ford,KS,H1,37.6917036,-99.8879424
484998,20059,Franklin County,Franklin,KS,H1,38.5645175,-95.2859482
484999,20061,Geary County,Geary,KS,H1,39.0023855,-96.7525022
485000,20063,Gove County,Gove,KS,H1,38.9160956,-100.4829047
485001,20069,Gray County,Gray,KS,H1,37.7381979,-100.4378629
485002,20071,Greeley County,Greeley,KS,H1,38.4805375,-101.8059684
485003,20073,Greenwood County,Greenwood,KS,H1,37.8777876,-96.2326357
485004,20077,Harper County,Harper,KS,H1,37.1916049,-98.0754956
485005,20079,Harvey County,Harvey,KS,H1,38.0432185,-97.4272714
485006,20083,Hodgeman County,Hodgeman,KS,H1,38.0874838,-99.897936
485007,20085,Jackson County,Jackson,KS,H1,39.4168201,-95.7936637
485008,20087,Jefferson County,Jefferson,KS,H1,39.2357648,-95.3834487
485009,20089,Jewell County,Jewell,KS,H1,39.7847321,-98.2183409
485010,20091,Johnson County,Johnson,KS,H1,38.8837685,-94.822261
485011,20093,Kearny County,Kearny,KS,H1,38.0001965,-101.3198608
485012,20095,Kingman County,Kingman,KS,H1,37.5588848,-98.1363326
485013,20097,Kiowa County,Kiowa,KS,H1,37.5582639,-99.2860476
485014,20099,Labette County,Labette,KS,H1,37.1913273,-95.2975761
485015,20101,Lane County,Lane,KS,H1,38.4813032,-100.4663983
485016,20103,Leavenworth County,Leavenworth,KS,H1,39.1993345,-95.0379114
485017,20105,Lincoln County,Lincoln,KS,H1,39.0453281,-98.2076985
485018,20107,Linn County,Linn,KS,H1,38.2122719,-94.842932
485019,20109,Logan County,Logan,KS,H1,38.9173365,-101.1483911
485020,20111,Lyon County,Lyon,KS,H1,38.4561871,-96.1526398
485021,20113,McPherson County,McPherson,KS,H1,38.3916666,-97.6480799
485022,20115,Marion County,Marion,KS,H1,38.3588721,-97.096891
485023,20117,Marshall County,Marshall,KS,H1,39.7836261,-96.5229368
485024,20119,Meade County,Meade,KS,H1,37.2381964,-100.3661803
485025,20121,Miami County,Miami,KS,H1,38.5635832,-94.838057
485026,20123,Mitchell County,Mitchell,KS,H1,39.3932659,-98.2093648
485027,20125,Montgomery County,Montgomery,KS,H1,37.1925238,-95.7428781
485028,20127,Morris County,Morris,KS,H1,38.6874294,-96.6498495
485029,20131,Nemaha County,Nemaha,KS,H1,39.7834476,-96.0141017
485030,20133,Neosho County,Neosho,KS,H1,37.5584854,-95.3067923
485031,20135,Ness County,Ness,KS,H1,38.4794184,-99.9161795
485032,20137,Norton County,Norton,KS,H1,39.7843853,-99.9034769
485033,20139,Osage County,Osage,KS,H1,38.6523289,-95.7269451
485034,20141,Osborne County,Osborne,KS,H1,39.3503325,-98.7679863
485035,20143,Ottawa County,Ottawa,KS,H1,39.1325375,-97.6502158
485036,20145,Pawnee County,Pawnee,KS,H1,38.1813308,-99.2367293
485037,20147,Phillips County,Phillips,KS,H1,39.7845831,-99.3470221
485038,20149,Pottawatomie County,Pottawatomie,KS,H1,39.3790028,-96.342365
485039,20151,Pratt County,Pratt,KS,H1,37.6477353,-98.7395957
485040,20153,Rawlins County,Rawlins,KS,H1,39.7852409,-101.0757051
485041,20155,Reno County,Reno,KS,H1,37.9529529,-98.0860066
485042,20157,Republic County,Republic,KS,H1,39.8277963,-97.6506228
485043,20159,Rice County,Rice,KS,H1,38.3471429,-98.20103
485044,20161,Riley County,Riley,KS,H1,39.296553,-96.735177
485045,20163,Rooks County,Rooks,KS,H1,39.3502303,-99.3250535
485046,20167,Russell County,Russell,KS,H1,38.9147788,-98.762351
485047,20169,Saline County,Saline,KS,H1,38.7838065,-97.6499306
485048,20171,Scott County,Scott,KS,H1,38.4821694,-100.906859
485049,20173,Sedgwick County,Sedgwick,KS,H1,37.6847616,-97.4609687
485050,20175,Seward County,Seward,KS,H1,37.1933015,-100.8512858
485051,20177,Shawnee County,Shawnee,KS,H1,39.0415144,-95.7565334
485052,20179,Sheridan County,Sheridan,KS,H1,39.3503578,-100.4418324
485053,20181,Sherman County,Sherman,KS,H1,39.3514337,-101.7199807
485054,20185,Stafford County,Stafford,KS,H1,38.0309985,-98.717445
485055,20187,Stanton County,Stanton,KS,H1,37.5630613,-101.7841833
485056,20189,Stevens County,Stevens,KS,H1,37.1923191,-101.3120454
485057,20193,Thomas County,Thomas,KS,H1,39.3509686,-101.0555313
485058,20195,Trego County,Trego,KS,H1,38.9143245,-99.8727363
485059,20197,Wabaunsee County,Wabaunsee,KS,H1,38.9532911,-96.2050037
485060,20199,Wallace County,Wallace,KS,H1,38.9166611,-101.763574
485061,20201,Washington County,Washington,KS,H1,39.7842012,-97.0875435
485062,20203,Wichita County,Wichita,KS,H1,38.4820845,-101.3473557
485063,20205,Wilson County,Wilson,KS,H1,37.5592415,-95.7433888
485064,20207,Woodson County,Woodson,KS,H1,37.8866702,-95.7401677
485065,20209,Wyandotte County,Wyandotte,KS,H6,39.1146453,-94.7644784
485099,20067,Grant County,Grant,KS,H1,37.5621933,-101.3080213
485135,20129,Morton County,Morton,KS,H1,37.1913958,-101.7992521
485326,20055,Finney County,Finney,KS,H1,38.044304,-100.7369919
485327,20075,Hamilton County,Hamilton,KS,H1,37.9991525,-101.7912565
485328,20081,Haskell County,Haskell,KS,H1,37.5622507,-100.8711919
485358,20165,Rush County,Rush,KS,H1,38.5231613,-99.309241
516847,21001,Adair County,Adair,KY,H1,37.1041561,-85.2806485
516848,21003,Allen County,Allen,KY,H1,36.7513165,-86.1904187
516849,21005,Anderson County,Anderson,KY,H1,38.0039134,-84.9910046
516850,21007,Ballard County,Ballard,KY,H1,37.0584319,-88.9993411
516851,21009,Barren County,Barren,KY,H1,36.9655812,-85.9336633
516852,21011,Bath County,Bath,KY,H1,38.1449737,-83.7426672
516853,21013,Bell County,Bell,KY,H1,36.7306483,-83.6740951
516854,21015,Boone County,Boone,KY,H1,38.9698645,-84.7278481
516855,21017,Bourbon County,Bourbon,KY,H1,38.2067345,-84.2171508
516856,21019,Boyd County,Boyd,KY,H1,38.3595725,-82.6877258
516857,21021,Boyle County,Boyle,KY,H1,37.6243602,-84.8668204
516858,21023,Bracken County,Bracken,KY,H1,38.688814,-84.09019
516859,21025,Breathitt County,Breathitt,KY,H1,37.5216171,-83.3240853
516860,21027,Breckinridge County,Breckinridge,KY,H1,37.7732682,-86.4292778
516861,21029,Bullitt County,Bullitt,KY,H1,37.9700758,-85.695857
516862,21031,Butler County,Butler,KY,H1,37.2072801,-86.6817563
516863,21033,Caldwell County,Caldwell,KY,H1,37.145333,-87.8679069
516864,21035,Calloway County,Calloway,KY,H1,36.6211013,-88.2722011
516865,21037,Campbell County,Campbell,KY,H1,38.9464768,-84.3796958
516866,21039,Carlisle County,Carlisle,KY,H1,36.8532164,-88.9710588
516867,21041,Carroll County,Carroll,KY,H1,38.6678584,-85.12359
516868,21043,Carter County,Carter,KY,H1,38.3181731,-83.0495366
516869,21045,Casey County,Casey,KY,H1,37.3222826,-84.9283681
516870,21047,Christian County,Christian,KY,H1,36.8941807,-87.4903806
516871,21049,Clark County,Clark,KY,H1,37.9708519,-84.1473994
516872,21051,Clay County,Clay,KY,H1,37.1596976,-83.7146627
516873,21053,Clinton County,Clinton,KY,H1,36.7274816,-85.1360136
516874,21055,Crittenden County,Crittenden,KY,H1,37.3527153,-88.0972227
516875,21057,Cumberland County,Cumberland,KY,H1,36.7865297,-85.3884486
516876,21059,Daviess County,Daviess,KY,H1,37.7317716,-87.0872266
516877,21061,Edmonson County,Edmonson,KY,H1,37.2088402,-86.2386201
516878,21063,Elliott County,Elliott,KY,H1,38.1178917,-83.0976163
516879,21065,Estill County,Estill,KY,H1,37.6924815,-83.9643302
516880,21067,Fayette County,Fayette,KY,H6,38.0423303,-84.4587222
516881,21069,Fleming County,Fleming,KY,H1,38.3701063,-83.696643
516882,21071,Floyd County,Floyd,KY,H1,37.5571086,-82.7457042
516883,21073,Franklin County,Franklin,KY,H1,38.2391477,-84.8770682
516884,21075,Fulton County,Fulton,KY,H1,36.5540721,-89.1875966
516885,21077,Gallatin County,Gallatin,KY,H1,38.7568747,-84.8593124
516886,21079,Garrard County,Garrard,KY,H1,37.6395776,-84.5376328
516887,21081,Grant County,Grant,KY,H1,38.6488162,-84.6246139
516888,21083,Graves County,Graves,KY,H1,36.7231382,-88.6512058
516889,21085,Grayson County,Grayson,KY,H1,37.4608191,-86.3438772
516890,21087,Green County,Green,KY,H1,37.2641089,-85.5531053
516891,21089,Greenup County,Greenup,KY,H1,38.5456649,-82.9222884
516892,21091,Hancock County,Hancock,KY,H1,37.8415087,-86.7779252
516893,21093,Hardin County,Hardin,KY,H1,37.6979246,-85.9633719
516894,21095,Harlan County,Harlan,KY,H1,36.8569742,-83.2179518
516895,21097,Harrison County,Harrison,KY,H1,38.4418071,-84.3313853
516896,21099,Hart County,Hart,KY,H1,37.299927,-85.8847088
516897,21101,Henderson County,Henderson,KY,H1,37.7958424,-87.5731516
516898,21103,Henry County,Henry,KY,H1,38.4484679,-85.11893
516899,21105,Hickman County,Hickman,KY,H1,36.6781705,-88.9762157
516900,21107,Hopkins County,Hopkins,KY,H1,37.3088201,-87.5408421
516901,21109,Jackson County,Jackson,KY,H1,37.4197769,-84.0057655
516902,21111,Jefferson County,Jefferson,KY,H6,38.1871906,-85.6591582
516903,21113,Jessamine County,Jessamine,KY,H1,37.8720513,-84.5809373
516904,21115,Johnson County,Johnson,KY,H1,37.8466394,-82.8315398
516905,21117,Kenton County,Kenton,KY,H1,38.9334529,-84.5333168
516906,21119,Knott County,Knott,KY,H1,37.3540524,-82.9541313
516907,21121,Knox County,Knox,KY,H1,36.8906657,-83.8540443
516908,21123,Larue County,Larue,KY,H1,37.545799,-85.6979165
516909,21125,Laurel County,Laurel,KY,H1,37.11067,-84.1178002
516910,21127,Lawrence County,Lawrence,KY,H1,38.0678786,-82.7347547
516911,21129,Lee County,Lee,KY,H1,37.5947985,-83.7162763
516912,21131,Leslie County,Leslie,KY,H1,37.0940663,-83.38114
516913,21133,Letcher County,Letcher,KY,H1,37.1211923,-82.8552823
516914,21135,Lewis County,Lewis,KY,H1,38.531544,-83.3780542
516915,21137,Lincoln County,Lincoln,KY,H1,37.4553667,-84.6608453
516916,21139,Livingston County,Livingston,KY,H1,37.2097033,-88.3538138
516917,21141,Logan County,Logan,KY,H1,36.8596988,-86.8789382
516918,21143,Lyon County,Lyon,KY,H1,37.0191292,-88.0832827
516919,21151,Madison County,Madison,KY,H1,37.7201841,-84.2779973
516920,21153,Magoffin County,Magoffin,KY,H1,37.7064741,-83.0649145
516921,21155,Marion County,Marion,KY,H1,37.5525342,-85.269632
516922,21157,Marshall County,Marshall,KY,H1,36.8834466,-88.3293805
516923,21159,Martin County,Martin,KY,H1,37.8015772,-82.5132925
516924,21161,Mason County,Mason,KY,H1,38.5951729,-83.8242451
516925,21145,McCracken County,McCracken,KY,H1,37.0540793,-88.7127193
516926,21147,McCreary County,McCreary,KY,H1,36.7371415,-84.4841745
516927,21149,McLean County,McLean,KY,H1,37.5291895,-87.2636066
516928,21163,Meade County,Meade,KY,H1,37.9698392,-86.2171787
516929,21165,Menifee County,Menifee,KY,H1,37.941378,-83.5988719
516930,21167,Mercer County,Mercer,KY,H1,37.8110308,-84.8744367
516931,21169,Metcalfe County,Metcalfe,KY,H1,36.9905418,-85.6292511
516932,21171,Monroe County,Monroe,KY,H1,36.7121803,-85.7165196
516933,21173,Montgomery County,Montgomery,KY,H1,38.033533,-83.9131023
516934,21175,Morgan County,Morgan,KY,H1,37.9222809,-83.2588931
516935,21177,Muhlenberg County,Muhlenberg,KY,H1,37.2157923,-87.1420417
516936,21179,Nelson County,Nelson,KY,H1,37.8051313,-85.4659886
516937,21181,Nicholas County,Nicholas,KY,H1,38.3355978,-84.0153305
516938,21183,Ohio County,Ohio,KY,H1,37.4781917,-86.8488902
516939,21185,Oldham County,Oldham,KY,H1,38.3994416,-85.448366
516940,21187,Owen County,Owen,KY,H1,38.5196363,-84.8281098
516941,21189,Owsley County,Owsley,KY,H1,37.419205,-83.6831119
516942,21191,Pendleton County,Pendleton,KY,H1,38.6956277,-84.3602722
516943,21193,Perry County,Perry,KY,H1,37.2442933,-83.2214816
516944,21195,Pike County,Pike,KY,H1,37.4690483,-82.3958632
516945,21197,Powell County,Powell,KY,H1,37.8311455,-83.8237748
516946,21199,Pulaski County,Pulaski,KY,H1,37.1039269,-84.5771763
516947,21201,Robertson County,Robertson,KY,H1,38.518814,-84.0520223
516948,21203,Rockcastle County,Rockcastle,KY,H1,37.3651782,-84.3159415
516949,21205,Rowan County,Rowan,KY,H1,38.1962559,-83.4210754
516950,21207,Russell County,Russell,KY,H1,36.9910343,-85.0586876
516951,21209,Scott County,Scott,KY,H1,38.2915554,-84.5839267
516952,21211,Shelby County,Shelby,KY,H1,38.2154381,-85.1947771
516953,21213,Simpson County,Simpson,KY,H1,36.7419424,-86.5823206
516954,21215,Spencer County,Spencer,KY,H1,38.0325101,-85.3278488
516955,21217,Taylor County,Taylor,KY,H1,37.3664565,-85.3278386
516956,21219,Todd County,Todd,KY,H1,36.8355562,-87.1791533
516957,21221,Trigg County,Trigg,KY,H1,36.8063199,-87.8733714
516958,21223,Trimble County,Trimble,KY,H1,38.6130327,-85.3375681
516959,21225,Union County,Union,KY,H1,37.658448,-87.9453835
516960,21227,Warren County,Warren,KY,H1,36.9935768,-86.4237993
516961,21229,Washington County,Washington,KY,H1,37.7533786,-85.1747465
516962,21231,Wayne County,Wayne,KY,H1,36.8012652,-84.8286312
516963,21233,Webster County,Webster,KY,H1,37.5184175,-87.6831571
516964,21235,Whitley County,Whitley,KY,H1,36.7580733,-84.1451777
516965,21237,Wolfe County,Wolfe,KY,H1,37.7393196,-83.4931751
516966,21239,Woodford County,Woodford,KY,H1,38.0423908,-84.7436031
558027,22051,Jefferson Parish,Jefferson,LA,H1,29.6774584,-90.0977654
558039,22053,Jefferson Davis Parish,Jefferson Davis,LA,H1,30.2677219,-92.8141209
558049,22059,LaSalle Parish,La Salle Parish,LA,H1,31.6767317,-92.1604365
558059,22055,Lafayette Parish,Lafayette,LA,H6,30.2067716,-92.0638798
558065,22057,Lafourche Parish,Lafourche,LA,H1,29.5003322,-90.4025945
558077,22061,Lincoln Parish,Lincoln,LA,H1,32.6016374,-92.6648153
558083,22063,Livingston Parish,Livingston,LA,H1,30.4401361,-90.7279074
558088,22065,Madison Parish,Madison,LA,H1,32.3644034,-91.2425831
558097,22067,Morehouse Parish,Morehouse,LA,H1,32.8202181,-91.801797
558108,22069,Natchitoches Parish,Natchitoches,LA,H1,31.7235402,-93.0962434
558113,22071,Orleans Parish,Orleans,LA,H6,30.0686437,-89.9281281
558114,22073,Ouachita Parish,Ouachita,LA,H1,32.4783131,-92.1548701
558125,22075,Plaquemines Parish,Plaquemines,LA,H1,29.3806621,-89.4819151
558389,22001,Acadia Parish,Acadia,LA,H1,30.2905334,-92.4119791
558397,22003,Allen Parish,Allen,LA,H1,30.6528705,-92.8278792
558403,22005,Ascension Parish,Ascension,LA,H1,30.2035445,-90.9112916
558414,22007,Assumption Parish,Assumption,LA,H1,29.9007723,-91.0625869
558424,22009,Avoyelles Parish,Avoyelles,LA,H1,31.0762437,-92.0013767
558436,22011,Beauregard Parish,Beauregard,LA,H1,30.6484687,-93.343339
558445,22013,Bienville Parish,Bienville,LA,H1,32.3472192,-93.0559518
558453,22015,Bossier Parish,Bossier,LA,H1,32.6789333,-93.6050449
558458,22017,Caddo Parish,Caddo,LA,H1,32.580193,-93.8823952
558468,22019,Calcasieu Parish,Calcasieu,LA,H1,30.229224,-93.3579453
558477,22021,Caldwell Parish,Caldwell,LA,H1,32.0922715,-92.1166059
558488,22023,Cameron Parish,Cameron,LA,H1,29.846872,-93.1988964
558495,22025,Catahoula Parish,Catahoula,LA,H1,31.6661685,-91.8470716
558505,22027,Claiborne Parish,Claiborne,LA,H1,32.8226934,-92.9957332
558515,22029,Concordia Parish,Concordia,LA,H1,31.4458359,-91.640055
558521,22031,De Soto Parish,De Soto,LA,H1,32.0554496,-93.7372774
558530,22033,East Baton Rouge Parish,East Baton Rouge,LA,H6,30.5382396,-91.0956166
558534,22035,East Carroll Parish,East Carroll,LA,H1,32.7325535,-91.2350651
558542,22037,East Feliciana Parish,East Feliciana,LA,H1,30.8450708,-91.0455351
558551,22039,Evangeline Parish,Evangeline,LA,H1,30.7289364,-92.4059042
558557,22041,Franklin Parish,Franklin,LA,H1,32.1332163,-91.6737652
558567,22043,Grant Parish,Grant,LA,H1,31.5997037,-92.5595205
558576,22045,Iberia Parish,Iberia,LA,H1,29.5135336,-91.8396443
558582,22047,Iberville Parish,Iberville,LA,H1,30.2584989,-91.3493632
558592,22049,Jackson Parish,Jackson,LA,H1,32.3020349,-92.5577401
559449,22077,Pointe Coupee Parish,Pointe Coupee,LA,H1,30.7093957,-91.6007888
559460,22079,Rapides Parish,Rapides,LA,H1,31.1986203,-92.5331996
559472,22081,Red River Parish,Red River,LA,H1,32.0931465,-93.3398791
559481,22083,Richland Parish,Richland,LA,H1,32.4177898,-91.7634869
559489,22085,Sabine Parish,Sabine,LA,H1,31.564013,-93.5546969
559500,22105,Tangipahoa Parish,Tangipahoa,LA,H1,30.6266532,-90.4056804
559509,22107,Tensas Parish,Tensas,LA,H1,32.0016608,-91.340073
559517,22109,Terrebonne Parish,Terrebonne,LA,H6,29.3374419,-90.8376399
559528,22111,Union Parish,Union,LA,H1,32.8318962,-92.3748182
559538,22113,Vermilion Parish,Vermilion,LA,H1,29.8093893,-92.3042829
559548,22115,Vernon Parish,Vernon,LA,H1,31.1082937,-93.1841467
559557,22117,Washington Parish,Washington,LA,H1,30.8533422,-90.0405249
559567,22119,Webster Parish,Webster,LA,H1,32.7134544,-93.3349833
559570,22121,West Baton Rouge Parish,West Baton Rouge,LA,H1,30.4634148,-91.3127467
559578,22123,West Carroll Parish,West Carroll,LA,H1,32.7885605,-91.4567382
559584,22125,West Feliciana Parish,West Feliciana,LA,H1,30.8797727,-91.4200287
559594,22127,Winn Parish,Winn,LA,H1,31.9442492,-92.6367652
581286,23001,Androscoggin County,Androscoggin,ME,H1,44.1658484,-70.206445
581287,23003,Aroostook County,Aroostook,ME,H1,46.6588112,-68.5988875
581288,23005,Cumberland County,Cumberland,ME,H1,43.8060821,-70.3302006
581289,23007,Franklin County,Franklin,ME,H1,44.9741602,-70.4440766
581290,23009,Hancock County,Hancock,ME,H1,44.5628868,-68.368208
581291,23011,Kennebec County,Kennebec,ME,H1,44.4091601,-69.7672644
581292,23013,Knox County,Knox,ME,H1,44.0272987,-69.0155475
581293,23015,Lincoln County,Lincoln,ME,H1,43.9977873,-69.5257593
581294,23017,Oxford County,Oxford,ME,H1,44.499772,-70.7565725
581295,23019,Penobscot County,Penobscot,ME,H1,45.4005123,-68.6494281
581296,23021,Piscataquis County,Piscataquis,ME,H1,45.8373643,-69.2845235
581297,23023,Sagadahoc County,Sagadahoc,ME,H1,43.9117269,-69.839309
581298,23025,Somerset County,Somerset,ME,H1,45.5138675,-69.9588212
581299,23027,Waldo County,Waldo,ME,H1,44.4852469,-69.1218808
581300,23029,Washington County,Washington,ME,H1,44.9694588,-67.6090585
581301,23031,York County,York,ME,H1,43.429226,-70.6701463
592947,24041,Talbot County,Talbot,MD,H1,38.7491002,-76.1786171
593907,24029,Kent County,Kent,MD,H1,39.2356039,-76.0958206
595737,24011,Caroline County,Caroline,MD,H1,38.8717218,-75.831601
596089,24035,Queen Anne's County,Queen Anne's,MD,H1,39.0376284,-76.085036
596115,24015,Cecil County,Cecil,MD,H1,39.5624203,-75.948107
596495,24019,Dorchester County,Dorchester,MD,H1,38.422608,-76.0833253
596907,24039,Somerset County,Somerset,MD,H1,38.0800658,-75.8534692
606927,25001,Barnstable County,Barnstable,MA,H1,41.7734493,-70.2381375
606929,25005,Bristol County,Bristol,MA,H1,41.7570882,-71.0885008
606930,25007,Dukes County,Dukes,MA,H1,41.3887747,-70.6987716
606937,25021,Norfolk County,Norfolk,MA,H1,42.1709797,-71.1838283
606938,25023,Plymouth County,Plymouth,MA,H1,41.9874357,-70.737076
659447,27003,Anoka County,Anoka,MN,H1,45.273242,-93.2464674
659448,27005,Becker County,Becker,MN,H1,46.9346484,-95.6739235
659449,27007,Beltrami County,Beltrami,MN,H1,47.9737829,-94.9376545
659450,27009,Benton County,Benton,MN,H1,45.6991359,-93.9988298
659451,27011,Big Stone County,Big Stone,MN,H1,45.4260991,-96.4109184
659452,27013,Blue Earth County,Blue Earth,MN,H1,44.0345924,-94.0670389
659453,27015,Brown County,Brown,MN,H1,44.2421377,-94.7275819
659454,27017,Carlton County,Carlton,MN,H1,46.5924014,-92.6770526
659455,27019,Carver County,Carver,MN,H1,44.8207594,-93.8025861
659456,27021,Cass County,Cass,MN,H1,46.9496039,-94.3253491
659457,27023,Chippewa County,Chippewa,MN,H1,45.0223438,-95.566687
659458,27025,Chisago County,Chisago,MN,H1,45.5024731,-92.9083422
659459,27027,Clay County,Clay,MN,H1,46.8923426,-96.4906475
659460,27029,Clearwater County,Clearwater,MN,H1,47.5776535,-95.3790238
659461,27031,Cook County,Cook,MN,H1,47.7266527,-90.386005
659462,27033,Cottonwood County,Cottonwood,MN,H1,44.0071067,-95.1811533
659463,27035,Crow Wing County,Crow Wing,MN,H1,46.4823737,-94.0708777
659464,27037,Dakota County,Dakota,MN,H1,44.6718807,-93.0654242
659465,27039,Dodge County,Dodge,MN,H1,44.0225895,-92.862054
659466,27041,Douglas County,Douglas,MN,H1,45.9337163,-95.4535237
659467,27043,Faribault County,Faribault,MN,H1,43.6739283,-93.9479993
659468,27045,Fillmore County,Fillmore,MN,H1,43.6739972,-92.0901673
659469,27047,Freeborn County,Freeborn,MN,H1,43.6738442,-93.3488159
659470,27049,Goodhue County,Goodhue,MN,H1,44.4098464,-92.7225907
659471,27051,Grant County,Grant,MN,H1,45.9340462,-96.0121841
659472,27053,Hennepin County,Hennepin,MN,H1,45.0045757,-93.4768841
659473,27055,Houston County,Houston,MN,H1,43.671444,-91.4928319
659474,27057,Hubbard County,Hubbard,MN,H1,47.1086298,-94.9166206
659475,27059,Isanti County,Isanti,MN,H1,45.5614793,-93.2951672
659476,27061,Itasca County,Itasca,MN,H1,47.5095255,-93.6320066
659477,27063,Jackson County,Jackson,MN,H1,43.6741733,-95.154113
659478,27065,Kanabec County,Kanabec,MN,H1,45.9452168,-93.2934251
659479,27067,Kandiyohi County,Kandiyohi,MN,H1,45.1523816,-95.0047417
659480,27069,Kittson County,Kittson,MN,H1,48.7766296,-96.782844
659481,27071,Koochiching County,Koochiching,MN,H1,48.2452684,-93.7833663
659482,27073,Lac qui Parle County,Lac qui Parle,MN,H1,44.9954869,-96.1734787
659483,27077,Lake of the Woods County,Lake of the Woods,MN,H1,48.771232,-94.9045742
659484,27075,Lake County,Lake,MN,H1,47.523171,-91.4088486
659485,27079,Le Sueur County,Le Sueur,MN,H1,44.3714339,-93.7300729
659486,27081,Lincoln County,Lincoln,MN,H1,44.4125964,-96.2670873
659487,27083,Lyon County,Lyon,MN,H1,44.4134916,-95.8389749
659488,27087,Mahnomen County,Mahnomen,MN,H1,47.3252381,-95.8090478
659489,27089,Marshall County,Marshall,MN,H1,48.358126,-96.3684744
659490,27091,Martin County,Martin,MN,H1,43.6743621,-94.5510703
659491,27085,McLeod County,McLeod,MN,H1,44.8235439,-94.2724202
659492,27093,Meeker County,Meeker,MN,H1,45.1231152,-94.5273095
659493,27095,Mille Lacs County,Mille Lacs,MN,H1,45.9380407,-93.6300835
659494,27097,Morrison County,Morrison,MN,H1,46.0126177,-94.2684153
659495,27099,Mower County,Mower,MN,H1,43.67147,-92.7525136
659496,27101,Murray County,Murray,MN,H1,44.0221218,-95.7632753
659497,27103,Nicollet County,Nicollet,MN,H1,44.3498784,-94.247388
659498,27105,Nobles County,Nobles,MN,H1,43.6742401,-95.7533869
659499,27107,Norman County,Norman,MN,H1,47.3264762,-96.4552778
659500,27109,Olmsted County,Olmsted,MN,H1,44.0037525,-92.4017709
659501,27111,Otter Tail County,Otter Tail,MN,H1,46.408796,-95.7080022
659502,27113,Pennington County,Pennington,MN,H1,48.0662321,-96.0366683
659503,27115,Pine County,Pine,MN,H1,46.1207671,-92.7412705
659504,27117,Pipestone County,Pipestone,MN,H1,44.0229952,-96.2586448
659505,27119,Polk County,Polk,MN,H1,47.7738545,-96.401806
659506,27121,Pope County,Pope,MN,H1,45.5860151,-95.4444786
659507,27123,Ramsey County,Ramsey,MN,H1,45.0170615,-93.0996078
659508,27125,Red Lake County,Red Lake,MN,H1,47.8716944,-96.0953034
659509,27127,Redwood County,Redwood,MN,H1,44.4036605,-95.2538338
659510,27129,Renville County,Renville,MN,H1,44.7268149,-94.9471503
659511,27131,Rice County,Rice,MN,H1,44.3542643,-93.2966783
659512,27133,Rock County,Rock,MN,H1,43.6746304,-96.2532076
659513,27135,Roseau County,Roseau,MN,H1,48.7751394,-95.8108172
659514,27139,Scott County,Scott,MN,H1,44.6484737,-93.5358983
659515,27141,Sherburne County,Sherburne,MN,H1,45.4439531,-93.7745948
659516,27143,Sibley County,Sibley,MN,H1,44.5794784,-94.2321421
659517,27145,Stearns County,Stearns,MN,H1,45.5521526,-94.6130108
659518,27147,Steele County,Steele,MN,H1,44.0223437,-93.2260411
659519,27149,Stevens County,Stevens,MN,H1,45.5861253,-96.0003023
659520,27151,Swift County,Swift,MN,H1,45.2827089,-95.6814394
659521,27153,Todd County,Todd,MN,H1,46.0706238,-94.8975994
659522,27155,Traverse County,Traverse,MN,H1,45.7721845,-96.4716414
659523,27157,Wabasha County,Wabasha,MN,H1,44.2842862,-92.2302603
659524,27159,Wadena County,Wadena,MN,H1,46.5857616,-94.9694078
659525,27161,Waseca County,Waseca,MN,H1,44.0221237,-93.5872832
659526,27163,Washington County,Washington,MN,H1,45.0387533,-92.8839694
659527,27165,Watonwan County,Watonwan,MN,H1,43.9784279,-94.6140606
659528,27167,Wilkin County,Wilkin,MN,H1,46.3570766,-96.4683496
659529,27169,Winona County,Winona,MN,H1,43.9868497,-91.7791294
659530,27171,Wright County,Wright,MN,H1,45.1739314,-93.9630526
659531,27173,Yellow Medicine County,Yellow Medicine,MN,H1,44.7162497,-95.8683594
662850,27137,Saint Louis County,St. Louis,MN,H1,47.5898622,-92.4614655
663198,27001,Aitkin County,Aitkin,MN,H1,46.6082573,-93.4154291
695726,28001,Adams County,Adams,MS,H1,31.4829429,-91.3534983
695727,28005,Amite County,Amite,MS,H1,31.1743965,-90.8044315
695728,28007,Attala County,Attala,MS,H1,33.0862935,-89.5815416
695729,28009,Benton County,Benton,MS,H1,34.8172865,-89.1884755
695730,28011,Bolivar County,Bolivar,MS,H1,33.795539,-90.8804009
695731,28013,Calhoun County,Calhoun,MS,H1,33.93645,-89.3364452
695732,28015,Carroll County,Carroll,MS,H1,33.4485259,-89.9201977
695733,28017,Chickasaw County,Chickasaw,MS,H1,33.9208,-88.9478636
695734,28019,Choctaw County,Choctaw,MS,H1,33.3473071,-89.2483812
695735,28021,Claiborne County,Claiborne,MS,H1,31.9736926,-90.9118133
695736,28023,Clarke County,Clarke,MS,H1,32.0414017,-88.6894044
695737,28025,Clay County,Clay,MS,H1,33.6556666,-88.7815762
695738,28027,Coahoma County,Coahoma,MS,H1,34.2291656,-90.602687
695739,28029,Copiah County,Copiah,MS,H1,31.8692374,-90.4487987
695740,28031,Covington County,Covington,MS,H1,31.6332182,-89.5526288
695741,28033,DeSoto County,DeSoto,MS,H1,34.8753989,-89.99177
695742,28035,Forrest County,Forrest,MS,H1,31.1888694,-89.2578598
695743,28037,Franklin County,Franklin,MS,H1,31.4771453,-90.8978501
695744,28039,George County,George,MS,H1,30.8626068,-88.6440346
695745,28041,Greene County,Greene,MS,H1,31.2142248,-88.6391629
695746,28043,Grenada County,Grenada,MS,H1,33.7699539,-89.8020062
695747,28047,Harrison County,Harrison,MS,H1,30.4160497,-89.0816427
695748,28049,Hinds County,Hinds,MS,H1,32.2667019,-90.4428212
695749,28051,Holmes County,Holmes,MS,H1,33.1235145,-90.0920506
695750,28053,Humphreys County,Humphreys,MS,H1,33.1286973,-90.526621
695751,28055,Issaquena County,Issaquena,MS,H1,32.7413906,-90.9892124
695752,28057,Itawamba County,Itawamba,MS,H1,34.2799867,-88.3613228
695753,28059,Jackson County,Jackson,MS,H1,30.4628875,-88.6228416
695754,28061,Jasper County,Jasper,MS,H1,32.0191127,-89.1188598
695755,28063,Jefferson County,Jefferson,MS,H1,31.7342054,-91.0371787
695756,28065,Jefferson Davis County,Jefferson Davis,MS,H1,31.5696411,-89.8230024
695757,28067,Jones County,Jones,MS,H1,31.6225588,-89.1687933
695758,28069,Kemper County,Kemper,MS,H1,32.7545579,-88.6411594
695759,28071,Lafayette County,Lafayette,MS,H1,34.3567578,-89.4849193
695760,28073,Lamar County,Lamar,MS,H1,31.2058686,-89.5086878
695761,28075,Lauderdale County,Lauderdale,MS,H1,32.4042862,-88.6625415
695762,28077,Lawrence County,Lawrence,MS,H1,31.550203,-90.1069949
695763,28079,Leake County,Leake,MS,H1,32.753517,-89.5240158
695764,28081,Lee County,Lee,MS,H1,34.2898881,-88.6804162
695765,28083,Leflore County,Leflore,MS,H1,33.5505241,-90.3010647
695766,28085,Lincoln County,Lincoln,MS,H1,31.5323916,-90.4539982
695767,28087,Lowndes County,Lowndes,MS,H1,33.4729093,-88.4433135
695768,28089,Madison County,Madison,MS,H1,32.6347102,-90.0337143
695769,28091,Marion County,Marion,MS,H1,31.2308171,-89.822443
695770,28093,Marshall County,Marshall,MS,H1,34.7622655,-89.5030564
695771,28095,Monroe County,Monroe,MS,H1,33.8922415,-88.4804669
695772,28099,Neshoba County,Neshoba,MS,H1,32.7534966,-89.1175728
695773,28101,Newton County,Newton,MS,H1,32.4002323,-89.1188085
695774,28103,Noxubee County,Noxubee,MS,H1,33.1101128,-88.5698162
695775,28105,Oktibbeha County,Oktibbeha,MS,H1,33.4249531,-88.8793052
695776,28107,Panola County,Panola,MS,H1,34.3639351,-89.9505673
695777,28109,Pearl River County,Pearl River,MS,H1,30.7685805,-89.589783
695778,28111,Perry County,Perry,MS,H1,31.1720243,-88.9923283
695779,28117,Prentiss County,Prentiss,MS,H1,34.6182874,-88.5200954
695780,28119,Quitman County,Quitman,MS,H1,34.2514096,-90.2891245
695781,28121,Rankin County,Rankin,MS,H1,32.2641244,-89.9457981
695782,28123,Scott County,Scott,MS,H1,32.4063799,-89.537638
695783,28125,Sharkey County,Sharkey,MS,H1,32.8797231,-90.8132149
695784,28127,Simpson County,Simpson,MS,H1,31.913172,-89.9194881
695785,28129,Smith County,Smith,MS,H1,32.0176929,-89.5066775
695786,28131,Stone County,Stone,MS,H1,30.7899516,-89.1177102
695787,28133,Sunflower County,Sunflower,MS,H1,33.6023129,-90.5886186
695788,28135,Tallahatchie County,Tallahatchie,MS,H1,33.9504748,-90.1732642
695789,28137,Tate County,Tate,MS,H1,34.6503253,-89.9447795
695790,28139,Tippah County,Tippah,MS,H1,34.7684002,-88.908898
695791,28141,Tishomingo County,Tishomingo,MS,H1,34.7404338,-88.2393231
695792,28143,Tunica County,Tunica,MS,H1,34.6519496,-90.3754987
695793,28145,Union County,Union,MS,H1,34.4904742,-89.0038569
695794,28147,Walthall County,Walthall,MS,H1,31.1484222,-90.1061368
695795,28149,Warren County,Warren,MS,H1,32.3572296,-90.8520112
695796,28151,Washington County,Washington,MS,H1,33.2836981,-90.9474546
695797,28153,Wayne County,Wayne,MS,H1,31.6407805,-88.6957977
695798,28155,Webster County,Webster,MS,H1,33.6130681,-89.2848256
695799,28157,Wilkinson County,Wilkinson,MS,H1,31.1610675,-91.3109179
695800,28159,Winston County,Winston,MS,H1,33.088491,-89.0344292
695801,28161,Yalobusha County,Yalobusha,MS,H1,34.0282116,-89.7076318
695802,28163,Yazoo County,Yazoo,MS,H1,32.7803142,-90.396448
695803,28115,Pontotoc County,Pontotoc,MS,H1,34.2254421,-89.0374097
711755,28003,Alcorn County,Alcorn,MS,H1,34.8807715,-88.5802646
711756,28045,Hancock County,Hancock,MS,H1,30.3937798,-89.4745621
711757,28097,Montgomery County,Montgomery,MS,H1,33.4941024,-89.6163957
711758,28113,Pike County,Pike,MS,H1,31.1749079,-90.4041605
758456,29003,Andrew County,Andrew,MO,H1,39.9834879,-94.8020459
758457,29005,Atchison County,Atchison,MO,H1,40.4308476,-95.4280935
758458,29007,Audrain County,Audrain,MO,H1,39.2157556,-91.8415858
758459,29009,Barry County,Barry,MO,H1,36.7098654,-93.8290667
758460,29011,Barton County,Barton,MO,H1,37.5023006,-94.3471108
758461,29013,Bates County,Bates,MO,H1,38.2572923,-94.3399967
758462,29015,Benton County,Benton,MO,H1,38.294849,-93.2879465
758463,29017,Bollinger County,Bollinger,MO,H1,37.3221907,-90.0259472
758464,29019,Boone County,Boone,MO,H1,38.9906152,-92.3096802
758465,29021,Buchanan County,Buchanan,MO,H1,39.6598589,-94.8061559
758466,29023,Butler County,Butler,MO,H1,36.7164171,-90.4065564
758467,29025,Caldwell County,Caldwell,MO,H1,39.655751,-93.9827993
758468,29027,Callaway County,Callaway,MO,H1,38.8355242,-91.9260138
758469,29029,Camden County,Camden,MO,H1,38.0270332,-92.7660446
758470,29031,Cape Girardeau County,Cape Girardeau,MO,H1,37.3840412,-89.6844539
758471,29033,Carroll County,Carroll,MO,H1,39.4269815,-93.5051758
758472,29035,Carter County,Carter,MO,H1,36.941272,-90.9623104
758473,29037,Cass County,Cass,MO,H1,38.6469784,-94.3548163
758474,29039,Cedar County,Cedar,MO,H1,37.7238515,-93.8566135
758475,29041,Chariton County,Chariton,MO,H1,39.5150814,-92.9626237
758476,29043,Christian County,Christian,MO,H1,36.9695717,-93.1888539
758477,29045,Clark County,Clark,MO,H1,40.410356,-91.7383967
758478,29047,Clay County,Clay,MO,H1,39.3105207,-94.4208653
758479,29049,Clinton County,Clinton,MO,H1,39.6017803,-94.4045943
758480,29051,Cole County,Cole,MO,H1,38.5054141,-92.2816002
758481,29053,Cooper County,Cooper,MO,H1,38.8435396,-92.8101193
758482,29055,Crawford County,Crawford,MO,H1,37.9763769,-91.3039613
758483,29057,Dade County,Dade,MO,H1,37.4320426,-93.8502884
758484,29059,Dallas County,Dallas,MO,H1,37.6804065,-93.0236554
758485,29061,Daviess County,Daviess,MO,H1,39.960745,-93.9854672
758486,29063,DeKalb County,DeKalb,MO,H1,39.8931764,-94.4047094
758487,29065,Dent County,Dent,MO,H1,37.6066302,-91.5078827
758488,29067,Douglas County,Douglas,MO,H1,36.9325976,-92.4988057
758489,29069,Dunklin County,Dunklin,MO,H1,36.1059686,-90.1657585
758490,29071,Franklin County,Franklin,MO,H1,38.4111444,-91.0749939
758491,29073,Gasconade County,Gasconade,MO,H1,38.4408671,-91.5079334
758492,29075,Gentry County,Gentry,MO,H1,40.2121077,-94.4099168
758493,29077,Greene County,Greene,MO,H1,37.2580491,-93.3419905
758494,29079,Grundy County,Grundy,MO,H1,40.1139294,-93.5653355
758495,29081,Harrison County,Harrison,MO,H1,40.3546686,-93.9920637
758496,29083,Henry County,Henry,MO,H1,38.385163,-93.79275
758497,29085,Hickory County,Hickory,MO,H1,37.9407857,-93.3207209
758498,29087,Holt County,Holt,MO,H1,40.0944306,-95.2155122
758499,29089,Howard County,Howard,MO,H1,39.1424975,-92.6962655
758500,29091,Howell County,Howell,MO,H1,36.7740136,-91.8865417
758501,29093,Iron County,Iron,MO,H1,37.5042605,-90.6900268
758502,29095,Jackson County,Jackson,MO,H1,39.0084757,-94.3461008
758503,29097,Jasper County,Jasper,MO,H1,37.2035473,-94.3406053
758504,29099,Jefferson County,Jefferson,MO,H1,38.2610713,-90.5376891
758505,29101,Johnson County,Johnson,MO,H1,38.7440855,-93.8063675
758506,29103,Knox County,Knox,MO,H1,40.1282549,-92.1480724
758507,29105,Laclede County,Laclede,MO,H1,37.6583173,-92.5903523
758508,29107,Lafayette County,Lafayette,MO,H1,39.0655884,-93.7855426
758509,29109,Lawrence County,Lawrence,MO,H1,37.1063512,-93.8329366
758510,29111,Lewis County,Lewis,MO,H1,40.0968997,-91.7221441
758511,29113,Lincoln County,Lincoln,MO,H1,39.0580193,-90.9600454
758512,29115,Linn County,Linn,MO,H1,39.8702114,-93.1071757
758513,29117,Livingston County,Livingston,MO,H1,39.7821052,-93.5482817
758514,29121,Macon County,Macon,MO,H1,39.8308021,-92.5646083
758515,29123,Madison County,Madison,MO,H1,37.4780955,-90.3450262
758516,29125,Maries County,Maries,MO,H1,38.1616349,-91.924886
758517,29127,Marion County,Marion,MO,H1,39.8059648,-91.6223486
758518,29119,McDonald County,McDonald,MO,H1,36.628674,-94.3483587
758519,29129,Mercer County,Mercer,MO,H1,40.4223314,-93.5685582
758520,29131,Miller County,Miller,MO,H1,38.2145295,-92.4284078
758521,29133,Mississippi County,Mississippi,MO,H1,36.8280985,-89.2911821
758522,29135,Moniteau County,Moniteau,MO,H1,38.6327516,-92.5830547
758523,29137,Monroe County,Monroe,MO,H1,39.4954646,-92.0007359
758524,29139,Montgomery County,Montgomery,MO,H1,38.941491,-91.4702088
758525,29141,Morgan County,Morgan,MO,H1,38.4237396,-92.8859846
758526,29143,New Madrid County,New Madrid,MO,H1,36.5946452,-89.6518333
758527,29145,Newton County,Newton,MO,H1,36.9055088,-94.3392465
758528,29147,Nodaway County,Nodaway,MO,H1,40.3607738,-94.8834337
758529,29149,Oregon County,Oregon,MO,H1,36.6867159,-91.403295
758530,29151,Osage County,Osage,MO,H1,38.4603651,-91.8618379
758531,29153,Ozark County,Ozark,MO,H1,36.6493219,-92.4446636
758532,29155,Pemiscot County,Pemiscot,MO,H1,36.2114503,-89.7853789
758533,29157,Perry County,Perry,MO,H1,37.7071367,-89.8244111
758534,29159,Pettis County,Pettis,MO,H1,38.7282893,-93.2850964
758535,29161,Phelps County,Phelps,MO,H1,37.8771286,-91.7923649
758536,29163,Pike County,Pike,MO,H1,39.3438352,-91.1713633
758537,29165,Platte County,Platte,MO,H1,39.3805035,-94.7735895
758538,29167,Polk County,Polk,MO,H1,37.616479,-93.4005327
758539,29169,Pulaski County,Pulaski,MO,H1,37.8246251,-92.2076625
758540,29171,Putnam County,Putnam,MO,H1,40.4789084,-93.0161268
758541,29173,Ralls County,Ralls,MO,H1,39.5276702,-91.5220242
758542,29175,Randolph County,Randolph,MO,H1,39.440168,-92.497078
758543,29177,Ray County,Ray,MO,H1,39.3524141,-93.9898835
758544,29179,Reynolds County,Reynolds,MO,H1,37.3623266,-90.9690828
758545,29181,Ripley County,Ripley,MO,H1,36.652817,-90.8638843
758546,29183,Saint Charles County,St. Charles,MO,H1,38.7819172,-90.6748967
758547,29185,Saint Clair County,St. Clair,MO,H1,38.037178,-93.7759758
758548,29187,Saint Francois County,St. Francois,MO,H1,37.810283,-90.4722676
758549,29189,Saint Louis County,St. Louis,MO,H1,38.6406895,-90.4434202
758550,29195,Saline County,Saline,MO,H1,39.1368391,-93.2018512
758551,29197,Schuyler County,Schuyler,MO,H1,40.4702708,-92.5209409
758552,29199,Scotland County,Scotland,MO,H1,40.452599,-92.1470475
758553,29201,Scott County,Scott,MO,H1,37.053046,-89.5685147
758554,29203,Shannon County,Shannon,MO,H1,37.1573917,-91.4005112
758555,29205,Shelby County,Shelby,MO,H1,39.797776,-92.0766157
758556,29207,Stoddard County,Stoddard,MO,H1,36.8556222,-89.9443101
758557,29209,Stone County,Stone,MO,H1,36.7469438,-93.4560012
758558,29211,Sullivan County,Sullivan,MO,H1,40.2106416,-93.1115223
758559,29213,Taney County,Taney,MO,H1,36.6547348,-93.0411071
758560,29215,Texas County,Texas,MO,H1,37.317307,-91.9650546
758561,29217,Vernon County,Vernon,MO,H1,37.8505816,-94.3424415
758562,29219,Warren County,Warren,MO,H1,38.7646164,-91.1606931
758563,29221,Washington County,Washington,MO,H1,37.9616839,-90.8774245
758564,29223,Wayne County,Wayne,MO,H1,37.1126355,-90.4614295
758565,29225,Webster County,Webster,MO,H1,37.2809053,-92.875877
758566,29227,Worth County,Worth,MO,H1,40.4791367,-94.4221022
758567,29229,Wright County,Wright,MO,H1,37.27014,-92.4687043
765805,29001,Adair County,Adair,MO,H1,40.1905622,-92.600719
765806,29186,Sainte Genevieve County,Ste. Genevieve,MO,H1,37.8944044,-90.1944237
793926,30049,Lewis and Clark County,Lewis and Clark,MT,H1,47.1224429,-112.390455
835823,31001,Adams County,Adams,NE,H1,40.5244687,-98.501209
835824,31003,Antelope County,Antelope,NE,H1,42.1769035,-98.0666853
835825,31005,Arthur County,Arthur,NE,H1,41.5689032,-101.6959107
835826,31007,Banner County,Banner,NE,H1,41.5459747,-103.7104768
835827,31009,Blaine County,Blaine,NE,H1,41.9127594,-99.9768991
835828,31011,Boone County,Boone,NE,H1,41.7067847,-98.0672555
835829,31015,Boyd County,Boyd,NE,H1,42.8996849,-98.7664621
835830,31017,Brown County,Brown,NE,H1,42.4300206,-99.9295065
835831,31019,Buffalo County,Buffalo,NE,H1,40.8551525,-99.0749662
835832,31021,Burt County,Burt,NE,H1,41.8515632,-96.3286045
835833,31023,Butler County,Butler,NE,H1,41.2260775,-97.1317688
835834,31025,Cass County,Cass,NE,H1,40.9097216,-96.1408663
835835,31027,Cedar County,Cedar,NE,H1,42.5992619,-97.252401
835836,31029,Chase County,Chase,NE,H1,40.5241958,-101.697947
835837,31031,Cherry County,Cherry,NE,H1,42.5449323,-101.1185769
835838,31033,Cheyenne County,Cheyenne,NE,H1,41.2197791,-102.9949787
835839,31035,Clay County,Clay,NE,H1,40.5244323,-98.0512842
835840,31037,Colfax County,Colfax,NE,H1,41.5740219,-97.0864648
835841,31039,Cuming County,Cuming,NE,H1,41.9164028,-96.7874004
835842,31041,Custer County,Custer,NE,H1,41.394264,-99.7261438
835843,31043,Dakota County,Dakota,NE,H1,42.3911118,-96.564513
835844,31045,Dawes County,Dawes,NE,H1,42.7197222,-103.1354381
835845,31047,Dawson County,Dawson,NE,H1,40.8699361,-99.8195657
835846,31049,Deuel County,Deuel,NE,H1,41.1115978,-102.3339499
835847,31051,Dixon County,Dixon,NE,H1,42.4930988,-96.8677208
835848,31053,Dodge County,Dodge,NE,H1,41.5778863,-96.6539834
835849,31055,Douglas County,Douglas,NE,H1,41.2953515,-96.1544796
835850,31057,Dundy County,Dundy,NE,H1,40.1762352,-101.6879614
835851,31059,Fillmore County,Fillmore,NE,H1,40.5246661,-97.5965014
835852,31061,Franklin County,Franklin,NE,H1,40.1763448,-98.9527962
835853,31063,Frontier County,Frontier,NE,H1,40.5300832,-100.3942026
835854,31065,Furnas County,Furnas,NE,H1,40.1764659,-99.9122732
835855,31067,Gage County,Gage,NE,H1,40.2619297,-96.6894414
835856,31069,Garden County,Garden,NE,H1,41.6194314,-102.3354383
835857,31071,Garfield County,Garfield,NE,H1,41.9143571,-98.9913853
835858,31073,Gosper County,Gosper,NE,H1,40.5148205,-99.8307043
835859,31075,Grant County,Grant,NE,H1,41.9149937,-101.7405188
835860,31077,Greeley County,Greeley,NE,H1,41.5674403,-98.5212445
835861,31079,Hall County,Hall,NE,H1,40.8725715,-98.502174
835862,31081,Hamilton County,Hamilton,NE,H1,40.8730328,-98.0228653
835863,31083,Harlan County,Harlan,NE,H1,40.1764958,-99.4046441
835864,31085,Hayes County,Hayes,NE,H1,40.5247824,-101.0618439
835865,31087,Hitchcock County,Hitchcock,NE,H1,40.1763469,-101.0422724
835866,31089,Holt County,Holt,NE,H1,42.455711,-98.7838447
835867,31091,Hooker County,Hooker,NE,H1,41.9159126,-101.1353346
835868,31093,Howard County,Howard,NE,H1,41.2200386,-98.5170946
835869,31095,Jefferson County,Jefferson,NE,H1,40.1757609,-97.1427157
835870,31097,Johnson County,Johnson,NE,H1,40.3926316,-96.2650969
835871,31099,Kearney County,Kearney,NE,H1,40.5067072,-98.9480216
835872,31101,Keith County,Keith,NE,H1,41.1987932,-101.6613512
835873,31103,Keya Paha County,Keya Paha,NE,H1,42.8788291,-99.7123497
835874,31105,Kimball County,Kimball,NE,H1,41.1976567,-103.7149499
835875,31107,Knox County,Knox,NE,H1,42.6367815,-97.8918968
835876,31109,Lancaster County,Lancaster,NE,H1,40.7841736,-96.6877555
835877,31111,Lincoln County,Lincoln,NE,H1,41.0477675,-100.7452338
835878,31113,Logan County,Logan,NE,H1,41.5664862,-100.4828614
835879,31115,Loup County,Loup,NE,H1,41.9138469,-99.4544206
835880,31119,Madison County,Madison,NE,H1,41.9166981,-97.6007791
835881,31117,McPherson County,McPherson,NE,H1,41.5680845,-101.0605304
835882,31121,Merrick County,Merrick,NE,H1,41.1690383,-98.0379852
835883,31123,Morrill County,Morrill,NE,H1,41.7159997,-103.0105488
835884,31125,Nance County,Nance,NE,H1,41.3973022,-97.9922509
835885,31127,Nemaha County,Nemaha,NE,H1,40.3876549,-95.8498161
835886,31129,Nuckolls County,Nuckolls,NE,H1,40.1763796,-98.047185
835887,31131,Otoe County,Otoe,NE,H1,40.648501,-96.1347754
835888,31133,Pawnee County,Pawnee,NE,H1,40.1315429,-96.2370552
835889,31135,Perkins County,Perkins,NE,H1,40.8509414,-101.6496133
835890,31137,Phelps County,Phelps,NE,H1,40.5111131,-99.4145429
835891,31139,Pierce County,Pierce,NE,H1,42.2643746,-97.6012905
835892,31141,Platte County,Platte,NE,H1,41.5712868,-97.521157
835893,31143,Polk County,Polk,NE,H1,41.1868969,-97.5684211
835894,31145,Red Willow County,Red Willow,NE,H1,40.1758305,-100.4768648
835895,31147,Richardson County,Richardson,NE,H1,40.1250639,-95.7175305
835896,31149,Rock County,Rock,NE,H1,42.4212881,-99.4499297
835897,31151,Saline County,Saline,NE,H1,40.5240611,-97.1409087
835898,31153,Sarpy County,Sarpy,NE,H1,41.112927,-96.1119916
835899,31155,Saunders County,Saunders,NE,H1,41.2263705,-96.6374007
835900,31157,Scotts Bluff County,Scotts Bluff,NE,H1,41.8506075,-103.7079466
835901,31159,Seward County,Seward,NE,H1,40.8723858,-97.1395097
835902,31161,Sheridan County,Sheridan,NE,H1,42.504773,-102.4089636
835903,31163,Sherman County,Sherman,NE,H1,41.2205906,-98.9762071
835904,31165,Sioux County,Sioux,NE,H1,42.4877139,-103.7588786
835905,31167,Stanton County,Stanton,NE,H1,41.9169237,-97.193915
835906,31169,Thayer County,Thayer,NE,H1,40.1762856,-97.5949196
835907,31171,Thomas County,Thomas,NE,H1,41.9135061,-100.5558456
835908,31173,Thurston County,Thurston,NE,H1,42.1581861,-96.5440972
835909,31175,Valley County,Valley,NE,H1,41.5673059,-98.9819022
835910,31177,Washington County,Washington,NE,H1,41.5310383,-96.2220295
835911,31179,Wayne County,Wayne,NE,H1,42.2092886,-97.1192603
835912,31181,Webster County,Webster,NE,H1,40.1764332,-98.4999474
835913,31183,Wheeler County,Wheeler,NE,H1,41.9147703,-98.528186
835914,31185,York County,York,NE,H1,40.8727458,-97.5971069
835991,31013,Box Butte County,Box Butte,NE,H1,42.2197673,-103.0856819
857664,32007,Elko County,Elko,NV,H1,41.145783,-115.3577007
858608,32031,Washoe County,Washoe,NV,H1,40.6654194,-119.6642924
858615,32033,White Pine County,White Pine,NV,H1,39.4421952,-114.9016845
858638,32001,Churchill County,Churchill,NV,H1,39.5808764,-118.3357789
858640,32011,Eureka County,Eureka,NV,H1,39.983892,-116.2685596
858641,32009,Esmeralda County,Esmeralda,NV,H1,37.7846966,-117.632366
858642,32029,Storey County,Storey,NV,H1,39.4465348,-119.5291693
858643,32005,Douglas County,Douglas,NV,H1,38.9122414,-119.616372
858644,32021,Mineral County,Mineral,NV,H1,38.5388086,-118.4352143
858645,32019,Lyon County,Lyon,NV,H1,39.0203977,-119.1891968
858646,32027,Pershing County,Pershing,NV,H1,40.4403579,-118.4044381
863310,32013,Humboldt County,Humboldt,NV,H1,41.4068466,-118.1119658
863368,32015,Lander County,Lander,NV,H1,39.933806,-117.0379084
863599,32023,Nye County,Nye,NV,H1,38.0423816,-116.4719313
863600,32003,Clark County,Clark,NV,H1,36.2151981,-115.0135617
863992,32017,Lincoln County,Lincoln,NV,H1,37.6433386,-114.87754
873174,33001,Belknap County,Belknap,NH,H1,43.517969,-71.4226936
873175,33003,Carroll County,Carroll,NH,H1,43.8738459,-71.2029939
873176,33005,Cheshire County,Cheshire,NH,H1,42.9193314,-72.2511753
873177,33007,Coos County,Coos,NH,H1,44.6894956,-71.3055326
873178,33009,Grafton County,Grafton,NH,H1,43.9406663,-71.8207198
873179,33011,Hillsborough County,Hillsborough,NH,H1,42.9152914,-71.7160824
873180,33013,Merrimack County,Merrimack,NH,H1,43.2974962,-71.6802764
873181,33015,Rockingham County,Rockingham,NH,H1,42.9845981,-71.0890594
873182,33017,Strafford County,Strafford,NH,H1,43.2969944,-71.0288029
873183,33019,Sullivan County,Sullivan,NH,H1,43.3612747,-72.2222294
882228,34019,Hunterdon County,Hunterdon,NJ,H1,40.5672969,-74.9122478
882229,34021,Mercer County,Mercer,NJ,H1,40.283437,-74.7017521
882230,34023,Middlesex County,Middlesex,NJ,H1,40.4400837,-74.4088356
882231,34027,Morris County,Morris,NJ,H1,40.8620042,-74.5445107
882232,34031,Passaic County,Passaic,NJ,H1,41.0343061,-74.3007757
882233,34033,Salem County,Salem,NJ,H1,39.5767752,-75.3579857
882234,34035,Somerset County,Somerset,NJ,H1,40.5635069,-74.6163366
882235,34039,Union County,Union,NJ,H1,40.6598994,-74.3081414
882236,34037,Sussex County,Sussex,NJ,H1,41.1392969,-74.6908007
882237,34041,Warren County,Warren,NJ,H1,40.8571485,-74.9973499
882270,34001,Atlantic County,Atlantic,NJ,H1,39.4688295,-74.6337304
882271,34003,Bergen County,Bergen,NJ,H1,40.9596718,-74.0742256
882272,34005,Burlington County,Burlington,NJ,H1,39.8777172,-74.6680677
882273,34007,Camden County,Camden,NJ,H1,39.8035389,-74.9597542
882274,34009,Cape May County,Cape May,NJ,H1,39.0850981,-74.849977
882275,34011,Cumberland County,Cumberland,NJ,H1,39.3280986,-75.1293183
882276,34013,Essex County,Essex,NJ,H1,40.7872148,-74.2470601
882277,34015,Gloucester County,Gloucester,NJ,H1,39.7172646,-75.1414131
882278,34017,Hudson County,Hudson,NJ,H1,40.730905,-74.0759554
882279,34029,Ocean County,Ocean,NJ,H1,39.8659325,-74.2499159
882910,34025,Monmouth County,Monmouth,NJ,H1,40.2875173,-74.1582024
915980,35017,Grant County,Grant,NM,H1,32.7390026,-108.3824558
929104,35035,Otero County,Otero,NM,H1,32.6131447,-105.7414426
929106,35023,Hidalgo County,Hidalgo,NM,H1,31.9141679,-108.7149795
929107,35031,McKinley County,McKinley,NM,H1,35.5806642,-108.2618231
929108,35003,Catron County,Catron,NM,H1,33.9153519,-108.4047624
929109,35013,Doa Ana County,Doa Ana,NM,H1,32.3526479,-106.8327212
929110,35037,Quay County,Quay,NM,H1,35.1043484,-103.5497485
929111,35019,Guadalupe County,Guadalupe,NM,H1,34.8633406,-104.7906311
929112,35057,Torrance County,Torrance,NM,H1,34.6404622,-105.8508196
929113,35043,Sandoval County,Sandoval,NM,H1,35.6886046,-106.8659509
929114,35047,San Miguel County,San Miguel,NM,H1,35.4806269,-104.8160019
929115,35059,Union County,Union,NM,H1,36.4816685,-103.4709705
929116,35027,Lincoln County,Lincoln,NM,H1,33.7453078,-105.4592959
929117,35007,Colfax County,Colfax,NM,H1,36.6061367,-104.6468425
933051,35006,Cibola County,Cibola,NM,H1,34.912578,-107.9997243
933052,35061,Valencia County,Valencia,NM,H1,34.715458,-106.8090623
933053,35009,Curry County,Curry,NM,H1,34.5741915,-103.3470292
933054,35011,De Baca County,De Baca,NM,H1,34.3424135,-104.4119579
933055,35021,Harding County,Harding,NM,H1,35.8579354,-103.8200487
933056,35055,Taos County,Taos,NM,H1,36.5781594,-105.6310258
933057,35029,Luna County,Luna,NM,H1,32.1822069,-107.7497744
933322,35049,Santa Fe County,Santa Fe,NM,H1,35.5065084,-105.9765448
936829,35015,Eddy County,Eddy,NM,H1,32.4714629,-104.3044658
936844,35045,San Juan County,San Juan,NM,H1,36.5085108,-108.3206032
974099,36001,Albany County,Albany,NY,H1,42.6001764,-73.9735586
974100,36003,Allegany County,Allegany,NY,H1,42.2573914,-78.0275606
974101,36005,Bronx County,Bronx,NY,H6,40.8492081,-73.8530699
974102,36007,Broome County,Broome,NY,H1,42.160217,-75.8196182
974103,36009,Cattaraugus County,Cattaraugus,NY,H1,42.2486331,-78.6788503
974104,36011,Cayuga County,Cayuga,NY,H1,43.0103267,-76.5743582
974105,36013,Chautauqua County,Chautauqua,NY,H1,42.302941,-79.4057576
974106,36015,Chemung County,Chemung,NY,H1,42.1412474,-76.760026
974107,36017,Chenango County,Chenango,NY,H1,42.4935106,-75.6115785
974108,36019,Clinton County,Clinton,NY,H1,44.7462264,-73.6781737
974109,36021,Columbia County,Columbia,NY,H1,42.2500701,-73.6318705
974110,36023,Cortland County,Cortland,NY,H1,42.5950072,-76.0702669
974111,36025,Delaware County,Delaware,NY,H1,42.198088,-74.9664663
974112,36027,Dutchess County,Dutchess,NY,H1,41.7651474,-73.7428631
974113,36029,Erie County,Erie,NY,H1,42.7582365,-78.7796596
