GEOID,Name,Primary County,Population,Housing Units,Land Area,Water Area,Latitude,Longitude
00037,"Abbeville, LA Urban Cluster",22113,19824,8460,29189594,298416,29.967156,-92.095966
00064,"Abbeville, SC Urban Cluster",45001,5243,2578,11271121,19786,34.179273,-82.379776
00091,"Abbotsford, WI Urban Cluster",55019,3966,1616,5394605,13221,44.948612,-90.315875
00118,"Aberdeen, MS Urban Cluster",28095,4666,2050,7416339,52820,33.824742,-88.554591
00145,"Aberdeen, SD Urban Cluster",46013,25977,12114,33035011,120864,45.463186,-98.471033
00172,"Aberdeen, WA Urban Cluster",53027,29856,13139,40024137,1932719,46.976365,-123.796056
00199,"Aberdeen--Bel Air South--Bel Air North, MD Urbanized Area",24025,213751,83721,339739357,9827161,39.50893,-76.303492
00226,"Abernathy, TX Urban Cluster",48189,2785,1124,3051035,12572,33.830523,-101.846278
00253,"Abilene, KS Urban Cluster",20041,7054,3238,8744553,1877,38.921855,-97.220768
00280,"Abilene, TX Urbanized Area",48441,110421,46732,141784244,1002809,32.428784,-99.747194
00334,"Abingdon, IL Urban Cluster",17095,3389,1483,3739878,0,40.804173,-90.401517
00388,"Ada, OH Urban Cluster",39065,5945,1906,4755113,0,40.767231,-83.82466
00415,"Ada, OK Urban Cluster",40123,17400,8086,30913554,89141,34.774803,-96.669103
00450,"Adams, NY Urban Cluster",36045,2542,1100,5100412,13914,43.808664,-76.021178
00469,"Adel, GA Urban Cluster",13075,6986,2990,15745461,149881,31.145731,-83.429099
00496,"Adel, IA Urban Cluster",19049,3170,1317,4596496,0,41.612188,-94.021031
00550,"Adjuntas, PR Urban Cluster",72001,11122,4637,20440782,156184,18.166604,-66.729934
00577,"Adrian, MI Urban Cluster",26091,44823,18178,62195867,614875,41.909568,-84.031176
00604,"Agat, GU Urban Cluster",66010,10093,3133,12701668,2939,13.39108,144.669527
00631,"Aguadilla--Isabela--San Sebastián, PR Urbanized Area",72005,306196,138431,619742638,894872,18.370709,-67.040996
00658,"Ahoskie, NC Urban Cluster",37091,4951,2267,7548519,0,36.287867,-76.983286
00676,"Air Force Academy, CO Urban Cluster",08041,5512,326,6458865,0,38.985935,-104.858324
00712,"Ajo, AZ Urban Cluster",04019,3076,2006,6916368,0,32.388725,-112.868897
00739,"Akron, NY Urban Cluster",36029,2982,1426,6779977,0,43.020471,-78.493346
00766,"Akron, OH Urbanized Area",39153,569499,257659,842815514,17431799,41.066225,-81.491897
00793,"Alachua, FL Urban Cluster",12001,4114,1816,9777104,31222,29.791157,-82.507967
00820,"Alamogordo, NM Urban Cluster",35035,31862,14793,42964761,52140,32.902624,-105.949622
00847,"Alamosa, CO Urban Cluster",08003,9751,4057,18820657,39885,37.459931,-105.872135
00901,"Albany, GA Urbanized Area",13095,95779,40430,183459979,2790604,31.591097,-84.168827
00921,"Albany, MN Urban Cluster",27145,2564,1070,4338914,285660,45.630888,-94.569355
00955,"Albany, OR Urbanized Area",41043,56997,23542,61948340,288649,44.630088,-123.090049
00970,"Albany--Schenectady, NY Urbanized Area",36001,594962,266370,765902446,16203162,42.743895,-73.799436
00982,"Albemarle, NC Urban Cluster",37167,16823,7929,44466745,63396,35.369088,-80.196358
01009,"Albert Lea, MN Urban Cluster",27047,17868,8343,25489329,1395987,43.654568,-93.373855
01036,"Albertville, AL Urban Cluster",01095,36815,14980,92828321,5174684,34.268058,-86.22354
01063,"Albia, IA Urban Cluster",19135,3573,1660,5610339,0,41.027014,-92.8052
01090,"Albion, MI Urban Cluster",26025,9219,3809,17101887,135558,42.252722,-84.75533
01117,"Albion, NY Urban Cluster",36073,8171,2780,7638315,0,43.245788,-78.193603
01144,"Albion, PA Urban Cluster",42049,4574,1048,7434019,56074,41.890344,-80.355166
01171,"Albuquerque, NM Urbanized Area",35001,741318,314851,650723346,8154677,35.143367,-106.628138
01198,"Alderson, WV Urban Cluster",54089,2632,789,3437394,107288,37.727925,-80.649268
01225,"Aledo, IL Urban Cluster",17131,3655,1684,5738644,30085,41.198542,-90.745194
01232,"Aledo, TX Urban Cluster",48367,4854,1620,12139191,163278,32.680976,-97.647149
01252,"Alexander City, AL Urban Cluster",01123,9400,4326,25156220,65442,32.939703,-85.958004
01279,"Alexandria, LA Urbanized Area",22079,82804,33935,169611448,904519,31.462848,-92.422992
01306,"Alexandria, MN Urban Cluster",27041,16983,8604,38396127,7476290,45.900999,-95.3683
01333,"Alfred, NY Urban Cluster",36003,4322,659,3117022,0,42.256634,-77.784266
01360,"Algoma, WI Urban Cluster",55061,3070,1655,4746973,106289,44.607208,-87.444363
01387,"Algona, IA Urban Cluster",19109,5340,2618,6887318,16085,43.072716,-94.228677
01414,"Alice, TX Urban Cluster",48249,20974,8017,28171291,0,27.7524,-98.075031
01441,"Allegan, MI Urban Cluster",26005,6322,2821,12209395,147540,42.530023,-85.849978
01468,"Allendale, SC Urban Cluster",45005,3307,1567,5948733,0,33.008841,-81.311258
01495,"Allentown, PA--NJ Urbanized Area",42077,664651,271233,896591063,10687923,40.651207,-75.441903
01522,"Alliance, NE Urban Cluster",31013,8486,4073,12077338,31691,42.100596,-102.87402
01549,"Alliance, OH Urban Cluster",39151,32533,14786,45952624,276796,40.914526,-81.09674
01603,"Alma, GA Urban Cluster",13005,3408,1427,7409524,263250,31.541885,-82.469694
01630,"Alma--St. Louis, MI Urban Cluster",26057,16924,5477,19248680,401864,43.390674,-84.641499
01657,"Almont, MI Urban Cluster",26087,2719,1131,3627338,0,42.920939,-83.043475
01684,"Alpena, MI Urban Cluster",26007,14258,7137,24395070,1830884,45.063072,-83.453033
01711,"Alpine, TX Urban Cluster",48043,6013,3081,10814928,335,30.358305,-103.664632
01738,"Altavista, VA Urban Cluster",51031,4663,2234,14409084,122187,37.113627,-79.294132
01765,"Alton, IL--MO Urbanized Area",17119,83890,38237,142052251,1913840,38.897792,-90.128014
01792,"Altoona, PA Urbanized Area",42013,79930,35760,96869930,164785,40.485263,-78.393865
01819,"Alturas, CA Urban Cluster",06049,2910,1416,4933312,16517,41.489183,-120.546287
01846,"Altus, OK Urban Cluster",40065,19900,8973,31488097,521227,34.652723,-99.310867
01873,"Alva, OK Urban Cluster",40151,5620,2616,6803003,0,36.801096,-98.664669
01900,"Alvarado, TX Urban Cluster",48251,4133,1630,7362427,19915,32.412725,-97.216759
01927,"Amarillo, TX Urbanized Area",48375,196651,80744,210824553,1121377,35.197528,-101.849137
01981,"American Falls, ID Urban Cluster",16077,4488,1624,3699797,0,42.782372,-112.853156
02008,"Americus, GA Urban Cluster",13261,19106,7655,31468464,139046,32.072568,-84.229191
02035,"Amery, WI Urban Cluster",55095,2832,1412,5343408,1111969,45.30657,-92.364724
02062,"Ames, IA Urbanized Area",19169,60438,24470,59801206,465814,42.031216,-93.633762
02116,"Amite City, LA Urban Cluster",22105,6161,2313,18158237,40581,30.733723,-90.5208
02143,"Amory, MS Urban Cluster",28095,6566,3028,14384769,27224,33.984789,-88.48001
02153,"Amouli, AS Urban Cluster",60010,4515,900,12119253,0,-14.26556,-170.589772
02170,"Amsterdam, NY Urban Cluster",36057,22262,10805,26865160,773995,42.953149,-74.19505
02197,"Anaconda-Deer Lodge County, MT Urban Cluster",30023,6170,3411,6196633,0,46.130922,-112.956918
02224,"Anacortes, WA Urban Cluster",53057,16712,8310,24575119,590029,48.48661,-122.628592
02251,"Anadarko, OK Urban Cluster",40015,5929,2482,6280063,0,35.071385,-98.241229
02278,"Anamosa, IA Urban Cluster",19105,5497,2088,5458867,0,42.110072,-91.276045
02305,"Anchorage, AK Urbanized Area",02020,251243,97417,220119016,2653412,61.167916,-149.847166
02332,"Anchorage Northeast, AK Urban Cluster",02020,28568,10116,42360216,348417,61.362078,-149.556602
02359,"Andalusia, AL Urban Cluster",01039,6655,3187,14926867,32462,31.311564,-86.479556
02386,"Anderson, IN Urbanized Area",18095,88133,40670,171110167,749707,40.088751,-85.679816
02413,"Anderson, SC Urbanized Area",45007,75702,34650,191929850,3276233,34.520711,-82.660933
02440,"Andrews, SC Urban Cluster",45043,3903,1709,7781114,0,33.450931,-79.562021
02467,"Andrews, TX Urban Cluster",48003,12346,4841,16189562,30529,32.320646,-102.546505
02494,"Angels, CA Urban Cluster",06009,3751,1853,6902233,23585,38.074409,-120.551042
02548,"Angola, IN Urban Cluster",18151,11196,5828,23646957,3913803,41.661024,-85.016736
02575,"Anna, IL Urban Cluster",17181,6078,2815,10315625,47210,37.460138,-89.251143
02581,"Anna, TX Urban Cluster",48085,10746,3809,18103768,14418,33.37908,-96.563619
02590,"Annandale, MN Urban Cluster",27171,3262,1460,6952104,0,45.260115,-94.121311
02602,"Ann Arbor, MI Urbanized Area",26161,306022,133978,413298972,13523824,42.240003,-83.662679
02629,"Anniston--Oxford, AL Urbanized Area",01015,79796,36090,224750432,1461279,33.664398,-85.828795
02656,"Antigo, WI Urban Cluster",55067,8158,3916,10801703,84336,45.142639,-89.153197
02683,"Antioch, CA Urbanized Area",06013,277634,93809,209027853,3296203,37.991687,-121.78212
02710,"Apalachicola, FL Urban Cluster",12037,3691,2095,7244106,15809621,29.751831,-84.909118
02764,"Appleton, WI Urbanized Area",55087,216154,92157,268668822,10747316,44.24668,-88.411096
02773,"Apple Valley, OH Urban Cluster",39083,4835,2492,12285980,2046679,40.438206,-82.34901
02791,"Arab, AL Urban Cluster",01095,8012,3635,21701758,301947,34.342074,-86.503725
02825,"Arbuckle, CA Urban Cluster",06011,2652,812,1871310,0,39.016726,-122.060221
02845,"Arcade, NY Urban Cluster",36121,3048,1470,6117049,0,42.534572,-78.466924
02899,"Arcadia, LA Urban Cluster",22013,2894,1188,7054369,0,32.552383,-92.923763
02901,"Arcadia, WI Urban Cluster",55121,2993,1235,5467555,0,44.249691,-91.490931
02912,"Arcadia--Southeast Arcadia, FL Urban Cluster",12027,17490,7356,26183670,15770,27.213341,-81.852437
02926,"Arcata--McKinleyville, CA Urban Cluster",06023,32364,14233,42690333,250755,40.914605,-124.089324
02953,"Archbold, OH Urban Cluster",39051,4760,2046,9801479,37920,41.52504,-84.294163
02965,"Archer Lodge--Clayton, NC Urban Cluster",37101,13288,4707,52270800,474780,35.668818,-78.365612
02980,"Arcola, IL Urban Cluster",17041,2874,1122,3476399,44848,39.684596,-88.302758
03007,"Ardmore, OK Urban Cluster",40019,20888,9566,30245714,76559,34.178548,-97.14166
03034,"Arecibo, PR Urbanized Area",72013,139171,60653,217708135,1543862,18.454601,-66.807974
03088,"Arizona City, AZ Urban Cluster",04021,10531,5068,12138549,198208,32.749832,-111.673175
03115,"Arkadelphia, AR Urban Cluster",05019,10491,4057,14924018,0,34.124479,-93.067849
03142,"Arkansas City, KS Urban Cluster",20035,13026,5906,24895105,143725,37.060526,-97.034648
03158,"Arlington, TN Urban Cluster",47157,11502,3760,20075102,88142,35.280006,-89.662685
03196,"Arroyo Grande--Grover Beach, CA Urbanized Area",06079,52000,25398,59632915,233074,35.118449,-120.60761
03223,"Artesia, NM Urban Cluster",35015,12764,5269,16868337,10805,32.837488,-104.414485
03250,"Arvin, CA Urban Cluster",06029,19573,4542,11204964,0,35.203012,-118.832555
03277,"Ashburn, GA Urban Cluster",13287,4489,1940,8218613,63594,31.700813,-83.650095
03304,"Ashdown, AR Urban Cluster",05081,4146,1895,9400106,0,33.67945,-94.125848
03331,"Asheboro, NC Urban Cluster",37151,37792,16547,85270639,197574,35.731299,-79.804246
03358,"Asheville, NC Urbanized Area",37021,280648,136493,686036520,6252198,35.537101,-82.664164
03365,"Ashland, MO Urban Cluster",29019,3527,1466,4721292,0,38.771524,-92.259132
03375,"Ashland, NE Urban Cluster",31155,2631,1128,3232693,66446,41.041145,-96.364131
03385,"Ashland, OH Urban Cluster",39005,20226,8847,20736510,49269,40.863589,-82.317007
03395,"Ashland, PA Urban Cluster",42107,7820,3446,14644942,0,40.78415,-76.356232
03412,"Ashland, WI Urban Cluster",55003,7293,3452,11167661,5410,46.578646,-90.881298
03439,"Ashland City, TN Urban Cluster",47021,3384,1501,8170373,0,36.27384,-87.067035
03466,"Ashtabula, OH Urban Cluster",39007,29346,14832,56393843,403383,41.877017,-80.78496
03493,"Ashville, OH Urban Cluster",39129,6222,2565,13965053,534661,39.718518,-82.967112
03520,"Aspen, CO Urban Cluster",08097,7710,6459,11838628,0,39.199278,-106.840283
03547,"Astoria, OR Urban Cluster",41007,14115,6907,23579494,1641822,46.183825,-123.860648
03601,"Atchison, KS--MO Urban Cluster",20005,11166,4489,15614152,160893,39.570588,-95.137251
03655,"Athens, AL Urban Cluster",01083,24956,11020,69988371,501547,34.811825,-86.952175
03682,"Athens, OH Urban Cluster",39009,28286,9613,25728993,260343,39.327239,-82.111599
03709,"Athens, TN Urban Cluster",47107,15985,7376,38397480,0,35.448059,-84.600203
03736,"Athens, TX Urban Cluster",48213,12169,4891,23896494,64685,32.201604,-95.847373
03763,"Athens-Clarke County, GA Urbanized Area",13059,128754,55512,254876564,2525300,33.942089,-83.398272
03790,"Athol, MA Urban Cluster",25027,12834,5927,24221424,1053681,42.592843,-72.239703
03817,"Atlanta, GA Urbanized Area",13121,4515419,1861932,6851581056,93257528,33.824102,-84.331858
03844,"Atlanta, TX Urban Cluster",48067,5732,2678,19351984,101572,33.125525,-94.167911
03871,"Atlantic, IA Urban Cluster",19029,6471,3102,7272977,101142,41.398446,-95.006333
03898,"Atlantic City, NJ Urbanized Area",34001,248402,147060,325926586,11772148,39.371191,-74.590455
03925,"Atmore, AL Urban Cluster",01053,6565,3121,12225383,40082,31.021931,-87.487418
03957,"Atoka, TN Urban Cluster",47167,18885,6695,53461703,204592,35.429563,-89.802353
03979,"Attica, IN Urban Cluster",18045,5193,2379,10137000,85101,40.29083,-87.269893
04006,"Attica, NY Urban Cluster",36121,6828,1368,5831427,0,42.873711,-78.271755
04021,"Aubrey, TX Urban Cluster",48121,4139,1559,6098799,2579,33.288094,-96.989684
04033,"Auburn, AL Urbanized Area",01081,74741,34604,129258408,875942,32.614294,-85.443932
04054,"Auburn, IL Urban Cluster",17167,4433,1746,5214352,0,39.590007,-89.749542
04060,"Auburn, IN Urban Cluster",18033,21712,9363,30221649,0,41.369653,-85.07077
04087,"Auburn, NE Urban Cluster",31127,3474,1742,5204597,0,40.38848,-95.843424
04114,"Auburn, NY Urban Cluster",36011,32274,14870,33428845,239530,42.926811,-76.561994
04130,"Auburn--North Auburn, CA Urban Cluster",06061,33157,14516,69199033,261127,38.932512,-121.079665
04168,"Augusta, KS Urban Cluster",20015,9350,3971,10633843,690960,37.69194,-96.973193
04195,"Augusta, ME Urban Cluster",23011,22637,11691,44884332,724961,44.265201,-69.782274
04222,"Augusta-Richmond County, GA--SC Urbanized Area",13245,386787,165167,672428339,6866348,33.487951,-81.996378
04249,"Aumsville, OR Urban Cluster",41047,3692,1282,2979867,0,44.845016,-122.866978
04276,"Aurora, MO Urban Cluster",29109,8365,3725,15212084,39864,36.967117,-93.730413
04303,"Aurora, NE Urban Cluster",31081,4466,1933,5464042,14529,40.867831,-98.003674
04330,"Au Sable, MI Urban Cluster",26069,6384,4799,27106174,628627,44.45283,-83.346783
04357,"Austin, MN Urban Cluster",27099,25103,11089,31664344,254097,43.671232,-92.977883
04384,"Austin, TX Urbanized Area",48453,1362416,566966,1355730320,10907397,30.358514,-97.761533
04411,"Ava, MO Urban Cluster",29067,2857,1424,5412263,1126,36.954458,-92.661589
04438,"Avalon, CA Urban Cluster",06037,3652,2244,3424239,0,33.341575,-118.328742
04465,"Avenal, CA Urban Cluster",06031,15486,2402,7912977,0,35.993168,-120.126356
04519,"Avon, NY Urban Cluster",36051,4973,2274,10085520,0,42.899102,-77.741633
04549,"Avondale--Goodyear, AZ Urbanized Area",04013,197041,73521,227213997,833471,33.472717,-112.399026
04573,"Avra Valley, AZ Urban Cluster",04019,3869,1565,10127104,0,32.42773,-111.326681
04587,"Aztec, NM Urban Cluster",35045,8456,3553,16350155,307858,36.833998,-107.996013
04600,"Bad Axe, MI Urban Cluster",26063,3490,1719,6467525,0,43.802505,-82.997958
04627,"Bainbridge, GA Urban Cluster",13087,12118,5320,26713205,650992,30.90486,-84.564687
04654,"Baker City, OR Urban Cluster",41001,9518,4498,13005431,178981,44.783476,-117.82877
04681,"Bakersfield, CA Urbanized Area",06029,523994,178519,358494016,2308944,35.362282,-119.030559
04708,"Bald Knob, AR Urban Cluster",05145,2517,1151,5965948,0,35.31222,-91.574315
04762,"Baldwin, WI Urban Cluster",55109,5831,2474,9560855,0,44.975947,-92.428301
04789,"Baldwin City, KS Urban Cluster",20045,4428,1624,5321139,4437,38.777506,-95.18748
04816,"Ballinger, TX Urban Cluster",48399,3705,1744,5219154,0,31.742187,-99.9558
04843,"Baltimore, MD Urbanized Area",24005,2203663,939420,1856864888,65405866,39.234099,-76.64776
04870,"Baltimore, OH Urban Cluster",39045,3503,1496,6950422,0,39.843837,-82.587277
04897,"Bamberg, SC Urban Cluster",45009,3492,1526,7237564,0,33.298561,-81.029974
04924,"Bandon, OR Urban Cluster",41011,3119,1858,5707449,7562,43.113779,-124.415518
04951,"Bangor, ME Urbanized Area",23019,61210,27142,109693177,3813324,44.835625,-68.746629
05005,"Baraboo, WI Urban Cluster",55111,13759,6380,16112926,186870,43.46854,-89.748766
05032,"Barbourville, KY Urban Cluster",21121,6300,2867,13086859,158660,36.860165,-83.855348
05059,"Bardstown, KY Urban Cluster",21179,18702,7927,44048018,384158,37.835762,-85.466
05086,"Bar Harbor, ME Urban Cluster",23009,2575,1745,4381189,0,44.392257,-68.221833
05113,"Barnesville, GA Urban Cluster",13171,7167,2769,14029301,102435,33.052313,-84.154709
05140,"Barnesville, OH Urban Cluster",39013,4351,2051,5154243,31354,39.988847,-81.172633
05167,"Barnstable Town, MA Urbanized Area",25001,246695,162112,718703876,58462266,41.687826,-70.21503
05194,"Barnwell, SC Urban Cluster",45011,3949,1849,9372803,40813,33.248668,-81.361338
05221,"Barre--Montpelier, VT Urban Cluster",50023,21675,10676,45888065,525070,44.198429,-72.517883
05248,"Barron, WI Urban Cluster",55005,3292,1469,4961100,49729,45.401884,-91.853281
05275,"Barrow, AK Urban Cluster",02185,3835,1370,2102063,437401,71.29367,-156.764378
05302,"Barstow, CA Urban Cluster",06071,28973,11905,31973823,0,34.888029,-117.03838
05329,"Bartlesville, OK Urban Cluster",40147,38874,18205,63435593,32200,36.745387,-95.956299
05356,"Bartlett, TX Urban Cluster",48491,2653,621,2792859,1094,30.796199,-97.433073
05410,"Basalt--El Jebel, CO Urban Cluster",08037,8531,3464,10379166,72698,39.375173,-107.084447
05423,"Basehor, KS Urban Cluster",20103,3849,1546,6338785,102674,39.127539,-94.941756
05437,"Bastrop, LA Urban Cluster",22067,13979,5959,26102801,105190,32.776783,-91.913851
05464,"Bastrop, TX Urban Cluster",48021,13371,4887,29724654,335053,30.108887,-97.360039
05491,"Batavia, NY Urban Cluster",36037,17834,7955,20720562,211667,43.002665,-78.177406
05518,"Batesburg-Leesville, SC Urban Cluster",45063,5267,2403,14968619,127564,33.908055,-81.510262
05545,"Batesville, AR Urban Cluster",05063,11513,4955,23827440,202777,35.7706,-91.633541
05572,"Batesville, IN Urban Cluster",18137,7734,3222,15590308,118684,39.297625,-85.199479
05599,"Batesville, MS Urban Cluster",28107,7309,3027,21307731,0,34.304023,-89.942156
05653,"Bath, NY Urban Cluster",36101,7124,3428,11099053,244884,42.34625,-77.31417
05680,"Baton Rouge, LA Urbanized Area",22033,594309,246028,950043100,11837274,30.427916,-91.038968
05707,"Battle Creek, MI Urbanized Area",26025,78393,36200,137402013,3529056,42.31374,-85.197926
05734,"Battlement Mesa, CO Urban Cluster",08045,5071,2666,7570982,907,39.464451,-108.021395
05761,"Battle Mountain, NV Urban Cluster",32015,3520,1466,5054537,0,40.638332,-116.9463
05788,"Baxley, GA Urban Cluster",13001,5208,2397,14613424,13203,31.771186,-82.346883
05815,"Baxter Springs, KS Urban Cluster",20021,5089,2383,11515404,0,37.021334,-94.737759
05842,"Bayard, NM Urban Cluster",35017,4309,2022,7014151,28840,32.764809,-108.140107
05869,"Bay City, MI Urbanized Area",26017,70585,32513,104467427,4160572,43.608621,-83.890506
05896,"Bay City, TX Urban Cluster",48321,18745,8277,24227447,25388,28.980702,-95.954928
05904,"Bayfield, CO Urban Cluster",08067,2578,1069,4722576,0,37.241913,-107.59671
05923,"Bay Minette, AL Urban Cluster",01003,7486,2854,14865523,139486,30.883529,-87.775532
05958,"Bealeton, VA Urban Cluster",51061,6621,2328,9545702,26766,38.567378,-77.786511
05977,"Beardstown, IL Urban Cluster",17017,6530,2554,7476460,212332,40.013699,-90.42372
06004,"Beatrice, NE Urban Cluster",31067,12405,5943,17384244,170156,40.267398,-96.743305
06031,"Beaufort--Port Royal, SC Urban Cluster",45013,48807,19864,118150175,13541440,32.423368,-80.716463
06058,"Beaumont, TX Urbanized Area",48245,147922,63365,237471172,2860936,30.11918,-94.127119
06076,"Beaver, UT Urban Cluster",49001,2882,1169,5330422,0,38.278832,-112.636073
06085,"Beaver Dam, KY Urban Cluster",21183,6321,2699,10818675,38214,37.398446,-86.874001
06112,"Beaver Dam, WI Urban Cluster",55027,17833,8063,20427952,71655,43.465787,-88.83322
06128,"Becker, MN Urban Cluster",27141,3898,1413,5079750,4722,45.40383,-93.874419
06139,"Beckley, WV Urbanized Area",54081,64022,29519,157976327,706538,37.912314,-81.161445
06166,"Bedford, IN Urban Cluster",18093,14977,7333,30403328,2314,38.856653,-86.501238
06186,"Bedford, NY Urban Cluster",36119,2679,930,10154556,141660,41.175921,-73.651332
06193,"Bedford, PA Urban Cluster",42009,4693,2445,8532506,207475,40.024894,-78.505088
06220,"Bedford, VA Urban Cluster",51515,6829,3192,17353523,29339,37.338355,-79.525928
06247,"Beebe, AR Urban Cluster",05145,6714,2872,11384552,0,35.069159,-91.89306
06261,"Beecher, IL Urban Cluster",17197,4148,1597,5219772,0,41.351042,-87.620473
06274,"Beeville, TX Urban Cluster",48025,18168,6295,31495912,0,28.389755,-97.732662
06301,"Belding, MI Urban Cluster",26067,5789,2456,12339146,468185,43.096485,-85.233029
06335,"Belfair, WA Urban Cluster",53045,3331,1578,7735850,1964,47.448543,-122.857433
06355,"Belfast, ME Urban Cluster",23027,3358,1998,6847383,417657,44.423628,-69.005594
06382,"Belgrade, MT Urban Cluster",30031,13797,5565,26879916,116430,45.7825,-111.185972
06436,"Bellefontaine, OH Urban Cluster",39091,13235,6093,14000649,0,40.359127,-83.752855
06463,"Bellefonte, PA Urban Cluster",42027,12888,5825,24772630,0,40.912938,-77.680091
06490,"Belle Fourche, SD Urban Cluster",46019,5240,2367,6866523,0,44.66496,-103.850211
06517,"Belle Glade, FL Urban Cluster",12099,24870,7729,21609906,27832,26.684083,-80.678914
06571,"Belle Plaine, MN Urban Cluster",27139,6174,2321,6703279,0,44.620096,-93.764619
06598,"Bellevue, IA Urban Cluster",19097,2543,1286,4205774,0,42.264832,-90.431624
06625,"Bellevue, OH Urban Cluster",39143,8413,3751,13750728,301671,41.277074,-82.84458
06652,"Bellingham, WA Urbanized Area",53073,114473,50696,124367250,9137066,48.77284,-122.476127
06679,"Bellows Falls, VT--NH Urban Cluster",50025,5713,2699,10143225,452211,43.123515,-72.446683
06692,"Bells, TN Urban Cluster",47033,4758,2051,10455177,16845,35.727149,-89.086559
06706,"Bellville, TX Urban Cluster",48015,4002,1776,5923109,25123,29.946233,-96.260553
06733,"Beloit, KS Urban Cluster",20123,3295,1645,4660471,0,39.461195,-98.105971
06760,"Beloit, WI--IL Urbanized Area",55105,63835,26314,88931630,2354014,42.509483,-89.026108
06770,"Belterra, TX Urban Cluster",48209,3731,1222,9094835,0,30.186319,-98.001924
06779,"Belton, SC Urban Cluster",45007,5443,2646,13907139,39539,34.528131,-82.498225
06787,"Belvidere, NJ--PA Urban Cluster",34041,3881,1863,5798798,47173,40.825338,-75.071549
06814,"Belzoni, MS Urban Cluster",28053,4702,1771,5960797,0,33.181941,-90.490257
06841,"Bemidji, MN Urban Cluster",27007,14626,6213,28970238,44386,47.480112,-94.883524
06868,"Bend, OR Urbanized Area",41017,83794,38921,102824264,560560,44.049108,-121.31202
06895,"Bennettsville, SC Urban Cluster",45069,13006,4758,21713692,1278568,34.628218,-79.685958
06922,"Bennington, VT Urban Cluster",50003,12723,5457,19778212,264701,42.892667,-73.202052
06949,"Benson, AZ Urban Cluster",04003,4036,2328,6505395,4137,31.961786,-110.294175
06976,"Benson, MN Urban Cluster",27151,3191,1582,4509415,706,45.316565,-95.602636
07003,"Benson, NC Urban Cluster",37101,3107,1520,6566790,11841,35.383812,-78.546691
07030,"Benton, IL Urban Cluster",17055,7778,3757,11027094,34232,37.999962,-88.918322
07057,"Benton, KY Urban Cluster",21157,4447,2090,11911744,36051,36.851835,-88.359536
07084,"Benton, LA Urban Cluster",22015,5371,2118,11703915,791124,32.657068,-93.712465
07111,"Benton City, WA Urban Cluster",53005,4140,1569,6291789,66111,46.277732,-119.487393
07138,"Benton Harbor--St. Joseph--Fair Plain, MI Urbanized Area",26021,61022,28006,120910288,2557183,42.068719,-86.470022
07165,"Berea, KY Urban Cluster",21151,15590,6347,34296208,146925,37.583562,-84.293019
07192,"Berlin, NH Urban Cluster",33007,11159,5570,14117729,519209,44.4618,-71.173026
07219,"Berlin, WI Urban Cluster",55047,4891,2230,6024648,14520,43.971548,-88.945505
07246,"Berne, IN Urban Cluster",18001,5490,2494,11777622,411956,40.60586,-84.943937
07273,"Berrien Springs, MI Urban Cluster",26021,7358,2687,12852203,524338,41.950895,-86.340788
07300,"Berryville, AR Urban Cluster",05015,4800,1984,10331036,0,36.370598,-93.565725
07327,"Berryville, VA Urban Cluster",51043,4277,1839,5127392,1608,39.153421,-77.980386
07354,"Bethany, MO Urban Cluster",29081,2652,1332,3968749,1084,40.265875,-94.035182
07381,"Bethel, AK Urban Cluster",02050,4434,1743,6205286,149353,60.79492,-161.782459
07408,"Bethel, OH Urban Cluster",39025,3239,1395,4204131,4856,38.964135,-84.083101
07462,"Beulah, ND Urban Cluster",38057,2949,1442,3541608,533,47.265005,-101.781567
07489,"Bicknell, IN Urban Cluster",18083,3217,1656,4385586,0,38.776776,-87.305074
07508,"Big Bear City, CA Urban Cluster",06071,15873,20707,41856445,496940,34.246421,-116.879711
07543,"Big Lake, TX Urban Cluster",48383,2919,1081,2756021,0,31.19452,-101.459125
07597,"Big Pine Key, FL Urban Cluster",12087,7540,5958,19738088,3771218,24.68838,-81.397107
07624,"Big Rapids, MI Urban Cluster",26107,14241,5117,24109578,170777,43.686859,-85.473293
07651,"Big Spring, TX Urban Cluster",48227,27987,9922,38167194,67731,32.244366,-101.470756
07678,"Big Stone Gap, VA Urban Cluster",51195,8240,3390,16470251,245864,36.8729,-82.760598
07705,"Billings, MT Urbanized Area",30111,114773,50475,137090773,632040,45.79132,-108.53184
07732,"Binghamton, NY--PA Urbanized Area",36007,158084,71772,192017395,8981471,42.105366,-75.962775
07759,"Birch Bay, WA Urban Cluster",53073,12737,7626,32443287,130156,48.955394,-122.756978
07786,"Birmingham, AL Urbanized Area",01073,749495,337693,1372257744,10320279,33.469107,-86.791974
07813,"Bisbee, AZ Urban Cluster",04003,5541,3253,8124710,744,31.441355,-109.913168
07824,"Biscoe, NC Urban Cluster",37123,2821,1071,9205709,0,35.371737,-79.784131
07840,"Bishop, CA Urban Cluster",06027,9935,4619,11017745,52076,37.365976,-118.415939
07867,"Bishop, TX Urban Cluster",48355,3116,1256,3728911,0,27.584786,-97.795577
07894,"Bishopville, SC Urban Cluster",45061,5391,1712,5967255,0,34.218215,-80.247396
07921,"Bismarck, ND Urbanized Area",38015,81955,37317,99723531,2411332,46.819848,-100.801005
07948,"Blackfoot, ID Urban Cluster",16011,15352,5686,32125940,76650,43.202028,-112.385854
07975,"Black River Falls, WI Urban Cluster",55053,5677,2234,13975350,177530,44.296014,-90.822944
08002,"Blacksburg, VA Urbanized Area",51121,88542,35430,132281376,567058,37.225388,-80.396122
08029,"Blackshear, GA Urban Cluster",13229,3873,1742,8736513,21351,31.29937,-82.243468
08056,"Blackstone, VA Urban Cluster",51135,3232,1476,4332324,3696,37.078886,-78.000023
08083,"Blackwell, OK Urban Cluster",40071,6916,3315,9123354,17842,36.799819,-97.29264
08137,"Blair, NE Urban Cluster",31177,7844,3312,10390011,0,41.544787,-96.132515
08164,"Blairsville, PA Urban Cluster",42063,7060,3231,15753390,86927,40.443685,-79.227554
08191,"Blakely, GA Urban Cluster",13099,3748,1513,7958937,0,31.375859,-84.934876
08209,"Blanchard, OK Urban Cluster",40087,3434,1391,8487871,4616,35.154313,-97.657197
08218,"Blanchester, OH Urban Cluster",39027,4184,1829,7540751,254751,39.287524,-83.97645
08245,"Blanding, UT Urban Cluster",49037,3264,1059,4310278,0,37.625928,-109.481411
08272,"Blissfield, MI Urban Cluster",26091,3303,1460,4769976,32155,41.835576,-83.870515
08299,"Bloomer, WI Urban Cluster",55017,3348,1566,5090583,336690,45.103349,-91.492777
08326,"Bloomfield, IN Urban Cluster",18055,2521,1263,3171931,0,39.025952,-86.938663
08353,"Bloomfield, NM Urban Cluster",35045,9892,3710,19594443,56922,36.711895,-107.985408
08380,"Bloomington, IN Urbanized Area",18105,108657,45637,116015737,13178,39.162873,-86.548361
08407,"Bloomington--Normal, IL Urbanized Area",17113,132600,54479,126867906,551438,40.493804,-88.978944
08434,"Bloomsburg--Berwick, PA Urbanized Area",42037,53618,23149,84655317,3145209,41.016958,-76.41213
08461,"Blountstown, FL Urban Cluster",12013,4751,1349,10241938,25169,30.434991,-85.056259
08488,"Blue Earth, MN Urban Cluster",27043,3257,1595,4518427,41946,43.637847,-94.100266
08515,"Bluefield, WV--VA Urban Cluster",54055,44092,21466,110141326,396628,37.378403,-81.075284
08542,"Bluffton, IN Urban Cluster",18179,9952,4553,17186481,200155,40.751051,-85.171967
08569,"Bluffton, OH Urban Cluster",39003,4215,1556,5638868,164059,40.890826,-83.894518
08623,"Blythe, CA--AZ Urban Cluster",06065,12967,5251,16000976,3436,33.611802,-114.586127
08650,"Blytheville, AR Urban Cluster",05093,18219,8386,23658684,74152,35.930824,-89.924217
08677,"Boardman, OR Urban Cluster",41049,3362,1055,7455024,0,45.835559,-119.696376
08704,"Boerne, TX Urban Cluster",48259,10467,4530,17881821,0,29.781912,-98.726886
08731,"Bogalusa, LA Urban Cluster",22117,12213,5780,21468863,77121,30.780619,-89.86476
08749,"Boiling Spring Lakes, NC Urban Cluster",37019,4397,1975,9035903,1414539,34.041667,-78.04488
08758,"Boiling Springs, NC Urban Cluster",37045,4549,1401,9505846,0,35.256034,-81.657863
08785,"Boise City, ID Urbanized Area",16001,349684,146177,345736766,5042026,43.617778,-116.292083
08812,"Bolivar, MO Urban Cluster",29167,9693,4184,13916304,21796,37.606697,-93.416709
08839,"Bolivar, OH Urban Cluster",39157,3717,1589,9363646,36192,40.639605,-81.432248
08866,"Bolivar, TN Urban Cluster",47069,5394,2220,12804200,0,35.259925,-88.995167
08893,"Bonadelle Ranchos-Madera Ranchos, CA Urban Cluster",06039,8024,2732,23052413,0,36.986902,-119.873482
08920,"Bonham, TX Urban Cluster",48147,9995,3332,13488424,0,33.587998,-96.18404
08947,"Bonifay, FL Urban Cluster",12059,4230,1268,9223882,27637,30.778853,-85.6824
08974,"Bonita Springs, FL Urbanized Area",12021,310298,209911,483371914,37896534,26.210693,-81.744767
08992,"Bonneauville, PA Urban Cluster",42001,4427,1811,8233494,585980,39.811261,-77.173939
09001,"Bonners Ferry, ID Urban Cluster",16021,2613,1288,5303491,64130,48.690567,-116.320015
09028,"Boone, IA Urban Cluster",19015,12793,5981,24011244,0,42.056687,-93.880641
09055,"Boone, NC Urban Cluster",37189,22763,8927,34881087,107710,36.212657,-81.655532
09082,"Booneville, AR Urban Cluster",05083,3335,1554,5021048,0,35.138391,-93.920049
09109,"Booneville, MS Urban Cluster",28117,6050,2565,14569477,23134,34.658157,-88.55443
09163,"Boonville, IN Urban Cluster",18173,6258,2914,6688113,34048,38.046357,-87.272626
09190,"Boonville, MO Urban Cluster",29053,9229,3752,14769944,239042,38.97186,-92.746653
09217,"Borger, TX Urban Cluster",48233,13574,6468,32536338,10993,35.666797,-101.399608
09244,"Boscobel, WI Urban Cluster",55043,3261,1322,3952936,0,43.136662,-90.699789
09271,"Boston, MA--NH--RI Urbanized Area",25017,4181019,1719241,4853336622,201355196,42.373132,-71.140708
09298,"Boulder, CO Urbanized Area",08013,114591,51299,84040852,697715,40.027135,-105.23905
09325,"Boulder City, NV Urban Cluster",32003,13866,6981,15753322,0,35.971082,-114.842412
09352,"Bowie, TX Urban Cluster",48337,5143,2459,10479753,46255,33.558499,-97.843269
09379,"Bowling Green, KY Urbanized Area",21227,78306,32586,117432139,609503,36.95549,-86.439506
09406,"Bowling Green, MO Urban Cluster",29163,5356,1493,5971106,19241,39.346076,-91.202394
09433,"Bowling Green, OH Urban Cluster",39173,30738,12582,31835963,309619,41.375434,-83.64958
09460,"Box Elder, SD Urban Cluster",46103,7885,2873,20959101,18064,44.129083,-103.076884
09487,"Boyne City, MI Urban Cluster",26029,3501,2184,7134810,56507,45.212106,-85.01253
09514,"Bozeman, MT Urban Cluster",30031,43164,19927,50455198,121006,45.683919,-111.057553
09532,"Brackettville, TX Urban Cluster",48271,2862,1427,7114039,8247,29.302599,-100.412224
09541,"Bradford, PA--NY Urban Cluster",42083,12083,5345,13732430,189395,41.960558,-78.643265
09568,"Brady, TX Urban Cluster",48307,5357,2489,7414605,23946,31.130533,-99.33716
09600,"Braidwood--Coal City--Wilmington, IL Urban Cluster",17197,22685,9729,38844362,1166443,41.290715,-88.263516
09622,"Brainerd, MN Urban Cluster",27035,19812,8945,45903044,3739738,46.358835,-94.219552
09649,"Brandon, SD Urban Cluster",46099,8173,3009,8612020,10852,43.59375,-96.571201
09676,"Branson, MO Urban Cluster",29213,22645,14038,74489368,1165089,36.63726,-93.246397
09703,"Brattleboro, VT--NH Urban Cluster",50025,9980,5055,12279833,335833,42.849383,-72.580475
09730,"Brawley, CA Urban Cluster",06025,25032,8249,20529224,0,32.977987,-115.531845
09784,"Brazoria, TX Urban Cluster",48039,3908,1602,7931067,0,29.05863,-95.585202
09801,"Breaux Bridge, LA Urban Cluster",22099,18465,7171,58904712,694837,30.277915,-91.881727
09811,"Breckenridge, CO Urban Cluster",08117,7179,8216,16803932,0,39.483161,-106.042401
09838,"Breckenridge, TX Urban Cluster",48429,5839,2704,9717388,9818,32.756691,-98.909375
09865,"Breese, IL Urban Cluster",17027,5800,2436,11870141,0,38.592503,-89.532017
09892,"Bremen, GA Urban Cluster",13143,6516,2762,17668388,20518,33.719958,-85.145976
09919,"Bremen, IN Urban Cluster",18099,4663,1955,6228028,11642,41.446077,-86.150628
09946,"Bremerton, WA Urbanized Area",53035,198979,85027,353526650,81981552,47.61591,-122.62618
09973,"Brenham, TX Urban Cluster",48477,15682,6354,21527549,48551,30.15986,-96.39592
10000,"Brent, AL Urban Cluster",01007,5525,1500,12493764,41081,32.953442,-87.15261
10027,"Brevard, NC Urban Cluster",37175,13121,6464,31376920,84,35.229587,-82.73134
10081,"Brewton, AL Urban Cluster",01053,6866,3258,15307256,66129,31.107055,-87.063914
10135,"Bridgeport, TX Urban Cluster",48497,5646,1737,8774933,0,33.213945,-97.760765
10162,"Bridgeport--Stamford, CT--NY Urbanized Area",09001,923311,367499,1207893404,30623597,41.541214,-73.22596
10189,"Bridgeton, NJ Urban Cluster",34011,35022,10631,46099979,1211644,39.441365,-75.223477
10198,"Bridgeville, DE Urban Cluster",10005,3343,1389,8175341,0,38.727353,-75.589635
10297,"Brillion, WI Urban Cluster",55015,2968,1256,4075194,20810,44.175097,-88.066117
10324,"Brinkley, AR Urban Cluster",05095,2528,1251,5314100,20613,34.891439,-91.193631
10351,"Bristol--Bristol, TN--VA Urbanized Area",47163,69501,32924,165266257,232262,36.604532,-82.152878
10378,"Bristow, OK Urban Cluster",40037,4110,2000,4773082,9109,35.828541,-96.392281
10405,"Broadway, VA Urban Cluster",51165,6228,2740,9351478,90066,38.619193,-78.790027
10418,"Brockport, NY Urban Cluster",36055,20255,7643,30748573,228137,43.225521,-77.926506
10426,"Brockway, PA Urban Cluster",42065,2856,1348,6218156,99395,41.245655,-78.775677
10459,"Brodhead, WI Urban Cluster",55045,3506,1516,4598576,0,42.613803,-89.37916
10513,"Broken Bow, NE Urban Cluster",31041,3537,1723,4932381,0,41.405442,-99.64017
10540,"Broken Bow, OK Urban Cluster",40089,4253,1836,8875104,47943,34.024203,-94.743486
10567,"Brookfield, MO Urban Cluster",29115,4281,2153,7607997,17861,39.783508,-93.076913
10594,"Brookhaven, MS Urban Cluster",28085,10635,4697,22858479,8189,31.594241,-90.440231
10621,"Brookings, OR Urban Cluster",41015,10915,5757,18082426,329329,42.052622,-124.268979
10648,"Brookings, SD Urban Cluster",46011,22482,8864,24567298,0,44.300493,-96.784513
10675,"Brooklyn, MI Urban Cluster",26075,2773,1488,7677056,129296,42.102062,-84.274847
10702,"Brookshire, TX Urban Cluster",48473,4486,1565,6671730,0,29.782358,-95.955091
10810,"Brookville, PA Urban Cluster",42065,4542,2143,9738689,195414,41.162035,-79.081363
10837,"Brownfield, TX Urban Cluster",48445,9530,3503,11681992,60687,33.17654,-102.274007
10864,"Browning, MT Urban Cluster",30035,4624,1460,4860599,72933,48.555663,-113.019428
10891,"Browns Mills--Fort Dix, NJ Urban Cluster",34005,37985,12833,74394496,1510304,40.020342,-74.590238
10918,"Brownstown, IN Urban Cluster",18071,3149,1305,3993299,6997,38.878862,-86.046355
10945,"Brownsville, TN Urban Cluster",47075,9879,4323,14750160,0,35.596434,-89.261002
10972,"Brownsville, TX Urbanized Area",48061,217585,66404,211434572,8348109,25.966448,-97.473579
10999,"Brownwood, TX Urban Cluster",48049,22711,9690,44015263,0,31.709802,-98.972809
11026,"Brunswick, GA Urbanized Area",13127,51024,22277,112174357,2212444,31.215376,-81.505347
11040,"Brunswick, ME Urban Cluster",23005,29159,14192,63711326,1792289,43.911044,-69.927941
11053,"Brunswick, MD--VA Urban Cluster",24021,8495,3319,17249873,219373,39.311437,-77.629018
11080,"Brush, CO Urban Cluster",08087,5816,2450,6246877,0,40.259112,-103.630833
11107,"Bryan, OH Urban Cluster",39171,9762,4630,16285663,56236,41.473955,-84.550698
11134,"Buckeye, AZ Urban Cluster",04013,19424,7172,27065962,0,33.390478,-112.583185
11161,"Buckhannon, WV Urban Cluster",54097,8731,3731,16023291,0,38.985426,-80.225753
11175,"Buckhead (Bryan County), GA Urban Cluster",13029,5168,1783,20209278,62557,31.861877,-81.260323
11188,"Buckner, MO Urban Cluster",29095,3034,1225,6130524,7094,39.125522,-94.2005
11215,"Bucyrus, OH Urban Cluster",39033,12401,5986,15908246,1247,40.803787,-82.97168
11242,"Buena Vista, CO Urban Cluster",08015,4483,1699,9984585,88623,38.831652,-106.133009
11269,"Buena Vista, VA Urban Cluster",51530,6536,2889,8776873,34604,37.735113,-79.35429
11296,"Buffalo, MN Urban Cluster",27171,15972,6226,21542181,3185033,45.181505,-93.864235
11323,"Buffalo, MO Urban Cluster",29059,3031,1481,5509665,2226,37.645096,-93.098472
11350,"Buffalo, NY Urbanized Area",36029,935906,436020,984093627,14339669,42.92493,-78.823675
11377,"Buffalo, WY Urban Cluster",56019,4368,2108,6092463,1106,44.350191,-106.701248
11404,"Buhl, ID Urban Cluster",16083,4138,1772,4037573,0,42.598071,-114.760928
11415,"Buies Creek, NC Urban Cluster",37085,5628,1801,9611161,20357,35.409723,-78.712074
11431,"Bullhead City, AZ--NV Urban Cluster",04015,48656,27288,75212262,26608,35.099013,-114.534389
11512,"Bunkie, LA Urban Cluster",22009,4090,1876,5733437,3802,30.953684,-92.185724
11539,"Buras, LA Urban Cluster",22075,3767,1766,23494952,429625,29.357395,-89.533996
11566,"Burgaw, NC Urban Cluster",37141,3456,1258,6407467,0,34.550156,-77.930332
11575,"Burgettstown, PA Urban Cluster",42125,3380,1621,6326561,0,40.383627,-80.367676
11593,"Burkburnett, TX Urban Cluster",48485,10002,4366,13431549,0,34.082822,-98.569269
11620,"Burley, ID Urban Cluster",16031,15977,6005,25021905,2410356,42.549818,-113.779147
11647,"Burlington, CO Urban Cluster",08063,4243,1480,3831480,0,39.303791,-102.265994
11674,"Burlington, IA--IL Urban Cluster",19057,29569,13848,40254872,128585,40.813742,-91.132613
11701,"Burlington, KS Urban Cluster",20031,2503,1230,4165063,2341,38.198327,-95.746911
11728,"Burlington, NC Urbanized Area",37001,119911,53132,234202344,2043317,36.078968,-79.408365
11755,"Burlington, VT Urbanized Area",50007,108740,45774,159961171,2712008,44.474036,-73.147918
11782,"Burlington, WI Urban Cluster",55101,23534,10241,33800444,3097626,42.70475,-88.243832
11809,"Burnet, TX Urban Cluster",48053,5428,1974,10062766,27206,30.750602,-98.238193
11836,"Burney, CA Urban Cluster",06089,3171,1455,5336007,43741,40.883756,-121.665539
11863,"Burns, OR Urban Cluster",41025,4131,2111,6466425,0,43.590669,-119.062738
11872,"Burnt Store Marina, FL Urban Cluster",12071,3061,2791,8149886,786635,26.772214,-82.044248
11890,"Bushnell, FL Urban Cluster",12119,3500,2263,7043134,0,28.667722,-82.1166
11917,"Bushnell, IL Urban Cluster",17109,3045,1375,3807535,19836,40.552775,-90.507321
11944,"Butler, IN Urban Cluster",18033,2651,1072,3181621,0,41.429246,-84.87261
11971,"Butler, MO Urban Cluster",29013,3875,1884,5541851,16227,38.256012,-94.339322
11998,"Butler, PA Urban Cluster",42019,40352,18974,85115081,329116,40.863328,-79.924443
12025,"Butner, NC Urban Cluster",37077,16975,4461,44249041,96104,36.134328,-78.740676
12052,"Butte-Silver Bow, MT Urban Cluster",30093,30287,14923,42753214,0,45.983534,-112.516453
12079,"Byron, IL Urban Cluster",17141,7057,2755,13455947,143714,42.12934,-89.270836
12106,"Byron, MN Urban Cluster",27109,4864,1869,6140508,0,44.038029,-92.643838
12120,"Cache, OK Urban Cluster",40031,2600,1060,3986913,0,34.63018,-98.629863
12133,"Cactus, TX Urban Cluster",48341,3292,952,1924898,0,36.039681,-101.999794
12160,"Cadillac, MI Urban Cluster",26165,11690,5829,22604234,4755021,44.248143,-85.415876
12187,"Cadiz, KY Urban Cluster",21221,2960,1386,5668110,12602,36.864616,-87.820443
12214,"Cadiz, OH Urban Cluster",39067,2521,1220,4474127,332,40.265314,-80.988254
12241,"Cairo, GA Urban Cluster",13131,9414,3896,16698683,157083,30.876091,-84.205905
12268,"Cairo, IL Urban Cluster",17003,2833,1603,4930202,1421,37.01387,-89.180625
12295,"Calais, ME Urban Cluster",23029,2504,1316,4411532,0,45.178898,-67.275226
12322,"Caldwell, OH Urban Cluster",39121,5488,1413,7284506,48684,39.742481,-81.559321
12349,"Caldwell, TX Urban Cluster",48051,4012,1603,7878913,48477,30.531315,-96.700624
12376,"Caledonia, MN Urban Cluster",27055,2749,1297,4414356,0,43.63369,-91.493719
12457,"Calhoun, GA Urban Cluster",13129,31493,12644,85690929,479461,34.477731,-84.920398
12511,"California, MO Urban Cluster",29135,4181,1871,5863699,32934,38.630336,-92.568251
12565,"California City, CA Urban Cluster",06029,10908,4899,19513997,104459,35.122358,-117.966018
12592,"Calipatria, CA Urban Cluster",06025,3538,1116,2661779,0,33.124883,-115.512646
12646,"Calistoga, CA Urban Cluster",06055,5155,2319,6718708,47146,38.581408,-122.582696
12700,"Camano, WA Urban Cluster",53029,6157,3307,17183717,128605,48.159122,-122.472428
12713,"Camano North, WA Urban Cluster",53029,2529,1610,5160298,0,48.213081,-122.528459
12754,"Camarillo, CA Urbanized Area",06111,71772,28232,56939389,41791,34.231343,-119.034716
12781,"Cambria, CA Urban Cluster",06079,5865,3971,9244032,0,35.559273,-121.091551
12808,"Cambridge, MD Urban Cluster",24019,14255,7188,22411486,348328,38.562477,-76.077314
12835,"Cambridge, MN Urban Cluster",27059,14270,5817,25607885,1346669,45.534249,-93.234418
12862,"Cambridge, OH Urban Cluster",39059,15232,7484,25587800,9978,40.0172,-81.578958
12872,"Cambridge, WI Urban Cluster",55055,2577,1412,4566742,1452218,43.002181,-89.002427
12889,"Cambridge City, IN Urban Cluster",18177,3805,1768,7919881,413878,39.807266,-85.151127
12890,"Cambridge Springs, PA Urban Cluster",42039,2602,752,2092689,0,41.801559,-80.059681
12916,"Camden, AR Urban Cluster",05103,11401,5653,30703130,22456,33.559942,-92.845911
12943,"Camden, ME Urban Cluster",23013,3968,2520,7714432,2362,44.206573,-69.08143
12970,"Camden, SC Urban Cluster",45055,13546,6478,40766383,1365594,34.259627,-80.595476
12997,"Camden, TN Urban Cluster",47005,3552,1724,10414691,0,36.059669,-88.103658
13024,"Camdenton, MO Urban Cluster",29029,3632,1646,7577533,0,38.005994,-92.75846
13051,"Cameron, MO Urban Cluster",29049,9782,2850,10486979,83736,39.742652,-94.238676
13078,"Cameron, TX Urban Cluster",48331,5389,2290,8016503,0,30.85857,-96.97842
13132,"Camilla, GA Urban Cluster",13205,6939,2081,13882791,0,31.215096,-84.188358
13159,"Campbellsville, KY Urban Cluster",21217,11719,5258,20054778,300987,37.352554,-85.346495
13170,"Camp Verde, AZ Urban Cluster",04025,5305,2434,16181424,0,34.589329,-111.87451
13177,"Canadian, TX Urban Cluster",48211,2781,1134,3863427,0,35.909872,-100.383689
13221,"Canby, OR Urban Cluster",41005,17119,6387,12916792,55146,45.26509,-122.688395
13240,"Cannon Falls, MN Urban Cluster",27049,3931,1809,7112925,86281,44.508466,-92.902057
13267,"Cañon City, CO Urban Cluster",08043,27139,10533,50259518,31525,38.438739,-105.212346
13294,"Canton, IL Urban Cluster",17057,14818,6008,16704192,0,40.564333,-90.032585
13321,"Canton, MS Urban Cluster",28089,15321,5541,27556599,301549,32.622302,-90.045528
13348,"Canton, NY Urban Cluster",36089,6489,1828,8436273,234991,44.596384,-75.163582
13375,"Canton, OH Urbanized Area",39151,279245,125638,431157126,3070624,40.826652,-81.429851
13402,"Canton, SD Urban Cluster",46083,2679,1204,2980477,0,43.302592,-96.588259
13429,"Canton, TX Urban Cluster",48467,3563,1536,11410292,50125,32.549287,-95.868917
13456,"Canyon, TX Urban Cluster",48381,13440,5655,15942472,16480,34.983283,-101.91869
13483,"Canyon Lake, TX Urban Cluster",48091,5277,3244,16926068,19553,29.867717,-98.275628
13510,"Cape Coral, FL Urbanized Area",12071,530290,307598,855189939,107339936,26.60259,-81.842332
13537,"Cape Girardeau, MO--IL Urbanized Area",29031,52900,23192,90697587,174299,37.332321,-89.585751
13550,"Captain Cook, HI Urban Cluster",15001,4175,1640,10843209,0,19.485133,-155.904799
13564,"Carbondale, CO Urban Cluster",08045,7159,2665,5489350,0,39.397364,-107.215714
13591,"Carbondale, IL Urbanized Area",17199,67821,32286,126037064,2557956,37.748873,-89.065603
13618,"Carey, OH Urban Cluster",39175,3575,1604,3731839,0,40.950447,-83.384419
13645,"Caribou, ME Urban Cluster",23003,3974,2002,6351106,44605,46.855956,-68.008237
13699,"Carlinville, IL Urban Cluster",17117,5953,2641,7351657,0,39.279166,-89.880261
13753,"Carlisle, IA Urban Cluster",19181,3968,1584,3871138,42798,41.500208,-93.492609
13807,"Carlsbad, NM Urban Cluster",35015,29839,12727,56853344,701656,32.399539,-104.233996
13821,"Carlton, OR Urban Cluster",41071,3178,1196,9786344,0,45.317017,-123.173609
13834,"Carlyle, IL Urban Cluster",17027,4301,1896,6576256,0,38.611183,-89.387204
13850,"Carmel Valley Village, CA Urban Cluster",06053,3122,1507,7520610,115865,36.475839,-121.730319
13861,"Carmi, IL Urban Cluster",17193,5568,2704,6424870,14612,38.08674,-88.171043
13915,"Caro, MI Urban Cluster",26157,5113,2413,9199077,0,43.493126,-83.394521
13969,"Carrizo Springs, TX Urban Cluster",48127,6050,2345,10098252,41587,28.524135,-99.850979
13996,"Carroll, IA Urban Cluster",19027,9984,4648,11948805,0,42.070753,-94.863861
14023,"Carrollton, GA Urban Cluster",13045,42872,17154,116703733,2704856,33.591408,-85.043669
14050,"Carrollton, KY Urban Cluster",21041,5165,2232,9374943,207366,38.686228,-85.143056
14077,"Carrollton, MO Urban Cluster",29033,3296,1659,5620501,0,39.363063,-93.493303
14104,"Carrollton, OH Urban Cluster",39019,3498,1588,6184406,0,40.579076,-81.090358
14158,"Carson City, NV Urbanized Area",32510,58079,24622,59789380,156253,39.155541,-119.753121
14185,"Cartersville, GA Urbanized Area",13015,52477,20826,130985217,294803,34.188779,-84.823769
14212,"Carthage, IL Urban Cluster",17067,2582,1298,4209479,0,40.414535,-91.135011
14239,"Carthage, MS Urban Cluster",28079,4478,1518,10752000,4487,32.745504,-89.536353
14266,"Carthage, MO Urban Cluster",29097,15496,6223,23523090,0,37.166663,-94.323925
14320,"Carthage, TN Urban Cluster",47159,3282,1506,7483972,323755,36.24691,-85.95042
14347,"Carthage, TX Urban Cluster",48365,6492,2783,18006400,0,32.157973,-94.342947
14374,"Caruthersville, MO Urban Cluster",29155,5786,2536,7391323,267,36.185441,-89.665252
14401,"Casa Grande, AZ Urbanized Area",04021,51331,23555,57679117,0,32.908118,-111.739563
14428,"Casey, IL Urban Cluster",17023,2834,1385,4437207,0,39.301531,-87.987465
14455,"Cashmere, WA Urban Cluster",53007,4725,1851,7336149,58964,47.519235,-120.49375
14482,"Casper, WY Urbanized Area",56025,64548,28679,78263819,464479,42.862434,-106.310981
14536,"Cassville, MO Urban Cluster",29009,4084,1759,10734265,11257,36.688323,-93.870116
14556,"Castle Dale, UT Urban Cluster",49015,2893,1162,6869872,0,39.22176,-111.033667
14570,"Castle Rock, WA Urban Cluster",53015,2514,1103,6165381,103700,46.271904,-122.903932
14590,"Castroville, TX Urban Cluster",48325,4040,1635,9879382,57485,29.344409,-98.882152
14644,"Catskill, NY Urban Cluster",36039,6453,3179,10381508,114656,42.231767,-73.882035
14671,"Cazenovia, NY Urban Cluster",36053,3114,1188,4044169,0,42.937043,-75.855432
14698,"Cedar City, UT Urban Cluster",49021,33200,11995,43513599,0,37.712475,-113.068844
14705,"Cedaredge, CO Urban Cluster",08029,3550,1734,8367726,0,38.858356,-107.953139
14752,"Cedar Rapids, IA Urbanized Area",19113,177844,79099,216251782,1915626,41.998597,-91.663308
14779,"Cedar Springs, MI Urban Cluster",26081,3579,1326,4930605,170096,43.219408,-85.553023
14806,"Cedartown, GA Urban Cluster",13233,12502,4965,22398845,75977,34.010658,-85.250283
14833,"Cedarville, OH Urban Cluster",39057,4041,769,2626334,92910,39.748429,-83.812175
14860,"Celina, OH Urban Cluster",39107,11259,5304,11760219,100976,40.553648,-84.564783
14887,"Center, TX Urban Cluster",48419,5234,2157,15045468,0,31.792979,-94.179939
14914,"Centerville, IA Urban Cluster",19007,5380,2802,8679977,0,40.730647,-92.870887
14968,"Central City, NE Urban Cluster",31121,2821,1337,4366308,0,41.114711,-98.003415
14995,"Central City--Greenville, KY Urban Cluster",21177,9943,4570,20114171,41013,37.290801,-87.135347
15022,"Centralia, IL Urban Cluster",17121,17296,8357,30552282,168449,38.517291,-89.132952
15049,"Centralia, MO Urban Cluster",29019,3813,1669,4744492,0,39.208909,-92.135475
15076,"Centralia, WA Urban Cluster",53041,39517,16448,81772596,744625,46.729136,-122.982797
15083,"Centre, AL Urban Cluster",01019,3707,1944,26254663,6238329,34.179499,-85.656496
15090,"Centreville, MD Urban Cluster",24035,4285,1694,6247950,0,39.04257,-76.064135
15103,"Century, FL--AL Urban Cluster",12033,3321,775,7417183,110907,31.010244,-87.278476
15130,"Chadron, NE Urban Cluster",31045,5515,2380,4939944,0,42.828507,-103.004283
15157,"Chaffee, MO Urban Cluster",29201,2973,1342,3380744,4167,37.18118,-89.657848
15184,"Chambersburg, PA Urbanized Area",42055,50887,22244,96781753,46082,39.93509,-77.645272
15211,"Champaign, IL Urbanized Area",17019,145361,63984,120802289,869177,40.098548,-88.24774
15238,"Chandler, OK Urban Cluster",40081,2704,1226,5648124,30542,35.702864,-96.878862
15265,"Chanute, KS Urban Cluster",20133,9059,4141,13742510,27515,37.676018,-95.459986
15292,"Chaparral, NM Urban Cluster",35035,12328,3854,27764971,0,32.024651,-106.378853
15319,"Chardon, OH Urban Cluster",39055,8028,3707,23328386,95816,41.572344,-81.208884
15346,"Chariton, IA Urban Cluster",19117,3893,1912,5963848,0,41.015351,-93.305626
15373,"Charles City, IA Urban Cluster",19067,7706,3761,10179275,175650,43.065283,-92.67785
15400,"Charleston, IL Urban Cluster",17029,21810,8611,18885171,18802,39.486341,-88.176077
15427,"Charleston, MS Urban Cluster",28135,2930,1199,4980968,20062,34.007653,-90.055166
15454,"Charleston, MO Urban Cluster",29133,5893,1854,9491385,28401,36.9073,-89.349156
15481,"Charleston, WV Urbanized Area",54039,153199,74528,254409821,18604682,38.380401,-81.690933
15508,"Charleston--North Charleston, SC Urbanized Area",45019,548404,242594,759567710,29561590,32.902255,-80.015543
15535,"Charlestown, IN Urban Cluster",18019,6921,2960,9052475,46671,38.445711,-85.673162
15562,"Charlestown, NH Urban Cluster",33019,2815,1251,6483142,0,43.250917,-72.417016
15589,"Charlestown, RI Urban Cluster",44009,2942,2629,10865324,113914,41.385839,-71.622637
15600,"Charles Town--Ranson, WV Urban Cluster",54037,21019,8603,48049813,132962,39.297579,-77.857921
15616,"Charlevoix, MI Urban Cluster",26029,4179,3200,11729853,12707,45.30966,-85.251064
15643,"Charlotte, MI Urban Cluster",26045,12682,5476,23117620,507623,42.568394,-84.835291
15670,"Charlotte, NC--SC Urbanized Area",37119,1249442,526435,1919822776,92229477,35.249654,-80.815826
15697,"Charlotte Amalie--Tutu, VI Urban Cluster",78030,50916,26720,62968344,353480,18.343433,-64.922061
15724,"Charlottesville, VA Urbanized Area",51003,92359,39419,89567887,812935,38.057542,-78.483837
15751,"Chase City, VA Urban Cluster",51117,2666,1271,4971654,0,36.801928,-78.462878
15769,"Chatfield, MN Urban Cluster",27045,2604,1116,4039186,0,43.84766,-92.185121
15805,"Chattahoochee, FL Urban Cluster",12039,5508,1034,6565522,57364,30.699072,-84.847316
15832,"Chattanooga, TN--GA Urbanized Area",47065,381112,170310,777204811,19996284,35.058501,-85.210372
15859,"Cheboygan, MI Urban Cluster",26031,4517,2222,9030588,192462,45.639156,-84.476843
15886,"Checotah, OK Urban Cluster",40091,2572,1193,3259478,0,35.470179,-95.527683
15913,"Chelan, WA Urban Cluster",53007,5704,3449,12714221,217519,47.842548,-120.024045
15940,"Chelsea, MI Urban Cluster",26161,5329,2588,10922882,133352,42.311438,-84.017371
15967,"Cheney, WA Urban Cluster",53063,10569,4172,7995956,0,47.490573,-117.58333
15994,"Cheraw, SC Urban Cluster",45025,8160,3704,16335812,110544,34.692689,-79.914
16021,"Cherokee, IA Urban Cluster",19035,4662,2294,4743744,0,42.754457,-95.551834
16048,"Cherokee Village, AR Urban Cluster",05135,3443,2177,17458059,1447846,36.305457,-91.531423
16075,"Cherryville, NC Urban Cluster",37071,6340,2873,15129640,31598,35.382722,-81.381857
16102,"Chesapeake Beach, MD Urban Cluster",24009,23700,9229,65824791,428817,38.721065,-76.60579
16140,"Chesnee, SC Urban Cluster",45083,3003,1380,10753827,27531,35.141589,-81.859807
16156,"Chester, IL Urban Cluster",17157,8450,2127,12865431,31757,37.917056,-89.824157
16171,"Chester, NY Urban Cluster",36071,5691,2233,9360430,3420,41.362707,-74.278079
16183,"Chester, SC Urban Cluster",45023,9351,4233,17924589,12333,34.707497,-81.213333
16210,"Chestertown, MD Urban Cluster",24029,7153,3237,10204723,724938,39.214499,-76.063775
16223,"Chetek, WI Urban Cluster",55005,2830,1618,7359822,466339,45.319873,-91.668594
16237,"Cheyenne, WY Urbanized Area",56021,73588,33018,91133484,310222,41.14109,-104.806118
16264,"Chicago, IL--IN Urbanized Area",17031,8608208,3459257,6321883815,110183753,41.827126,-87.895427
16291,"Chickasha, OK Urban Cluster",40051,15739,7224,25938674,96542,35.032213,-97.952197
16318,"Chico, CA Urbanized Area",06007,98176,42052,89093152,137474,39.750248,-121.843748
16372,"Childress, TX Urban Cluster",48075,4707,2295,7017678,0,34.427372,-100.213223
16426,"Chillicothe, MO Urban Cluster",29117,9633,4175,19502080,69850,39.796065,-93.551176
16453,"Chillicothe, OH Urban Cluster",39141,32263,12763,44684168,377635,39.345962,-83.005219
16480,"Chilton, WI Urban Cluster",55015,3590,1669,4781887,26545,44.029033,-88.156324
16534,"Chinle, AZ Urban Cluster",04001,3407,1090,8828352,35915,36.151148,-109.578682
16561,"Chino Valley, AZ Urban Cluster",04025,10783,4810,32228955,0,34.763811,-112.46791
16588,"Chipley, FL Urban Cluster",12133,3846,1752,9739019,0,30.77703,-85.540002
16615,"Chisholm, MN Urban Cluster",27137,4622,2344,4084410,69307,47.487825,-92.88315
16642,"Chittenango, NY Urban Cluster",36053,5083,2084,5551110,4283,43.048383,-75.878237
16696,"Chowchilla, CA Urban Cluster",06039,11843,4248,11687788,119504,37.112439,-120.246747
16750,"Christiansted, VI Urban Cluster",78010,46601,22419,91296973,65140,17.725245,-64.780792
16777,"Christopher, IL Urban Cluster",17055,3610,1731,7398804,18197,37.976686,-89.061257
16831,"Church Point, LA Urban Cluster",22001,4588,1937,6894132,0,30.4042,-92.216184
16858,"Churchville, NY Urban Cluster",36055,3134,1315,4937021,11825,43.096277,-77.911449
16885,"Cincinnati, OH--KY--IN Urbanized Area",39061,1624827,711373,2040396726,24339712,39.185505,-84.462043
16912,"Circleville, OH Urban Cluster",39129,14965,6603,19016637,315125,39.605129,-82.937356
16939,"Cisco, TX Urban Cluster",48133,3658,1703,6357302,0,32.384114,-98.982366
17047,"Clanton, AL Urban Cluster",01021,5785,2539,17303824,47199,32.859117,-86.651536
17074,"Clare, MI Urban Cluster",26035,5597,2836,15942963,855520,43.85023,-84.855992
17101,"Claremont, NH Urban Cluster",33019,9598,4659,13589225,38460,43.374025,-72.354033
17128,"Claremore, OK Urban Cluster",40131,25164,10453,53914222,65492,36.295445,-95.635401
17155,"Clarinda, IA Urban Cluster",19145,5415,2113,6158815,0,40.739111,-95.038714
17182,"Clarion, IA Urban Cluster",19197,2639,1256,3741575,0,42.728558,-93.729408
17209,"Clarion, PA Urban Cluster",42031,9373,3927,17249730,263666,41.212332,-79.382285
17236,"Clarksburg, WV Urban Cluster",54033,43988,20581,99718983,264545,39.427664,-80.283339
17263,"Clarksdale, MS Urban Cluster",28027,17783,7254,22014180,16607,34.196976,-90.57456
17290,"Clarksville, AR Urban Cluster",05071,7313,3048,17468451,137599,35.47186,-93.474714
17317,"Clarksville, TN--KY Urbanized Area",47125,158655,62218,283433117,486936,36.576674,-87.345509
17344,"Clarksville, TX Urban Cluster",48387,3121,1597,7297028,0,33.611558,-95.055925
17371,"Claxton, GA Urban Cluster",13109,4259,1758,8202807,79703,32.160363,-81.917008
17398,"Clay Center, KS Urban Cluster",20027,4307,2146,5593996,0,39.37996,-97.124039
17420,"Clayton, GA Urban Cluster",13241,3372,1624,10214886,7555,34.888409,-83.396186
17452,"Clearfield, PA Urban Cluster",42033,10903,5346,14570494,446965,41.014806,-78.4388
17479,"Clearlake, CA Urban Cluster",06033,15944,8553,18851332,10193,38.948609,-122.627477
17506,"Clear Lake, IA Urban Cluster",19033,7944,5140,17482377,44401,43.141886,-93.375489
17514,"Clearlake Riviera, CA Urban Cluster",06033,2806,1601,7974635,4029,38.958341,-122.743606
17524,"Clearwood, WA Urban Cluster",53067,2611,1085,3409084,829947,46.823528,-122.473754
17533,"Cleburne, TX Urban Cluster",48251,35122,13562,45181910,255484,32.417634,-97.329871
17560,"Cle Elum, WA Urban Cluster",53037,3539,2172,7833328,0,47.22179,-121.001197
17625,"Cleveland, GA Urban Cluster",13311,4399,2027,12292526,36054,34.589682,-83.755352
17641,"Cleveland, MS Urban Cluster",28011,15722,6392,21158527,0,33.74359,-90.723323
17668,"Cleveland, OH Urbanized Area",39035,1780673,832988,2004098980,11901959,41.443638,-81.605443
17695,"Cleveland, OK Urban Cluster",40117,3128,1459,4020994,0,36.307052,-96.467305
17722,"Cleveland, TN Urbanized Area",47011,66777,28182,141209319,119771,35.175433,-84.851207
17749,"Cleveland, TX Urban Cluster",48291,9960,3760,23175193,0,30.360173,-95.092875
17776,"Clewiston, FL Urban Cluster",12051,12833,4633,11877253,245373,26.748046,-80.93119
17803,"Clifton, AZ Urban Cluster",04011,4508,2226,8702499,85762,33.046851,-109.309418
17830,"Clifton, TX Urban Cluster",48035,3421,1494,5624791,81753,31.782235,-97.578621
17857,"Clifton Forge, VA Urban Cluster",51005,5311,2678,9983035,124449,37.816269,-79.817711
17870,"Clifton Springs, NY Urban Cluster",36069,6444,2800,11235019,0,42.970171,-77.140137
17884,"Clinton, IL Urban Cluster",17039,8487,3918,11328666,11337,40.156663,-88.963832
17911,"Clinton, IN Urban Cluster",18165,6425,3071,9926206,34109,39.663151,-87.406451
17938,"Clinton, IA--IL Urban Cluster",19045,32332,14871,42729493,3443735,41.841691,-90.203302
17965,"Clinton, MO Urban Cluster",29083,8740,4332,14107734,183370,38.368899,-93.768559
17992,"Clinton, NC Urban Cluster",37163,9538,4046,20545628,84352,35.002346,-78.328733
18019,"Clinton, OK Urban Cluster",40039,8426,3506,9132486,0,35.510138,-98.976673
18046,"Clinton, SC Urban Cluster",45059,11176,4663,23888889,35673,34.457277,-81.872454
18100,"Clintonville, WI Urban Cluster",55135,4481,2199,5854683,502563,44.62322,-88.761128
18127,"Cloquet, MN Urban Cluster",27017,12936,5570,24373390,588038,46.709546,-92.441269
18154,"Clover, SC Urban Cluster",45091,6513,2629,14293275,29347,35.102669,-81.222927
18181,"Cloverdale, CA Urban Cluster",06097,9166,3652,8725319,0,38.803364,-123.015911
18208,"Clovis, NM Urban Cluster",35009,41570,17193,58333455,239845,34.414716,-103.214804
18235,"Clyde, OH Urban Cluster",39143,6039,2573,8597007,133708,41.304327,-82.982461
18262,"Clyde, TX Urban Cluster",48059,3768,1653,7358424,0,32.404031,-99.49876
18289,"Coalinga, CA Urban Cluster",06019,12702,4398,15310403,79727,36.144019,-120.352008
18316,"Coamo, PR Urban Cluster",72043,38047,15449,47907630,42114,18.058767,-66.369846
18343,"Cobleskill, NY Urban Cluster",36095,5618,2248,8159179,9387,42.682069,-74.498854
18370,"Cochran, GA Urban Cluster",13023,6324,2397,11969464,185988,32.390238,-83.346608
18383,"Coco--Salinas, PR Urban Cluster",72123,22102,10241,19784947,43578,17.998835,-66.332965
18397,"Cody, WY Urban Cluster",56029,9338,4553,16432366,29888,44.522764,-109.050402
18424,"Coeburn, VA Urban Cluster",51195,3179,1419,6610798,44046,36.941687,-82.472292
18451,"Coeur d'Alene, ID Urbanized Area",16055,98378,42666,122414536,1676810,47.666715,-116.767007
18478,"Coffeyville, KS--OK Urban Cluster",20125,10909,5323,17502198,22286,37.033824,-95.629703
18505,"Cokato, MN Urban Cluster",27171,4244,1752,7706454,619107,45.079726,-94.228032
18532,"Colby, KS Urban Cluster",20193,5463,2465,7763457,0,39.386968,-101.047391
18559,"Colchester, CT Urban Cluster",09011,10098,4229,37915928,731199,41.567427,-72.337609
18586,"Cold Spring, MN Urban Cluster",27145,4324,1774,6331566,49550,45.457426,-94.429757
18613,"Cold Spring, NY Urban Cluster",36079,3276,1507,7186442,113987,41.429474,-73.949914
18667,"Coldwater, MI Urban Cluster",26023,16876,6240,29875915,189918,41.946724,-84.987296
18680,"Coldwater, OH Urban Cluster",39107,4473,1833,4874345,4991,40.48269,-84.631441
18694,"Coleman, TX Urban Cluster",48083,4310,2356,6481556,0,31.823831,-99.4263
18712,"Colfax, CA Urban Cluster",06061,3144,1438,6267032,0,39.101549,-120.961336
18721,"Colfax, WA Urban Cluster",53075,2720,1369,3376235,7841,46.881374,-117.364986
18748,"College Station--Bryan, TX Urbanized Area",48041,171345,68363,184925001,355859,30.626675,-96.331052
18760,"Collinsville, OK Urban Cluster",40143,4248,1828,7294670,14217,36.363989,-95.837239
18775,"Colonial Beach, VA Urban Cluster",51193,3693,2457,4588662,16206,38.256935,-76.97469
18802,"Colorado City, AZ--UT Urban Cluster",04015,8233,1006,13875284,20502,36.984137,-112.972901
18829,"Colorado City, TX Urban Cluster",48335,5948,1734,6843016,0,32.396474,-100.869376
18856,"Colorado Springs, CO Urbanized Area",08041,559409,229712,487012758,974036,38.872952,-104.770643
18883,"Columbia, KY Urban Cluster",21001,4579,1901,8744050,60603,37.101848,-85.302898
18910,"Columbia, MS Urban Cluster",28091,7294,3106,16989082,65446,31.254121,-89.82252
18937,"Columbia, MO Urbanized Area",29019,124748,53568,160398753,517738,38.955624,-92.327874
18964,"Columbia, SC Urbanized Area",45079,549777,233477,984415078,15567834,34.036236,-81.077207
18991,"Columbia, TN Urban Cluster",47119,34965,16072,64528204,0,35.615699,-87.062997
19018,"Columbia City, IN Urban Cluster",18183,9225,4113,15746011,62319,41.15874,-85.481432
19045,"Columbia Falls, MT Urban Cluster",30029,6029,2551,11748738,2697,48.372812,-114.194299
19060,"Columbiana, AL Urban Cluster",01117,2642,812,6969348,25016,33.169471,-86.608767
19072,"Columbiana, OH Urban Cluster",39029,8101,3902,15528984,178381,40.894258,-80.678785
19099,"Columbus, GA--AL Urbanized Area",13215,253602,109208,381279794,3002053,32.484694,-84.981031
19126,"Columbus, IN Urbanized Area",18005,54933,24302,70773318,716439,39.231561,-85.920718
19153,"Columbus, KS Urban Cluster",20021,3272,1611,5218673,0,37.170031,-94.843996
19180,"Columbus, MS Urban Cluster",28087,31174,13883,65997343,689391,33.501897,-88.391502
19207,"Columbus, NE Urban Cluster",31141,22106,9306,20791377,453675,41.436548,-97.354859
19234,"Columbus, OH Urbanized Area",39049,1368035,604025,1322373244,19012153,40.021161,-82.968532
19261,"Columbus, TX Urban Cluster",48089,4176,1884,7337080,26667,29.702778,-96.557057
19288,"Columbus, WI Urban Cluster",55021,6623,2918,9902686,117188,43.336063,-89.01832
19315,"Columbus AFB, MS Urban Cluster",28087,3140,1707,9599171,44916,33.634273,-88.446563
19342,"Colusa, CA Urban Cluster",06011,6791,2622,5866407,0,39.208445,-122.012902
19369,"Colville, WA Urban Cluster",53065,4966,2321,11916225,0,48.542805,-117.895154
19396,"Comanche, TX Urban Cluster",48093,3988,1769,6373414,0,31.901532,-98.603219
19423,"Comfort, TX Urban Cluster",48259,2653,974,5227450,2339,29.966986,-98.913282
19450,"Commerce, GA Urban Cluster",13157,6624,2830,16454720,44354,34.218313,-83.464338
19477,"Commerce, TX Urban Cluster",48231,7717,3435,9289169,57266,33.242529,-95.902234
19504,"Concord, CA Urbanized Area",06013,615968,244581,525133716,3677074,37.848474,-122.007796
19531,"Concord, NH Urban Cluster",33013,42611,18930,88325026,4765455,43.226491,-71.575198
19558,"Concord, NC Urbanized Area",37025,214881,90164,467076749,1293759,35.489602,-80.580668
19585,"Concordia, KS Urban Cluster",20029,5340,2513,6465910,0,39.567915,-97.654871
19597,"Conesus Lake, NY Urban Cluster",36051,4858,2911,10305093,6314104,42.838441,-77.705781
19612,"Conneaut, OH Urban Cluster",39007,14109,6257,39279189,67381,41.934727,-80.610388
19666,"Connell, WA Urban Cluster",53021,4076,883,6919207,0,46.67914,-118.852174
19693,"Connersville, IN Urban Cluster",18041,15347,7190,22708282,0,39.650027,-85.144222
19720,"Conrad, MT Urban Cluster",30073,2578,1271,3242027,0,48.172815,-111.946746
19755,"Conroe--The Woodlands, TX Urbanized Area",48339,239938,92663,345254243,2563472,30.346553,-95.448817
19774,"Constantine, MI Urban Cluster",26149,4074,1762,8384746,219381,41.840955,-85.667361
19801,"Conway, AR Urbanized Area",05045,65277,27398,102993283,2487403,35.067649,-92.437239
19828,"Cookeville, TN Urban Cluster",47141,44207,19480,115248012,246301,36.161823,-85.515552
19882,"Coolidge, AZ Urban Cluster",04021,10919,4386,10906528,3497,32.977829,-111.53151
19909,"Coopersville, MI Urban Cluster",26139,3951,1611,5069453,805,43.065181,-85.93626
19936,"Coos Bay, OR Urban Cluster",41011,31386,14685,42683779,4902539,43.379458,-124.2437
19990,"Coquille, OR Urban Cluster",41011,4359,2035,9259519,84150,43.17851,-124.181586
20044,"Corcoran, CA Urban Cluster",06031,25516,4168,16969167,0,36.085268,-119.563195
20071,"Cordele, GA Urban Cluster",13081,12416,5494,19478513,51235,31.965331,-83.775635
20098,"Corinth, MS Urban Cluster",28003,12469,6095,31030011,849,34.931634,-88.514334
20125,"Corinth, NY Urban Cluster",36091,3995,1939,7225962,336542,43.259938,-73.831618
20152,"Cornelia--Baldwin, GA Urban Cluster",13137,18578,6782,50434642,198483,34.515369,-83.547933
20179,"Corning, AR Urban Cluster",05021,3180,1511,5534309,0,36.412018,-90.589496
20206,"Corning, CA Urban Cluster",06103,8553,3150,10001007,0,39.930303,-122.178439
20233,"Corning, NY Urban Cluster",36101,20477,9629,26175020,285358,42.157516,-77.052734
20247,"Corona de Tucson, AZ Urban Cluster",04019,5469,2087,11097101,0,31.951468,-110.789468
20287,"Corpus Christi, TX Urbanized Area",48355,320069,130858,311497592,12249934,27.745333,-97.412599
20314,"Corry, PA Urban Cluster",42049,6571,2840,10384638,3552,41.928225,-79.63313
20341,"Corsicana, TX Urban Cluster",48349,22599,9024,32720431,228611,32.090628,-96.472831
20368,"Cortez, CO Urban Cluster",08083,8380,3781,9505952,70393,37.35379,-108.577214
20395,"Cortland, NY Urban Cluster",36023,27493,11001,27627633,121157,42.604246,-76.182202
20422,"Corvallis, OR Urbanized Area",41003,62433,26689,54810578,116883,44.575091,-123.287357
20449,"Corydon, IN Urban Cluster",18061,5506,2491,9497105,0,38.216447,-86.118264
20476,"Coshocton, OH Urban Cluster",39031,11517,5613,13446087,110784,40.263918,-81.857449
20503,"Cottage Grove, OR Urban Cluster",41039,11007,4746,13620060,176570,43.789158,-123.062803
20530,"Cottonport, LA Urban Cluster",22009,3631,808,4771752,0,30.986237,-92.048377
20584,"Cottonwood, CA Urban Cluster",06089,4419,1731,8772173,0,40.388516,-122.307717
20595,"Cottonwood--Verde Village, AZ Urban Cluster",04025,26650,12874,37620317,0,34.728476,-112.014838
20611,"Cotulla, TX Urban Cluster",48283,3694,1657,5003951,1986,28.437087,-99.23684
20632,"Country Lakes, MD Urban Cluster",24037,2603,833,8672317,3934,38.405329,-76.786609
20665,"Covington, IN Urban Cluster",18045,2625,1192,2874539,0,40.140931,-87.390554
20692,"Covington, OH Urban Cluster",39109,2727,1212,3211655,0,40.118929,-84.349978
20719,"Covington, TN Urban Cluster",47167,8578,3558,17355173,0,35.563245,-89.655592
20746,"Covington, VA Urban Cluster",51580,8430,4240,20838537,432162,37.78106,-79.985434
20773,"Coxsackie, NY Urban Cluster",36039,6341,1819,10315620,0,42.350031,-73.817303
20800,"Cozad, NE Urban Cluster",31047,3863,1827,4728176,0,40.860825,-99.983482
20827,"Craig, CO Urban Cluster",08081,10021,4272,14744792,0,40.52,-107.556879
20854,"Crane, TX Urban Cluster",48103,3907,1442,3459957,0,31.392816,-102.351652
20881,"Crawfordsville, IN Urban Cluster",18107,18012,8067,30992133,77556,40.04364,-86.909951
20890,"Crawfordville, FL Urban Cluster",12129,8342,3354,24765280,0,30.185216,-84.347676
20908,"Crescent City, CA Urban Cluster",06015,18976,6690,30762135,158239,41.78434,-124.183908
20935,"Crescent City, FL Urban Cluster",12107,2812,1689,12609166,75516,29.479776,-81.540949
20962,"Cresco, IA Urban Cluster",19089,3540,1706,4274586,0,43.376143,-92.114215
20980,"Cresson, PA Urban Cluster",42021,11106,3284,24313329,103686,40.458992,-78.580415
21016,"Creston, IA Urban Cluster",19175,7617,3655,10214849,3757,41.059127,-94.363
21043,"Crestview, FL Urban Cluster",12091,32432,13454,61091830,1303831,30.756094,-86.568484
21070,"Creswell, OR Urban Cluster",41039,6320,2564,9309429,53213,43.91298,-123.015343
21097,"Crete, NE Urban Cluster",31151,6948,2383,6521734,36117,40.624778,-96.957284
21124,"Crewe, VA Urban Cluster",51135,4323,1247,7211273,36275,37.186415,-78.175639
21151,"Crisfield, MD Urban Cluster",24039,3600,1928,5664149,50579,37.984448,-75.843547
21178,"Crittenden, KY Urban Cluster",21081,4221,1598,8581647,59099,38.759834,-84.619455
21205,"Crockett, TX Urban Cluster",48225,6292,2780,14732309,0,31.314266,-95.454161
21220,"Crooked Lake Park, FL Urban Cluster",12105,4335,1961,9497666,629431,27.846765,-81.560942
21232,"Crookston, MN Urban Cluster",27119,7964,3274,10533829,0,47.774932,-96.607515
21259,"Crooksville, OH Urban Cluster",39127,4866,2089,7071896,36892,39.77301,-82.088437
21286,"Crosby, MN Urban Cluster",27035,3478,1954,5569517,4455839,46.479208,-93.934419
21313,"Cross City, FL Urban Cluster",12029,3773,1148,9005336,0,29.628964,-83.111955
21340,"Crossett, AR Urban Cluster",05003,7835,3700,20582680,453576,33.140514,-91.958877
21394,"Crossville, TN Urban Cluster",47035,16337,8038,54871774,2891776,35.933188,-85.042565
21421,"Crowley, LA Urban Cluster",22001,14908,6472,17789382,27382,30.214652,-92.371693
21448,"Crozet, VA Urban Cluster",51003,5527,2215,9035800,58439,38.060544,-78.685934
21475,"Cruz Bay, VI Urban Cluster",78020,3090,2464,7989692,83869,18.32577,-64.777578
21502,"Crystal City, TX Urban Cluster",48507,7236,2586,8379053,2847,28.691591,-99.827457
21529,"Crystal River, FL Urban Cluster",12017,4388,2783,12506922,98725,28.888052,-82.589712
21556,"Crystal Springs, MS Urban Cluster",28029,5269,2088,10302954,0,31.982556,-90.356623
21583,"Cuba, MO Urban Cluster",29055,3273,1518,5365475,0,38.062833,-91.401372
21610,"Cuero, TX Urban Cluster",48123,8099,2933,13829300,0,29.105109,-97.289509
21637,"Cullman, AL Urban Cluster",01043,18356,8466,57607454,839386,34.179434,-86.843505
21664,"Cullowhee, NC Urban Cluster",37099,10837,4239,20195354,0,35.36457,-83.201486
21691,"Culpeper, VA Urban Cluster",51047,17778,6984,19674199,51821,38.469245,-78.002975
21718,"Cumberland, KY Urban Cluster",21095,3711,1903,6074653,84885,36.973755,-82.982964
21745,"Cumberland, MD--WV--PA Urbanized Area",24001,51899,23143,84481914,635656,39.647447,-78.804586
21760,"Curwensville, PA Urban Cluster",42033,2751,1288,3997493,77144,40.974044,-78.523864
21772,"Cushing, OK Urban Cluster",40119,6742,3308,11410633,4680,35.97294,-96.760878
21799,"Cut Bank, MT Urban Cluster",30035,2878,1443,2664541,0,48.634013,-112.32996
21826,"Cuthbert, GA Urban Cluster",13243,3811,1870,6077499,13393,31.770686,-84.793575
21853,"Cynthiana, KY Urban Cluster",21097,6421,2986,7262692,120517,38.385518,-84.295848
21928,"Dahlgren, VA--MD Urban Cluster",51099,3515,1460,16720796,403266,38.342418,-77.026456
21934,"Dahlonega, GA Urban Cluster",13187,4812,1581,10681415,22522,34.543323,-83.98597
21961,"Daingerfield, TX Urban Cluster",48343,4976,2087,13876276,11514,33.005532,-94.644238
21988,"Dalhart, TX Urban Cluster",48111,7716,3217,8328230,4719,36.059597,-102.514298
22015,"Dallas, OR Urban Cluster",41053,15340,6431,13783463,0,44.921879,-123.30997
22042,"Dallas--Fort Worth--Arlington, TX Urbanized Area",48113,5121892,2023230,4610136194,92202220,32.812727,-96.972001
22069,"Dalton, GA Urbanized Area",13313,85239,32927,209293975,256962,34.793188,-84.938994
22079,"Dalton, OH Urban Cluster",39169,2595,1119,5700167,150967,40.802159,-81.709887
22096,"Danbury, CT--NY Urbanized Area",09001,168136,65763,341050590,9949124,41.45896,-73.426623
22110,"Dandridge, TN Urban Cluster",47089,4959,2093,22639354,0,36.017397,-83.437046
22177,"Dansville, NY Urban Cluster",36051,5141,2389,8507819,0,42.562575,-77.700673
22204,"Danville, IL Urbanized Area",17183,50996,22818,77199275,2020809,40.118599,-87.633119
22231,"Danville, KY Urban Cluster",21021,18887,8337,38496928,171400,37.630164,-84.773308
22253,"Danville, VA--NC Urban Cluster",51590,49344,25114,107861134,1091883,36.609278,-79.411145
22285,"Daphne--Fairhope, AL Urbanized Area",01003,57383,26465,143075399,604042,30.597318,-87.837227
22301,"Darbydale, OH Urban Cluster",39129,6195,1102,16279756,367134,39.815503,-83.165765
22312,"Darien, GA Urban Cluster",13191,3682,1845,8126145,8368,31.385203,-81.422323
22366,"Davenport, IA--IL Urbanized Area",19163,280051,123959,357345121,21444164,41.518317,-90.513558
22393,"David City, NE Urban Cluster",31023,2879,1265,3368489,4954,41.255569,-97.126392
22420,"Davis, CA Urbanized Area",06113,72794,27614,36567533,90331,38.553373,-121.738186
22427,"Davis, OK Urban Cluster",40099,2591,1216,4147510,5719,34.500734,-97.115753
22435,"Davis Junction, IL Urban Cluster",17141,2631,886,5662882,0,42.095324,-89.084378
22447,"Dawson, GA Urban Cluster",13273,4466,1871,5673736,0,31.773622,-84.439882
22501,"Dayton, NV Urban Cluster",32019,11127,4569,16631262,3839,39.297639,-119.546054
22528,"Dayton, OH Urbanized Area",39113,724091,335077,909675152,5709530,39.754855,-84.167092
22555,"Dayton, TN Urban Cluster",47143,10174,4148,23580105,601039,35.488876,-85.015979
22582,"Dayton, TX Urban Cluster",48291,12075,3286,27910643,206249,30.067841,-94.892385
22609,"Dayton, WA Urban Cluster",53013,2681,1275,3725810,0,46.317664,-117.97785
22690,"Decatur, AL Urbanized Area",01103,70436,30468,151108551,3798259,34.559441,-87.001129
22717,"Decatur, IL Urbanized Area",17115,93863,43304,153201839,7902573,39.845764,-88.935902
22744,"Decatur, IN Urban Cluster",18001,10440,4838,17318290,52005,40.827785,-84.928326
22771,"Decatur, TX Urban Cluster",48497,5910,2391,13099405,0,33.229417,-97.590644
22798,"Decorah, IA Urban Cluster",19191,8637,3318,13377181,47090,43.304383,-91.78183
22811,"Dededo--Machanao--Apotgan, GU Urban Cluster",66010,139825,44741,156629346,137543,13.487743,144.812921
22825,"Deer Lodge, MT Urban Cluster",30077,3217,1593,3720590,0,46.397947,-112.732299
22852,"Deer Park, WA Urban Cluster",53063,3463,1436,4986178,0,47.955864,-117.468616
22864,"Deerwood, TX Urban Cluster",48339,3797,1074,7007553,20270,30.317181,-95.305325
22879,"Defiance, OH Urban Cluster",39039,18306,8117,34985282,1281114,41.28448,-84.355116
22933,"De Funiak Springs, FL Urban Cluster",12131,5812,2923,17563989,691086,30.733743,-86.130341
22960,"DeKalb, IL Urbanized Area",17037,68545,26772,66814399,686626,41.954678,-88.726251
22987,"Delano, CA Urbanized Area",06029,54372,11008,25684938,0,35.773324,-119.265874
22995,"Delano, MN Urban Cluster",27171,5255,1994,7679171,0,45.038446,-93.787135
23041,"Delavan, WI Urban Cluster",55127,12158,5770,20063451,566614,42.621413,-88.638026
23095,"Delhi, LA Urban Cluster",22083,2770,1143,4490992,21772,32.455639,-91.491125
23102,"Delhi, NY Urban Cluster",36025,2953,732,3545831,42647,42.283366,-74.919801
23122,"Dell Rapids, SD Urban Cluster",46099,3584,1476,3765636,0,43.827671,-96.716356
23149,"Delphi, IN Urban Cluster",18015,3008,1348,4256047,38981,40.58743,-86.677046
23176,"Delphos, OH Urban Cluster",39003,7440,3262,10818747,34836,40.839254,-84.341976
23203,"Del Rio, TX Urban Cluster",48465,43914,15531,50267659,190038,29.369159,-100.881893
23230,"Delta, CO Urban Cluster",08029,7849,3384,14737622,107417,38.746594,-108.061647
23257,"Delta, OH Urban Cluster",39051,3158,1310,4393579,1933,41.575599,-83.999517
23284,"Delta, UT Urban Cluster",49027,3258,1210,4961985,0,39.352947,-112.573479
23311,"Deltona, FL Urbanized Area",12127,182169,79045,249434471,9702400,28.991713,-81.261439
23338,"Deming, NM Urban Cluster",35029,14903,6224,21486130,0,32.266332,-107.752257
23365,"Demopolis, AL Urban Cluster",01091,6452,2929,13114046,112165,32.50599,-87.828146
23392,"De Motte, IN Urban Cluster",18073,4652,1934,9233246,591,41.193493,-87.21017
23419,"Denison, IA Urban Cluster",19047,8240,2940,11192083,15184,42.018103,-95.347389
23446,"Denmark, SC Urban Cluster",45009,3781,1600,7029371,0,33.317242,-81.137062
23473,"Denton, MD Urban Cluster",24011,4771,1922,11791874,123015,38.872302,-75.819755
23500,"Denton--Lewisville, TX Urbanized Area",48121,366174,140280,376248101,7166127,33.093039,-97.066276
23513,"Denton Southwest, TX Urban Cluster",48121,3307,1569,10175035,48329,33.126483,-97.240161
23527,"Denver--Aurora, CO Urbanized Area",08031,2374203,997980,1726058510,38089345,39.710774,-104.955096
23554,"Denver City, TX Urban Cluster",48501,4938,1803,6702758,0,32.967345,-102.835102
23608,"De Queen, AR Urban Cluster",05133,6209,2115,10898528,33836,34.043394,-94.343051
23635,"DeQuincy, LA Urban Cluster",22019,5017,1846,12480170,0,30.453766,-93.438732
23662,"DeRidder, LA Urban Cluster",22011,13341,5800,42724297,237530,30.856066,-93.294939
23689,"Dermott, AR Urban Cluster",05017,2816,1140,5060680,0,33.525415,-91.438477
23716,"Desert Hot Springs, CA Urban Cluster",06065,39445,18247,42740161,248358,33.944941,-116.497618
23743,"Des Moines, IA Urbanized Area",19153,450070,190895,517156887,6769176,41.619352,-93.656127
23770,"De Soto, KS Urban Cluster",20091,4701,1798,9842031,115138,38.968026,-94.962655
23797,"De Soto, MO Urban Cluster",29099,7203,3257,10473994,363295,38.124145,-90.562573
23824,"Detroit, MI Urbanized Area",26163,3734090,1653116,3460893786,94001027,42.490005,-83.227554
23851,"Detroit Lakes, MN Urban Cluster",27005,7973,4287,14957750,12375953,46.799843,-95.829649
23878,"Devils Lake, ND Urban Cluster",38071,7444,3586,8346580,14898,48.110226,-98.858122
23905,"Devine, TX Urban Cluster",48325,5798,2254,11313072,35575,29.148347,-98.897989
23959,"DeWitt, AR Urban Cluster",05001,3185,1494,5677801,0,34.290305,-91.338103
23986,"De Witt, IA Urban Cluster",19045,4639,2016,5508753,0,41.824151,-90.546713
24013,"Dexter, MO Urban Cluster",29207,9053,4192,15158704,31362,36.792409,-89.968991
24040,"Diamondhead, MS Urban Cluster",28045,7855,4069,13882989,135131,30.394333,-89.365506
24067,"Diboll, TX Urban Cluster",48005,4461,1421,7788915,104745,31.190929,-94.781829
24094,"Dickinson, ND Urban Cluster",38089,17586,7761,19596012,28969,46.885456,-102.786789
24121,"Dickson, TN Urban Cluster",47043,16016,7004,44503207,150551,36.060236,-87.364102
24148,"Dilley, TX Urban Cluster",48163,3938,1137,5150869,0,28.669807,-99.177396
24175,"Dillon, MT Urban Cluster",30001,4609,2147,5857797,0,45.22745,-112.630945
24202,"Dillon, SC Urban Cluster",45033,9777,4160,18474288,101379,34.41733,-79.359693
24229,"Dimmitt, TX Urban Cluster",48069,4373,1656,5159890,105987,34.548219,-102.317203
24256,"Discovery Bay, CA Urban Cluster",06013,14044,5652,10416526,2899921,37.901327,-121.609267
24283,"Dixon, CA Urban Cluster",06095,18445,6209,16113170,6653,38.444983,-121.834573
24310,"Dixon, IL Urban Cluster",17103,16858,6792,25498865,938057,41.852951,-89.481744
24329,"Dodge Center, MN Urban Cluster",27039,2641,1048,3999887,0,44.030163,-92.855141
24337,"Dodge City, KS Urban Cluster",20057,27316,9290,27885774,272373,37.756788,-100.011964
24364,"Dodgeville, WI Urban Cluster",55049,4756,2123,7932705,0,42.965489,-90.130606
24391,"Donaldsonville, LA Urban Cluster",22005,14571,5635,41347958,2519760,30.097974,-90.939725
24418,"Donalsonville, GA Urban Cluster",13253,2745,1222,7759873,32978,31.04095,-84.874312
24433,"Dorr, MI Urban Cluster",26005,4702,1600,14211655,27483,42.718041,-85.734434
24445,"Dos Palos, CA Urban Cluster",06047,6713,2228,5501806,0,36.978163,-120.633707
24472,"Dothan, AL Urbanized Area",01069,68781,30681,143892066,268456,31.223667,-85.425104
24499,"Douglas, AZ Urban Cluster",04003,17673,6450,14677403,0,31.350386,-109.543216
24526,"Douglas, GA Urban Cluster",13069,14154,6006,31293722,376551,31.511685,-82.84868
24539,"Douglas, MI Urban Cluster",26005,2570,2102,7327375,130134,42.649643,-86.197091
24553,"Douglas, WY Urban Cluster",56009,6175,2803,8410439,15234,42.753293,-105.3831
24580,"Dover, DE Urbanized Area",10001,110769,43144,191561341,2331857,39.146792,-75.545032
24607,"Dover--Rochester, NH--ME Urbanized Area",33017,88087,36466,172170355,5550157,43.226306,-70.899625
24634,"Dowagiac, MI Urban Cluster",26027,6082,2772,8985213,88883,41.982547,-86.108166
24646,"Downs, IL Urban Cluster",17113,2666,948,5605448,14857,40.411118,-88.887834
24688,"Dryden, NY Urban Cluster",36109,3882,1621,10238691,49583,42.501722,-76.301677
24715,"Dublin, GA Urban Cluster",13175,20999,9212,58180924,543821,32.53722,-82.919988
24769,"Dublin, TX Urban Cluster",48143,3543,1508,5680903,0,32.088665,-98.342338
24796,"DuBois, PA Urban Cluster",42033,11898,5597,17602059,139722,41.119416,-78.762267
24823,"Dubuque, IA--IL Urbanized Area",19061,67818,29024,87523010,822803,42.506218,-90.691071
24850,"Duluth, MN--WI Urbanized Area",27137,120378,53537,182311358,22604587,46.765574,-92.12902
24877,"Dumas, AR Urban Cluster",05041,5023,2254,7828354,0,33.884755,-91.486758
24904,"Dumas, TX Urban Cluster",48341,14836,5410,14626012,0,35.868307,-101.965672
24931,"Duncan, OK Urban Cluster",40137,21301,9979,30410657,152410,34.515253,-97.962302
24958,"Dundee, MI Urban Cluster",26115,3799,1684,6397262,90764,41.95782,-83.660254
24985,"Dunkirk, IN Urban Cluster",18075,3564,1721,5341420,0,40.363782,-85.184465
25012,"Dunkirk--Fredonia, NY Urban Cluster",36013,25514,11139,36307924,34715,42.460506,-79.339732
25025,"Dunlap, TN Urban Cluster",47153,3691,1571,11329618,0,35.377176,-85.388148
25039,"Dunn, NC Urban Cluster",37085,14823,6856,29000495,36812,35.317576,-78.63644
25093,"Du Quoin, IL Urban Cluster",17145,6467,3105,11643555,184675,38.017557,-89.232631
25120,"Durand, MI Urban Cluster",26155,4854,2192,8406543,14006,42.907955,-83.985164
25147,"Durango, CO Urban Cluster",08067,17982,8369,24130561,85392,37.289143,-107.869961
25174,"Durant, MS Urban Cluster",28051,2525,1112,3806313,0,33.079138,-89.856737
25201,"Durant, OK Urban Cluster",40013,16402,7329,26247910,36864,33.999943,-96.393378
25228,"Durham, NC Urbanized Area",37063,347602,152577,470867497,3746635,35.980955,-78.947743
25255,"Dwight, IL Urban Cluster",17105,5353,1860,8696335,0,41.095181,-88.43556
25282,"Dyer, TN Urban Cluster",47053,3248,1483,6545649,0,36.130575,-89.002255
25309,"Dyersburg, TN Urban Cluster",47045,21903,9751,42480625,261467,36.06071,-89.358888
25336,"Dyersville, IA Urban Cluster",19061,3620,1665,6708951,0,42.48,-91.11724
25363,"Eagar, AZ Urban Cluster",04001,6095,2617,16104677,10540,34.111854,-109.286531
25390,"Eagle, CO Urban Cluster",08037,6073,2253,6360375,43644,39.644579,-106.826253
25417,"Eagle Grove, IA Urban Cluster",19197,3076,1379,3584731,0,42.664605,-93.90382
25444,"Eagle Lake, TX Urban Cluster",48089,3628,1508,5503877,11319,29.586909,-96.331573
25480,"Eagle Mountain South, UT Urban Cluster",49049,6277,1564,4941885,0,40.30801,-112.006792
25498,"Eagle Pass, TX Urban Cluster",48323,49236,15814,51900377,251045,28.701778,-100.471175
25579,"Earlimart, CA Urban Cluster",06107,13211,3277,13036696,0,35.923825,-119.278774
25598,"East Aurora, NY Urban Cluster",36029,9841,4223,22155506,61411,42.779875,-78.598786
25660,"Eastland, TX Urban Cluster",48133,3711,1690,4239540,0,32.3982,-98.825388
25687,"East Liverpool, OH--WV--PA Urban Cluster",39029,31564,15148,62955549,3060516,40.643542,-80.571376
25714,"Eastman, GA Urban Cluster",13091,6053,2689,14617453,135191,32.194206,-83.177141
25741,"Easton, MD Urban Cluster",24041,17132,8013,24834140,208690,38.766831,-76.065148
25768,"East Palestine, OH Urban Cluster",39029,4944,2224,8437863,0,40.838978,-80.541664
25795,"East Prairie, MO Urban Cluster",29133,3770,1675,5251728,0,36.775651,-89.383252
25802,"East Prospect, PA Urban Cluster",42133,2575,1010,6255615,0,39.952124,-76.506388
25813,"East Quincy, CA Urban Cluster",06063,2674,1287,5763783,0,39.945309,-120.932845
25849,"East Stroudsburg, PA--NJ Urbanized Area",42089,54316,21836,134997908,1259736,41.022688,-75.213377
25876,"East Tawas, MI Urban Cluster",26069,4372,2631,8148544,0,44.281546,-83.473291
25903,"East Troy, WI Urban Cluster",55127,4306,1814,6318077,0,42.790977,-88.403836
25930,"Eaton, CO Urban Cluster",08123,4392,1717,3897405,0,40.529415,-104.713848
25957,"Eaton, OH Urban Cluster",39135,8112,3763,10129887,19264,39.748358,-84.635603
25984,"Eaton Rapids, MI Urban Cluster",26045,5408,2458,10325582,311119,42.505596,-84.65451
26011,"Eatonton, GA Urban Cluster",13237,3889,1753,8572623,0,33.328561,-83.388048
26024,"Eatonville, WA Urban Cluster",53053,2801,1117,4069280,12220,46.868226,-122.270205
26038,"Eau Claire, WI Urbanized Area",55035,102852,44530,178652216,12883116,44.860862,-91.44719
26065,"Ebensburg, PA Urban Cluster",42021,4914,2361,7368706,84268,40.484465,-78.733571
26092,"Eden, NC Urban Cluster",37157,17187,8570,46336593,395964,36.502122,-79.744547
26119,"Edenton, NC Urban Cluster",37041,4790,2389,7935188,175551,36.065841,-76.613077
26146,"Edgefield, SC Urban Cluster",45037,4562,1137,7067716,47298,33.785197,-81.925195
26173,"Edgerton, WI Urban Cluster",55105,7208,3369,13355685,485619,42.838856,-89.055991
26200,"Edgewood, NM Urban Cluster",35049,3506,1465,13969513,0,35.075163,-106.191477
26227,"Edinboro, PA Urban Cluster",42049,7263,2716,7244463,190424,41.876696,-80.129846
26254,"Edna, TX Urban Cluster",48239,5374,2452,8724349,0,28.975111,-96.650065
26275,"Edwards, CO Urban Cluster",08037,17326,8473,22012620,404188,39.644737,-106.564801
26308,"Effingham, IL Urban Cluster",17049,13800,6238,22187727,75129,39.120894,-88.540198
26345,"Eielson AFB, AK Urban Cluster",02090,2944,1019,16135833,599927,64.666431,-147.097017
26362,"Elberton, GA Urban Cluster",13105,5925,2925,13658204,41961,34.109944,-82.869663
26389,"El Campo, TX Urban Cluster",48481,11719,4498,16207830,19537,29.198508,-96.276623
26416,"El Centro--Calexico, CA Urbanized Area",06025,107672,33162,77893748,45518,32.769055,-115.546349
26443,"Eldon, MO Urban Cluster",29131,4555,2229,6893330,0,38.351041,-92.577313
26470,"El Dorado, AR Urban Cluster",05139,18944,8830,39158858,0,33.208556,-92.662815
26497,"Eldorado, IL Urban Cluster",17165,4572,2265,9458184,38715,37.815688,-88.439956
26524,"El Dorado, KS Urban Cluster",20015,14724,5997,23311666,11949,37.815098,-96.85048
26551,"Eldorado at Santa Fe, NM Urban Cluster",35049,4372,2190,18912707,0,35.537103,-105.929631
26578,"El Dorado Springs, MO Urban Cluster",29039,3454,1852,4952679,2869,37.869789,-94.023114
26632,"Electra, TX Urban Cluster",48485,2746,1397,4317364,0,34.030615,-98.919054
26659,"Elgin, TX Urban Cluster",48021,10043,3564,12307529,0,30.349499,-97.379144
26686,"Elizabeth City, NC Urban Cluster",37139,23905,10258,43981700,843,36.297071,-76.233278
26713,"Elizabethtown, NC Urban Cluster",37017,3085,1581,6373639,0,34.625482,-78.616196
26750,"Elizabethtown--Radcliff, KY Urbanized Area",21093,73467,30547,147472266,1265633,37.788109,-85.922883
26767,"Elk City, OK Urban Cluster",40009,10855,5014,16681047,0,35.40683,-99.413302
26794,"Elkhart, IN--MI Urbanized Area",18039,143592,58631,237903041,7568713,41.658247,-85.926438
26821,"Elkhorn, WI Urban Cluster",55127,12484,4987,26681042,170180,42.692359,-88.538185
26848,"Elkin, NC Urban Cluster",37171,6521,3206,17094338,68515,36.248754,-80.852281
26875,"Elkins, WV Urban Cluster",54083,11061,5164,15842958,0,38.930317,-79.87039
26902,"Elko, NV Urban Cluster",32007,18948,7420,26580266,0,40.836774,-115.77282
26912,"Elko New Market, MN Urban Cluster",27139,3908,1240,5882788,0,44.566032,-93.334035
26956,"Elkton, VA Urban Cluster",51165,3657,1703,8167916,35968,38.411282,-78.624658
26983,"Ellensburg, WA Urban Cluster",53037,20987,8933,22927525,0,47.001245,-120.53555
27010,"Ellenville, NY Urban Cluster",36111,6577,2566,8235516,12509,41.730481,-74.387697
27037,"Ellijay, GA Urban Cluster",13123,3496,1613,13126405,0,34.699387,-84.490402
27064,"Ellsworth, KS Urban Cluster",20053,2982,1075,3393603,0,38.733847,-98.227944
27070,"Ellsworth, ME Urban Cluster",23009,2805,1431,7236461,80594,44.538621,-68.427748
27076,"Ellsworth, WI Urban Cluster",55093,2823,1247,5967410,728,44.733436,-92.482438
27085,"Ellwood City, PA Urban Cluster",42073,13006,6133,16000604,497580,40.853149,-80.268213
27118,"Elmira, NY Urbanized Area",36015,67983,29507,97905045,1346513,42.192205,-76.831698
27172,"Elmwood, IL Urban Cluster",17143,2660,1145,4609604,0,40.776335,-89.969943
27199,"Eloy, AZ Urban Cluster",04021,6963,2528,7957277,7374,32.750881,-111.562575
27226,"El Paso, IL Urban Cluster",17203,2776,1101,4132223,0,40.740009,-89.014583
27253,"El Paso, TX--NM Urbanized Area",48141,803086,270231,648980588,2974601,31.780239,-106.389031
27261,"El Paso de Robles (Paso Robles)--Atascadero, CA Urbanized Area",06079,65088,25479,82140315,144643,35.621768,-120.659383
27280,"El Reno, OK Urban Cluster",40017,15069,5966,18498015,2157,35.522928,-97.958573
27290,"Elroy, TX Urban Cluster",48021,3708,1049,11290735,0,30.128197,-97.592702
27300,"Elverson, PA Urban Cluster",42011,3697,1523,7411875,29195,40.154279,-75.865131
27307,"Elwood, IN Urban Cluster",18095,9421,4465,13452178,0,40.274226,-85.839502
27334,"Ely, MN Urban Cluster",27137,3459,2020,6991618,13704,47.905099,-91.853013
27361,"Ely, NV Urban Cluster",32033,4681,2331,6579854,0,39.248028,-114.874529
27372,"Emajagua, PR Urban Cluster",72095,9231,4129,14250817,3536,18.010928,-65.911486
27380,"Emerald Bay, TX Urban Cluster",48423,3182,1716,11383645,333362,32.173995,-95.427796
27442,"Emmetsburg, IA Urban Cluster",19147,3628,1715,4855027,0,43.113788,-94.683236
27469,"Emmett, ID Urban Cluster",16045,9192,3995,14558895,101741,43.878179,-116.490113
27496,"Emmitsburg, MD--PA Urban Cluster",24021,6366,2164,13379495,20186,39.723106,-77.360676
27523,"Emporia, KS Urban Cluster",20111,24830,11323,28729004,498155,38.4114,-96.19078
27550,"Emporia, VA Urban Cluster",51595,7143,2990,14984906,19986,36.698482,-77.545666
27577,"Emporium, PA Urban Cluster",42023,2677,1431,3532999,218920,41.510729,-78.243422
27592,"Enfield, NC Urban Cluster",37083,2672,1189,3435501,0,36.179194,-77.67075
27604,"England, AR Urban Cluster",05085,2762,1246,3891501,0,34.545894,-91.964512
27631,"Enid, OK Urban Cluster",40047,47609,21075,62160760,31297,36.401999,-97.89186
27658,"Ennis, TX Urban Cluster",48139,18258,6518,25288686,196205,32.332346,-96.630807
27685,"Enterprise, AL Urban Cluster",01031,36427,15863,92142203,151495,31.328965,-85.794087
27712,"Ephraim, UT Urban Cluster",49039,5781,1636,5702821,0,39.357377,-111.581384
27739,"Ephrata, WA Urban Cluster",53025,6956,2840,7514761,0,47.312636,-119.550194
27750,"Epping, NH Urban Cluster",33015,3490,1291,11673229,0,43.039717,-71.06705
27766,"Erie, PA Urbanized Area",42049,196611,85558,212710301,453625,42.08554,-80.114855
27793,"Erwin, TN Urban Cluster",47171,9788,4556,16819199,116909,36.143997,-82.408735
27820,"Escalon, CA Urban Cluster",06077,7157,2619,5098787,0,37.792464,-120.995505
27847,"Escanaba, MI Urban Cluster",26041,20850,9981,46643396,283456,45.795922,-87.094594
27874,"Espanola, NM Urban Cluster",35039,26418,11368,74151284,629420,36.086731,-106.057706
27885,"Esparto, CA Urban Cluster",06113,3277,1063,4229347,0,38.695279,-122.019465
27901,"Estacada, OR Urban Cluster",41005,3838,1572,7371607,40488,45.298665,-122.333397
27928,"Estes Park, CO Urban Cluster",08069,7082,4885,19396197,48605,40.363508,-105.518915
27955,"Estherville, IA Urban Cluster",19063,6192,2790,7461182,0,43.404042,-94.834568
27991,"Estrella, AZ Urban Cluster",04013,11108,4197,18873347,0,33.328768,-112.442969
28009,"Etowah, TN Urban Cluster",47107,4129,2064,8691643,0,35.336866,-84.52521
28063,"Eudora, KS Urban Cluster",20045,6140,2309,6512373,103333,38.932378,-95.096848
28090,"Eufaula, AL--GA Urban Cluster",01005,9520,4469,19507985,1469818,31.879574,-85.141788
28117,"Eugene, OR Urbanized Area",41039,247421,108056,225265401,118851,44.065995,-123.076636
28144,"Eunice, LA Urban Cluster",22097,11940,5163,21872163,78619,30.491126,-92.419264
28171,"Eunice, NM Urban Cluster",35025,2826,1222,2942288,0,32.439505,-103.159026
28198,"Eureka, CA Urban Cluster",06023,45034,19912,48039740,3956380,40.777356,-124.169828
28225,"Eureka, IL Urban Cluster",17203,5573,2129,6756989,124341,40.713988,-89.274949
28252,"Eureka, KS Urban Cluster",20073,2591,1388,3823720,0,37.82374,-96.290832
28262,"Eureka, MO Urban Cluster",29189,11260,3696,25189253,283702,38.499469,-90.632649
28306,"Evanston, WY Urban Cluster",56041,12017,4983,18203895,90192,41.260088,-110.963739
28333,"Evansville, IN--KY Urbanized Area",18163,229351,104388,307632463,3253892,37.978539,-87.537393
28360,"Evansville, WI Urban Cluster",55105,5669,2313,7985723,0,42.777863,-89.296152
28387,"Evarts, KY Urban Cluster",21095,2646,1074,3832826,217594,36.872969,-83.179126
28414,"Everett, PA Urban Cluster",42009,3220,1581,4966546,48380,40.013306,-78.373013
28431,"Evergreen, AL Urban Cluster",01035,2520,1213,5618288,9861,31.429395,-86.95576
28441,"Evergreen, CO Urban Cluster",08059,13556,5946,35230655,233872,39.658971,-105.311351
28468,"Everson, WA Urban Cluster",53073,4330,1474,7901141,109861,48.90854,-122.346099
28495,"Excelsior Springs, MO Urban Cluster",29047,10943,4713,18041442,127810,39.344176,-94.233468
28522,"Fabens, TX Urban Cluster",48141,8042,2389,4336907,5386,31.505886,-106.153246
28549,"Fairbanks, AK Urbanized Area",02090,64513,25869,142841989,4461962,64.801958,-147.705736
28576,"Fairbury, IL Urban Cluster",17105,3784,1636,3753233,16338,40.746182,-88.51242
28603,"Fairbury, NE Urban Cluster",31095,3912,2133,5257837,0,40.142463,-97.177618
28624,"Fairdale, PA Urban Cluster",42059,4166,1960,9122621,15557,39.883491,-79.961893
28657,"Fairfield, CA Urbanized Area",06095,133683,46751,102311929,334969,38.259143,-122.036061
28684,"Fairfield, IL Urban Cluster",17191,5039,2654,7434972,57906,38.380391,-88.369938
28711,"Fairfield, IA Urban Cluster",19101,10320,4535,17839363,346137,41.009422,-91.95404
28738,"Fairfield, TX Urban Cluster",48161,3280,1424,11878828,0,31.725266,-96.16906
28765,"Fairfield Glade, TN Urban Cluster",47035,5584,3833,16184725,1598190,36.001001,-84.878962
28782,"Fairfield Harbour, NC Urban Cluster",37049,2726,1703,5869006,362648,35.078938,-76.970761
28819,"Fair Haven, VT Urban Cluster",50021,4181,1542,8718049,49030,43.596279,-73.238454
28846,"Fairmont, MN Urban Cluster",27091,9578,4703,16692640,4792370,43.640051,-94.466611
28860,"Fairmont, NC Urban Cluster",37155,2507,1179,5004783,0,34.496695,-79.116051
28873,"Fairmont, WV Urban Cluster",54049,33409,16075,67658772,2338084,39.469497,-80.149881
28900,"Fairmount, IN Urban Cluster",18053,2942,1342,3421263,0,40.416181,-85.648626
28954,"Fairview, TN Urban Cluster",47187,6373,2342,15974697,47761,35.969925,-87.125559
28981,"Fajardo, PR Urbanized Area",72053,85225,43282,131584324,354976,18.282618,-65.711953
29008,"Falfurrias, TX Urban Cluster",48047,4929,2119,5349323,0,27.223874,-98.146944
29035,"Fallon, NV Urban Cluster",32001,16241,7098,36720850,18327,39.486754,-118.794249
29062,"Falls City, NE Urban Cluster",31147,4133,2127,4789066,0,40.061254,-95.600291
29089,"Fargo, ND--MN Urbanized Area",38017,176676,78728,181801751,133673,46.86245,-96.82068
29116,"Faribault, MN Urban Cluster",27131,23696,9099,29461618,592056,44.29407,-93.281853
29143,"Farmersville, TX Urban Cluster",48085,3138,1234,4979282,1099,33.166485,-96.362719
29170,"Farmerville, LA Urban Cluster",22111,3883,1644,12937849,0,32.773269,-92.400835
29224,"Farmington, ME Urban Cluster",23007,3819,1601,5723207,20706,44.671915,-70.148576
29251,"Farmington, MO Urban Cluster",29187,39370,15256,58952417,153305,37.838181,-90.485144
29265,"Farmington, NH Urban Cluster",33017,2957,1268,3614410,0,43.390571,-71.065085
29278,"Farmington, NM Urbanized Area",35045,53049,20250,91473035,466227,36.745269,-108.160222
29305,"Farmville, NC Urban Cluster",37147,4815,2254,9089460,50344,35.584367,-77.589448
29332,"Farmville, VA Urban Cluster",51147,8999,2929,17850998,180777,37.286016,-78.39096
29359,"Fayette, AL Urban Cluster",01057,3408,1591,7298048,0,33.694826,-87.830734
29413,"Fayette, MO Urban Cluster",29089,2654,1072,4058636,13515,39.148113,-92.688363
29440,"Fayetteville, NC Urbanized Area",37051,310282,131234,513078427,5422448,35.052628,-78.97684
29467,"Fayetteville, TN Urban Cluster",47103,9178,4337,25113943,0,35.115318,-86.574431
29494,"Fayetteville--Springdale--Rogers, AR--MO Urbanized Area",05143,295083,125257,486610656,5970737,36.267415,-94.179758
29510,"Fearrington Village, NC Urban Cluster",37037,2642,1601,6028378,23451,35.800108,-79.086445
29521,"Federalsburg, MD Urban Cluster",24011,3190,1396,5106851,52160,38.69612,-75.771249
29548,"Fellsmere, FL Urban Cluster",12061,5294,1443,4874227,0,27.76795,-80.594632
29575,"Fergus Falls, MN Urban Cluster",27111,12081,5882,15831662,1318518,46.289201,-96.069742
29602,"Fernandina Beach, FL Urban Cluster",12089,25239,15126,62388821,85566,30.641696,-81.550684
29656,"Fernley, NV Urban Cluster",32019,18979,7829,26695195,0,39.598047,-119.228975
29683,"Ferriday, LA Urban Cluster",22029,5931,2024,11659127,0,31.6388,-91.556864
29698,"Filer, ID Urban Cluster",16083,2639,1050,2928861,1682,42.565842,-114.613149
29710,"Fillmore, CA Urban Cluster",06111,15081,4429,6966244,1775,34.4019,-118.91565
29737,"Findlay, OH Urban Cluster",39063,48441,22272,61773195,404737,41.052564,-83.640581
29764,"Firebaugh, CA Urban Cluster",06019,7281,2012,3757142,0,36.860053,-120.459006
29775,"Firestone--Frederick, CO Urban Cluster",08123,21474,7509,26294826,189947,40.118686,-104.944081
29791,"Fitzgerald, GA Urban Cluster",13017,11638,5167,22744401,537923,31.712975,-83.257838
29818,"Flagstaff, AZ Urbanized Area",04005,71957,28672,90134072,59774,35.1995,-111.623994
29845,"Flemingsburg, KY Urban Cluster",21069,2795,1441,5187667,11829,38.423585,-83.734951
29872,"Flint, MI Urbanized Area",26049,356218,164933,611011529,18822831,42.988756,-83.694698
29899,"Flora, IL Urban Cluster",17025,4872,2269,5907560,0,38.671793,-88.485968
29953,"Florence, AL Urbanized Area",01077,77074,37040,161204491,1787494,34.880869,-87.670032
29980,"Florence, AZ Urban Cluster",04021,16586,3330,7499413,1075,33.060988,-111.376412
30007,"Florence, CO Urban Cluster",08043,7314,1907,10075022,0,38.39098,-105.1234
30034,"Florence, OR Urban Cluster",41039,10177,6354,18783463,57546,43.994236,-124.108268
30061,"Florence, SC Urbanized Area",45041,89557,39135,183828914,1317416,34.202201,-79.809021
30088,"Floresville, TX Urban Cluster",48493,6068,2142,9684432,13906,29.14131,-98.156623
30115,"Florida--Imbéry--Barceloneta, PR Urbanized Area",72013,71747,30256,118669502,48143,18.417749,-66.599266
30142,"Floydada, TX Urban Cluster",48153,3009,1375,4296958,0,33.983179,-101.338075
30171,"Foley, AL Urban Cluster",01003,26469,19264,78132122,3380262,30.349787,-87.686189
30196,"Folkston, GA Urban Cluster",13049,5961,1769,12444170,166069,30.839274,-82.002682
30223,"Fond du Lac, WI Urbanized Area",55039,54901,24309,74810485,849257,43.781484,-88.441302
30250,"Fordyce, AR Urban Cluster",05039,3844,1768,10823078,0,33.817036,-92.418674
30277,"Forest, MS Urban Cluster",28123,4887,1806,9342386,0,32.365026,-89.473093
30304,"Forest City, IA Urban Cluster",19189,3966,1809,6877518,0,43.261332,-93.640226
30331,"Forest City, NC Urban Cluster",37161,26418,12344,90868611,213173,35.330746,-81.877374
30358,"Forest Lake, MN Urban Cluster",27163,21816,8741,46346488,12485571,45.285152,-92.960338
30385,"Forestville, CA Urban Cluster",06097,5144,2546,11224865,71200,38.473858,-122.893091
30412,"Forks, WA Urban Cluster",53009,3940,1528,6288410,0,47.950823,-124.382433
30439,"Forney, TX Urban Cluster",48257,27051,8907,48401599,75353,32.733207,-96.433992
30466,"Forrest City, AR Urban Cluster",05123,13690,4210,15104711,29094,35.009508,-90.785982
30493,"Forsyth, GA Urban Cluster",13207,4834,1882,10649330,41820,33.039209,-83.947849
30520,"Forsyth, MO Urban Cluster",29213,6836,3461,14810979,30135,36.726291,-93.193555
30547,"Fort Atkinson, WI Urban Cluster",55055,21105,9095,28966773,845492,43.005642,-88.827621
30574,"Fort Bragg, CA Urban Cluster",06045,10348,4725,20224174,498318,39.422456,-123.786707
30601,"Fort Branch, IN Urban Cluster",18051,4379,1958,4757302,47251,38.241076,-87.580317
30628,"Fort Collins, CO Urbanized Area",08069,264465,110523,282422437,16268972,40.499545,-105.058836
30655,"Fort Defiance, AZ--NM Urban Cluster",04001,3602,1218,7386357,0,35.744301,-109.059913
30682,"Fort Dodge, IA Urban Cluster",19187,25122,11147,33098249,138465,42.510479,-94.183965
30736,"Fort Irwin, CA Urban Cluster",06071,8845,2487,7751669,0,35.26146,-116.690324
