GEOID,Name,Short Name,CSA,Population,Housing Units,Land Area,Water Area,Latitude,Longitude
10100,"Aberdeen, SD","Aberdeen, SD",,42292,19896,2839.011,43.006,45.519435,-98.7007
10140,"Aberdeen, WA","Aberdeen, WA",,75672,36204,1901.463,322.14,47.113732,-123.826735
10180,"Abilene, TX","Abilene, TX",101,176656,74540,2743.514,14.192,32.452022,-99.718743
10220,"Ada, OK","Ada, OK",,38116,17424,720.353,4.913,34.721421,-96.691804
10300,"Adrian, MI","Adrian, MI",220,99263,43634,749.638,11.765,41.896022,-84.074356
10380,"Aguadilla, PR","Aguadilla, PR",364,252774,122000,297.057,136.832,18.391555,-67.097202
10420,"Akron, OH","Akron, OH",184,700578,317333,900.201,23.99,41.146639,-81.35011
10460,"Alamogordo, NM","Alamogordo, NM",,67850,32244,6612.562,14.264,32.615599,-105.751308
10480,"Alamosa, CO","Alamosa, CO",,27547,13540,3237.667,7.619,37.32264,-105.774242
10500,"Albany, GA","Albany, GA",,147716,66791,1590.971,17.853,31.644686,-84.110718
10540,"Albany, OR","Albany, OR",440,128598,52145,2289.508,19.356,44.488898,-122.537208
10580,"Albany-Schenectady-Troy, NY","Albany, NY",104,901729,417778,2811.804,66.421,42.78792,-73.942348
10620,"Albemarle, NC","Albemarle, NC",172,62723,27802,395.08,9.724,35.310449,-80.254374
10660,"Albert Lea, MN","Albert Lea, MN",,30857,14150,707.245,15.176,43.674202,-93.350289
10700,"Albertville, AL","Albertville, AL",290,97923,41328,565.845,57.335,34.309564,-86.321668
10740,"Albuquerque, NM","Albuquerque, NM",105,915968,395967,9283.397,12.282,35.123496,-106.458392
10760,"Alexander City, AL","Alexander City, AL",194,41251,22777,716.528,49.726,32.863308,-85.799618
10780,"Alexandria, LA","Alexandria, LA",,151721,67099,1967.86,58.472,31.325348,-92.546803
10820,"Alexandria, MN","Alexandria, MN",,39081,21881,636.878,83.3,45.936835,-95.462155
10860,"Alice, TX","Alice, TX",204,46119,19851,1808.531,3.654,27.359741,-98.157214
10900,"Allentown-Bethlehem-Easton, PA-NJ","Allentown, PA",106,863166,358340,1453.024,22.494,40.789339,-75.398158
10940,"Alma, MI","Alma, MI",394,41534,16060,568.381,3.231,43.292326,-84.60469
10980,"Alpena, MI","Alpena, MI",,28911,15685,571.899,1123.027,44.894954,-83.426574
11020,"Altoona, PA","Altoona, PA",107,122640,55808,525.067,1.272,40.498683,-78.309597
11060,"Altus, OK","Altus, OK",,24776,12041,802.653,1.589,34.594006,-99.412235
11100,"Amarillo, TX","Amarillo, TX",108,269278,113931,5150.981,32.797,35.247999,-101.90867
11140,"Americus, GA","Americus, GA",,33943,15443,649.786,10.649,32.098355,-84.224304
11180,"Ames, IA","Ames, IA",218,125273,53297,1143.005,4.275,42.036128,-93.698008
11200,"Amherst Town-Northampton, MA","Amherst Town, MA",521,153931,66174,527.236,18.002,42.339459,-72.663694
11220,"Amsterdam, NY","Amsterdam, NY",104,49624,22924,403.111,7.187,42.900891,-74.435357
11260,"Anchorage, AK","Anchorage, AK",,399335,169429,26414.311,797.89,62.212784,-149.678222
11360,"Anderson Creek, NC","Anderson Creek, NC",450,134718,53252,595.066,6.351,35.36866,-78.871665
11380,"Andrews, TX","Andrews, TX",372,18362,6976,1500.686,0.405,32.312258,-102.640206
11420,"Angola, IN","Angola, IN",258,34507,18982,308.78,13.686,41.643467,-85.002405
11460,"Ann Arbor, MI","Ann Arbor, MI",220,370231,157103,706.003,16.418,42.252217,-83.843423
11500,"Anniston-Oxford, AL","Anniston, AL",,116162,53167,605.89,6.384,33.770516,-85.827909
11540,"Appleton, WI","Appleton, WI",118,242972,101081,955.807,85.878,44.290603,-88.372326
11580,"Arcadia, FL","Arcadia, FL",412,34258,15567,636.695,2.411,27.190581,-81.806253
11620,"Ardmore, OK","Ardmore, OK",,48202,21609,822.301,11.48,34.251848,-97.287927
11640,"Arecibo, PR","Arecibo, PR",490,181820,82767,236.754,89.516,18.439224,-66.759981
11660,"Arkadelphia, AR","Arkadelphia, AR",,21469,10039,865.971,16.975,34.053316,-93.176208
11680,"Arkansas City-Winfield, KS","Arkansas City, KS",556,34661,15626,1125.738,6.688,37.234507,-96.837247
11700,"Asheville, NC","Asheville, NC",120,407332,197917,1479.053,7.466,35.61634,-82.570683
11740,"Ashland, OH","Ashland, OH",360,52522,22491,422.986,3.849,40.843273,-82.270127
11820,"Astoria, OR","Astoria, OR",,41190,23060,828.239,255.358,46.024509,-123.705037
11860,"Atchison, KS","Atchison, KS",312,16309,6817,431.174,2.645,39.532544,-95.313397
11900,"Athens, OH","Athens, OH",198,61276,26420,503.643,4.774,39.332755,-82.045885
11940,"Athens, TN","Athens, TN",174,66371,30020,625.252,23.583,35.451963,-84.682714
11980,"Athens, TX","Athens, TX",206,82627,40933,873.773,74.654,32.211633,-95.853418
12020,"Athens-Clarke County, GA","Athens, GA",122,216194,89626,1025.027,10.115,33.943984,-83.213897
12060,"Atlanta-Sandy Springs-Roswell, GA","Atlanta, GA",122,6109481,2425858,8785.566,148.339,33.732402,-84.392848
12100,"Atlantic City-Hammonton, NJ","Atlantic City, NJ",428,369795,231311,807.099,485.043,39.286186,-74.738311
12140,"Auburn, IN","Auburn, IN",258,43312,18157,362.834,1.026,41.39676,-85.002697
12180,"Auburn, NY","Auburn, NY",532,76171,36701,691.589,172.082,43.008546,-76.574587
12220,"Auburn-Opelika, AL","Auburn, AL",194,194324,85135,1216.21,12.848,32.492206,-85.527127
12260,"Augusta-Richmond County, GA-SC","Augusta, GA",,612898,264985,3480.704,101.313,33.460371,-81.982833
12300,"Augusta-Waterville, ME","Augusta, ME",,124003,62778,867.472,83.702,44.417012,-69.765764
12380,"Austin, MN","Austin, MN",462,40082,16933,711.273,0.238,43.666249,-92.759514
12420,"Austin-Round Rock-San Marcos, TX","Austin, TX",,2296377,960087,4219.753,57.977,30.249744,-97.649842
12460,"Bainbridge, GA","Bainbridge, GA",533,29063,13018,597.239,25.929,30.880643,-84.58389
12520,"Baker City, OR","Baker City, OR",,16685,8671,3067.967,20.013,44.703427,-117.691933
12540,"Bakersfield-Delano, CA","Bakersfield, CA",,906883,301687,8134.673,30.244,35.346629,-118.729506
12580,"Baltimore-Columbia-Towson, MD","Baltimore, MD",548,2840005,1190378,2601.47,503.548,39.304361,-76.549501
12620,"Bangor, ME","Bangor, ME",,152640,75119,3397.182,159.855,45.409284,-68.666616
12660,"Baraboo, WI","Baraboo, WI",357,65664,30907,831.587,17.598,43.428001,-89.943318
12700,"Barnstable Town, MA","Barnstable Town, MA",148,229436,165068,394.2,911.341,41.706123,-70.164823
12740,"Barre, VT","Barre, VT",162,59768,30697,687.06,8.308,44.274969,-72.609444
12780,"Bartlesville, OK","Bartlesville, OK",538,52579,23738,415.524,8.831,36.704403,-95.906253
12860,"Batavia, NY","Batavia, NY",464,58204,26039,492.976,2.369,43.00091,-78.192778
12900,"Batesville, AR","Batesville, AR",,37910,16689,763.712,7.819,35.737499,-91.559942
12940,"Baton Rouge, LA","Baton Rouge, LA",132,869755,376612,4370.701,202.075,30.515242,-91.126926
12980,"Battle Creek, MI","Battle Creek, MI",310,134011,59634,706.262,12.068,42.24299,-85.012385
13020,"Bay City, MI","Bay City, MI",474,103752,48598,442.409,188.307,43.699711,-83.978701
13060,"Bay City, TX","Bay City, TX",288,36251,18674,1093.122,519.39,28.77476,-96.001532
13100,"Beatrice, NE","Beatrice, NE",339,21654,10364,851.468,8.492,40.255234,-96.683453
13140,"Beaumont-Port Arthur, TX","Beaumont, TX",,396279,170491,2101.097,288.637,30.075928,-94.202705
13180,"Beaver Dam, WI","Beaver Dam, WI",376,89032,38150,875.699,31.402,43.429628,-88.701939
13220,"Beckley, WV","Beckley, WV",,114848,53935,1266.931,10.675,37.905659,-81.163748
13260,"Bedford, IN","Bedford, IN",144,45113,20538,449.146,2.783,38.839815,-86.48782
13300,"Beeville, TX","Beeville, TX",,30977,10591,880.239,0.095,28.416077,-97.742586
13340,"Bellefontaine, OH","Bellefontaine, OH",198,46098,23711,458.505,8.338,40.387553,-83.766343
13380,"Bellingham, WA","Bellingham, WA",,226523,100394,2107.949,396.925,48.842653,-121.836432
13420,"Bemidji, MN","Bemidji, MN",,46274,21403,2504.643,550.487,47.879508,-95.00505
13460,"Bend, OR","Bend, OR",,248998,116448,7778.235,54.805,44.153837,-120.887072
13540,"Bennington, VT","Bennington, VT",,37326,20857,674.236,2.663,43.035328,-73.111496
13660,"Big Rapids, MI","Big Rapids, MI",266,40128,20986,555.155,16.087,43.635295,-85.332751
13700,"Big Spring, TX","Big Spring, TX",,34488,13974,900.791,3.414,32.30343,-101.438721
13740,"Billings, MT","Billings, MT",,185147,83308,6477.784,38.393,45.63714,-108.832361
13780,"Binghamton, NY","Binghamton, NY",,246709,114505,1224.417,13.947,42.163928,-76.022943
13820,"Birmingham, AL","Birmingham, AL",142,1179346,519569,5279.778,89.994,33.462372,-86.814338
13860,"Bishop, CA","Bishop, CA",,18829,9471,10197.261,29.838,36.56216,-117.404209
13900,"Bismarck, ND","Bismarck, ND",,133467,59060,4280.986,63.745,46.887031,-100.979592
13940,"Blackfoot, ID","Blackfoot, ID",292,48253,17028,2093.732,26.499,43.216357,-112.399206
13980,"Blacksburg-Christiansburg-Radford, VA","Blacksburg, VA",,181836,81397,1454.51,17.544,37.121364,-80.531517
14010,"Bloomington, IL","Bloomington, IL",145,171284,74822,1183.248,3.013,40.494559,-88.844539
14020,"Bloomington, IN","Bloomington, IN",144,161426,73842,779.817,19.336,39.241736,-86.671754
14100,"Bloomsburg-Berwick, PA","Bloomsburg, PA",146,64924,29695,483.259,7.172,41.045517,-76.40426
14140,"Bluefield, WV-VA","Bluefield, WV",,99922,49241,937.753,2.843,37.248463,-81.359375
14180,"Blytheville, AR","Blytheville, AR",,40361,19194,902.093,27.886,35.766944,-90.052207
14220,"Bogalusa, LA","Bogalusa, LA",406,45514,21420,669.637,6.232,30.852144,-90.046253
14260,"Boise City, ID","Boise City, ID",147,771602,298787,11766.594,66.024,43.006648,-116.141909
14300,"Bonham, TX","Bonham, TX",206,36052,14667,890.835,8.049,33.591161,-96.104988
14380,"Boone, NC","Boone, NC",,54540,32783,312.44,0.877,36.235368,-81.709888
14420,"Borger, TX","Borger, TX",108,20595,10190,887.424,7.528,35.837047,-101.362746
14460,"Boston-Cambridge-Newton, MA-NH","Boston, MA",148,4912449,2033504,3486.099,1025.042,42.517606,-71.021993
14500,"Boulder, CO","Boulder, CO",216,328658,141007,726.385,14.086,40.094966,-105.397702
14540,"Bowling Green, KY","Bowling Green, KY",150,180624,78171,1614.365,24.541,37.046804,-86.397398
14580,"Bozeman, MT","Bozeman, MT",,119685,53605,2605.353,28.422,45.518054,-111.163921
14620,"Bradford, PA","Bradford, PA",,40459,19530,979.694,5.033,41.81459,-78.572463
14660,"Brainerd, MN","Brainerd, MN",,96846,65932,3019.823,550.7,46.767291,-94.223862
14700,"Branson, MO","Branson, MO",,56202,29643,632.263,19.344,36.649827,-93.042819
14710,"Brattleboro, VT","Brattleboro, VT",313,45857,29978,785.959,12.709,42.995304,-72.721877
14720,"Breckenridge, CO","Breckenridge, CO",,38358,35518,985.247,17.924,39.47505,-106.202071
14740,"Bremerton-Silverdale-Port Orchard, WA","Bremerton, WA",500,275411,113930,395.111,170.72,47.639595,-122.649634
14780,"Brenham, TX","Brenham, TX",288,35807,17083,604.194,17.557,30.215075,-96.410272
14820,"Brevard, NC","Brevard, NC",120,33131,19072,378.358,1.966,35.210103,-82.816666
14860,"Bridgeport-Stamford-Danbury, CT","Bridgeport, CT",408,947047,374317,672.308,213.881,41.252442,-73.393266
14940,"Brigham City, UT-ID","Brigham City, UT",482,62863,21820,6980.255,949.485,41.622623,-113.060252
15020,"Brookhaven, MS","Brookhaven, MS",298,34855,15817,586.207,2.043,31.535216,-90.453566
15060,"Brookings, OR","Brookings, OR",152,23404,13055,1628.383,360.856,42.466439,-124.210929
15100,"Brookings, SD","Brookings, SD",,34631,14882,792.217,12.719,44.376675,-96.797797
15180,"Brownsville-Harlingen, TX","Brownsville, TX",154,421854,155572,891.719,387.967,26.102923,-97.478958
15220,"Brownwood, TX","Brownwood, TX",,38159,18946,944.452,12.5,31.764137,-98.998456
15260,"Brunswick-St. Simons, GA","Brunswick, GA",,113854,57405,1294.218,312.195,31.301739,-81.588909
15340,"Bucyrus, OH","Bucyrus, OH",360,41861,19868,401.786,0.911,40.848524,-82.924783
15380,"Buffalo-Cheektowaga, NY","Buffalo, NY",160,1163462,538812,1565.111,801.412,43.044371,-78.777335
15420,"Burley, ID","Burley, ID",,46485,17234,3322.606,20.497,42.369199,-113.642424
15460,"Burlington, IA-IL","Burlington, IA",161,45198,22178,794.922,30.08,40.863823,-91.069976
15500,"Burlington, NC","Burlington, NC",268,171779,74055,423.455,10.785,36.043954,-79.400573
15540,"Burlington-South Burlington, VT","Burlington, VT",162,225745,101187,1249.58,253.545,44.689115,-73.041175
15580,"Butte-Silver Bow, MT","Butte, MT",,35306,17303,717.99,0.58,45.896232,-112.660071
15620,"Cadillac, MI","Cadillac, MI",,48855,25143,1129.713,19.603,44.328738,-85.326429
15660,"Calhoun, GA","Calhoun, GA",122,57785,22876,356.443,2.212,34.509667,-84.873862
15700,"Cambridge, MD","Cambridge, MD",548,32557,16400,540.765,442.223,38.429196,-76.047433
15740,"Cambridge, OH","Cambridge, OH",198,38409,19051,522.242,6.049,40.056665,-81.497875
15780,"Camden, AR","Camden, AR",,27379,14401,1361.322,10.838,33.567513,-92.708217
15820,"Campbellsville, KY","Campbellsville, KY",,37254,16479,552.377,13.236,37.315476,-85.442981
15860,"Cañon City, CO","Cañon City, CO",444,49107,20302,1533.835,0.863,38.45517,-105.424958
15900,"Canton, IL","Canton, IL",427,33691,15895,865.683,16.96,40.46524,-90.202269
15940,"Canton-Massillon, OH","Canton, OH",184,400960,180475,969.819,9.573,40.711051,-81.261468
15980,"Cape Coral-Fort Myers, FL","Cape Coral, FL",163,772902,419916,781.026,733.802,26.563273,-81.984182
16020,"Cape Girardeau, MO-IL","Cape Girardeau, MO",164,97622,43585,1431.815,28.361,37.325936,-89.762639
16060,"Carbondale, IL","Carbondale, IL",166,53176,27835,583.57,18.653,37.786096,-89.381212
16100,"Carlsbad-Artesia, NM","Carlsbad, NM",,61264,26261,4176.347,21.812,32.457835,-104.306434
16140,"Carroll, IA","Carroll, IA",,20728,9515,569.453,0.828,42.039502,-94.86765
16180,"Carson City, NV","Carson City, NV",456,58249,24633,144.534,12.585,39.15306,-119.747368
16220,"Casper, WY","Casper, WY",,79506,36936,5340.537,35.124,42.977645,-106.768219
16260,"Cedar City, UT","Cedar City, UT",,58068,22028,3296.167,4.398,37.909304,-113.30674
16300,"Cedar Rapids, IA","Cedar Rapids, IA",168,275693,121181,2008.731,11.381,42.086289,-91.631095
16340,"Cedartown, GA","Cedartown, GA",122,43019,17235,310.34,1.801,33.996015,-85.188338
16380,"Celina, OH","Celina, OH",338,42321,17898,462.447,10.978,40.535333,-84.632059
16460,"Centralia, IL","Centralia, IL",476,37543,17431,572.538,3.565,38.648236,-88.920362
16500,"Centralia, WA","Centralia, WA",500,82663,35604,2402.782,33.564,46.580071,-122.377444
16540,"Chambersburg, PA","Chambersburg, PA",548,156084,66443,772.297,0.6,39.926772,-77.724521
16580,"Champaign-Urbana, IL","Champaign, IL",169,236707,107087,1920.889,3.284,40.234489,-88.298623
16620,"Charleston, WV","Charleston, WV",170,209649,104686,1746.023,12.828,38.283213,-81.492557
16660,"Charleston-Mattoon, IL","Charleston, IL",,47076,22786,508.272,1.795,39.51368,-88.220782
16700,"Charleston-North Charleston, SC","Charleston, SC",,803398,362156,2590.181,581.791,33.01754,-80.009947
16740,"Charlotte-Concord-Gastonia, NC-SC","Charlotte, NC",172,2668688,1115218,5597.522,116.43,35.166342,-80.797285
16820,"Charlottesville, VA","Charlottesville, VA",,221648,98578,1644.527,13.777,37.949084,-78.593206
16860,"Chattanooga, TN-GA","Chattanooga, TN",174,564466,248863,2088.793,48.919,35.049361,-85.361158
16940,"Cheyenne, WY","Cheyenne, WY",,100316,44389,2685.864,1.679,41.29283,-104.660395
16980,"Chicago-Naperville-Elgin, IL-IN","Chicago, IL",176,9398262,3870087,6923.14,1901.361,41.75878,-87.841887
17020,"Chico, CA","Chico, CA",,213605,93069,1636.49,40.641,39.665336,-121.603209
17060,"Chillicothe, OH","Chillicothe, OH",198,76957,32051,689.166,3.859,39.323895,-83.059538
17140,"Cincinnati, OH-KY-IN","Cincinnati, OH",178,2246487,956302,4385.182,80.61,39.078585,-84.463514
17220,"Clarksburg, WV","Clarksburg, WV",242,90311,41304,908.502,4.171,39.28835,-80.43153
17260,"Clarksdale, MS","Clarksdale, MS",368,21264,10200,553.102,29.933,34.230316,-90.60401
17300,"Clarksville, TN-KY","Clarksville, TN",,322949,130784,2158.038,84.178,36.69571,-87.624307
17340,"Clearlake, CA","Clearlake, CA",,68024,34313,1255.082,73.012,39.108009,-122.745217
17380,"Cleveland, MS","Cleveland, MS",,30688,13685,876.507,31.447,33.799139,-90.88412
17410,"Cleveland, OH","Cleveland, OH",184,2177425,1014765,2701.446,2645.868,41.667548,-81.43052
17420,"Cleveland, TN","Cleveland, TN",174,126479,53605,763.367,10.373,35.138117,-84.655079
17500,"Clewiston, FL","Clewiston, FL",163,52081,21781,1962.772,213.851,26.739191,-81.184001
17540,"Clinton, IA","Clinton, IA",209,46488,21575,694.959,15.217,41.898073,-90.534243
17580,"Clovis, NM","Clovis, NM",,67469,29666,3851.575,10.298,34.221551,-103.431242
17620,"Coamo, PR","Coamo, PR",434,54764,25113,112.063,42.909,18.028709,-66.369763
17640,"Coco, PR","Coco, PR",490,25688,12874,69.404,44.717,17.971485,-66.262252
17650,"Cody, WY","Cody, WY",,29878,14622,6939.039,26.115,44.492387,-109.593597
17660,"Coeur d'Alene, ID","Coeur d'Alene, ID",518,173396,75686,1237.78,71.215,47.675957,-116.695919
17740,"Coldwater, MI","Coldwater, MI",,44795,20776,506.411,13.293,41.918455,-85.066885
17780,"College Station-Bryan, TX","College Station, TX",,269418,115179,2100.375,33.431,30.754392,-96.488537
17820,"Colorado Springs, CO","Colorado Springs, CO",,755081,303174,2683.557,4.643,38.845507,-104.638728
17860,"Columbia, MO","Columbia, MO",190,211078,91879,1714.102,17.588,38.986486,-92.585189
17900,"Columbia, SC","Columbia, SC",192,831913,368116,3703.09,130.74,34.077585,-81.037845
17980,"Columbus, GA-AL","Columbus, GA",194,326159,143878,2786.079,31.798,32.419377,-84.843709
18020,"Columbus, IN","Columbus, IN",294,82371,35328,406.94,2.593,39.205843,-85.897999
18060,"Columbus, MS","Columbus, MS",523,68808,31718,1200.607,15.838,33.251133,-88.506349
18100,"Columbus, NE","Columbus, NE",,44782,18081,1086.578,14.528,41.574696,-97.353145
18140,"Columbus, OH","Columbus, OH",198,2137223,904907,4797.37,53.799,39.968562,-82.835911
18180,"Concord, NH","Concord, NH",148,153918,65744,932.899,22.077,43.299579,-71.680041
18220,"Connersville, IN","Connersville, IN",458,23391,10896,215.021,0.141,39.639654,-85.185034
18260,"Cookeville, TN","Cookeville, TN",,141883,63713,1520.082,16.266,36.190707,-85.463759
18300,"Coos Bay-North Bend, OR","Coos Bay, OR",,64908,31476,1596.044,210.313,43.18591,-124.094133
18340,"Corbin, KY","Corbin, KY",371,149619,64508,1727.251,20.442,36.985916,-83.966066
18380,"Cordele, GA","Cordele, GA",,20255,9926,272.68,8.266,31.920268,-83.75653
18420,"Corinth, MS","Corinth, MS",539,34717,16256,400.044,1.316,34.886569,-88.581109
18460,"Cornelia, GA","Cornelia, GA",122,46326,18491,276.867,2.19,34.634392,-83.525875
18500,"Corning, NY","Corning, NY",236,93584,47507,1390.508,13.529,42.266725,-77.385525
18580,"Corpus Christi, TX","Corpus Christi, TX",204,446235,196987,1784.635,616.707,27.894817,-97.401668
18620,"Corsicana, TX","Corsicana, TX",206,52834,21429,1009.702,76.3,32.048448,-96.476909
18660,"Cortland, NY","Cortland, NY",296,46755,20803,498.774,2.745,42.594039,-76.07624
18700,"Corvallis, OR","Corvallis, OR",440,95615,40092,675.208,2.962,44.493882,-123.424664
18740,"Coshocton, OH","Coshocton, OH",184,36629,16337,563.911,3.524,40.29671,-81.930109
18820,"Crawfordsville, IN","Crawfordsville, IN",294,38018,16504,504.647,0.798,40.040296,-86.892715
18860,"Crescent City, CA","Crescent City, CA",152,27462,11103,1006.202,223.48,41.749903,-123.980998
18880,"Crestview-Fort Walton Beach-Destin, FL","Crestview, FL",,288639,158152,1968.16,687.978,30.594941,-86.358164
18900,"Crossville, TN","Crossville, TN",,61552,30555,681.306,3.513,35.952398,-84.994761
18980,"Cullman, AL","Cullman, AL",142,88284,39182,734.739,20.282,34.131923,-86.869267
19060,"Cumberland, MD-WV","Cumberland, MD",,95118,45410,750.081,7.018,39.532185,-78.807082
19100,"Dallas-Fort Worth-Arlington, TX","Dallas, TX",206,7673379,2963281,8675.604,331.667,32.849171,-96.970489
19140,"Dalton, GA","Dalton, GA",174,143096,55293,634.939,2.818,34.796956,-84.856279
19180,"Danville, IL","Danville, IL",169,74113,34496,898.319,2.908,40.186754,-87.726778
19220,"Danville, KY","Danville, KY",,54933,23765,513.239,5.994,37.507848,-84.735684
19260,"Danville, VA","Danville, VA",,103048,51817,1011.805,10.128,36.811853,-79.400122
19300,"Daphne-Fairhope-Foley, AL","Daphne, AL",380,233420,125113,1589.863,437.41,30.659218,-87.746067
19340,"Davenport-Moline-Rock Island, IA-IL","Davenport, IA",209,382983,173868,2269.894,44.034,41.39168,-90.460076
19430,"Dayton-Kettering-Beavercreek, OH","Dayton, OH",212,812506,370302,1281.563,8.581,39.829746,-84.140992
19460,"Decatur, AL","Decatur, AL",290,156218,68594,1270.353,45.899,34.489361,-87.097147
19500,"Decatur, IL","Decatur, IL",,103542,49757,580.548,5.204,39.860237,-88.961529
19540,"Decatur, IN","Decatur, IN",258,35827,13212,338.925,1.04,40.74573,-84.936134
19580,"Defiance, OH","Defiance, OH",,38300,16563,411.439,2.742,41.321679,-84.486433
19620,"Del Rio, TX","Del Rio, TX",,47693,18551,3144.75,87.92,29.875285,-101.143324
19660,"Deltona-Daytona Beach-Ormond Beach, FL","Deltona, FL",422,676035,330161,1587.307,415.958,29.1789,-81.189023
19700,"Deming, NM","Deming, NM",,25393,11514,2965.177,0.167,32.184523,-107.747191
19740,"Denver-Aurora-Centennial, CO","Denver, CO",216,2959386,1245265,8344.629,57.654,39.434789,-104.901073
19760,"DeRidder, LA","DeRidder, LA",324,36553,15802,1157.477,8.473,30.645018,-93.340253
19780,"Des Moines-West Des Moines, IA","Des Moines, IA",218,711490,303147,3612.308,32.351,41.57705,-93.759712
19810,"Detroit Lakes, MN","Detroit Lakes, MN",,35202,19673,1315.037,130.113,46.937629,-95.741757
19820,"Detroit-Warren-Dearborn, MI","Detroit, MI",220,4375604,1905259,3892.329,342.966,42.721848,-83.200846
19860,"Dickinson, ND","Dickinson, ND",,37877,18037,4491.893,83.606,47.119444,-102.807928
19940,"Dixon, IL","Dixon, IL",221,34221,14993,724.769,3.776,41.747447,-89.299362
19980,"Dodge City, KS","Dodge City, KS",,34212,12568,1098.271,0.81,37.688416,-99.884748
20020,"Dothan, AL","Dothan, AL",222,150969,70943,1716.203,12.735,31.245528,-85.46919
20060,"Douglas, GA","Douglas, GA",,51321,20864,934.966,12.218,31.459541,-82.867327
20100,"Dover, DE","Dover, DE",428,182400,73600,586.061,212.27,39.097088,-75.502982
20140,"Dublin, GA","Dublin, GA",,58632,25530,1110.355,14.709,32.530337,-82.856611
20180,"DuBois, PA","DuBois, PA",524,79707,38157,1145.06,9.315,41.006862,-78.477724
20220,"Dubuque, IA","Dubuque, IA",,98812,42707,608.299,8.162,42.463481,-90.878771
20260,"Duluth, MN-WI","Duluth, MN",228,280576,142409,8413.579,801.797,47.329703,-92.37627
20300,"Dumas, TX","Dumas, TX",,21284,8184,899.698,9.923,35.835676,-101.890502
20340,"Duncan, OK","Duncan, OK",334,43140,20347,870.212,21.168,34.481361,-97.855607
20420,"Durango, CO","Durango, CO",,55983,28233,1689.682,9.901,37.287367,-107.839718
20460,"Durant, OK","Durant, OK",206,46528,20396,904.348,39.309,33.964004,-96.265135
20500,"Durham-Chapel Hill, NC","Durham, NC",450,586905,259293,1758.906,53.038,35.995536,-79.09699
20540,"Dyersburg, TN","Dyersburg, TN",,36818,16278,512.351,13.838,36.054196,-89.398306
20580,"Eagle Pass, TX","Eagle Pass, TX",,57806,20063,1279.476,12.302,28.729787,-100.316678
20660,"Easton, MD","Easton, MD",548,37663,19606,268.556,208.252,38.748349,-76.178476
20700,"East Stroudsburg, PA","East Stroudsburg, PA",106,168128,79377,608.361,8.751,41.05624,-75.329065
20740,"Eau Claire, WI","Eau Claire, WI",232,171951,74025,1646.278,40.186,44.938672,-91.284322
20780,"Edwards, CO","Edwards, CO",233,55650,33054,1684.47,7.323,39.626992,-106.695169
20820,"Effingham, IL","Effingham, IL",,45041,20047,824.713,2.206,39.155051,-88.437879
20900,"El Campo, TX","El Campo, TX",288,41614,17416,1086.142,8.228,29.27848,-96.229674
20940,"El Centro, CA","El Centro, CA",,179578,56907,4175.528,305.073,33.040814,-115.3554
20980,"El Dorado, AR","El Dorado, AR",,38815,18722,1039.067,16.256,33.168219,-92.598145
21020,"Elizabeth City, NC","Elizabeth City, NC",545,40454,17445,226.878,62.453,36.265199,-76.260691
21060,"Elizabethtown, KY","Elizabethtown, KY",350,125907,53405,884.939,8.821,37.651209,-85.887598
21120,"Elk City, OK","Elk City, OK",555,22295,10125,901.675,2.132,35.270601,-99.690057
21140,"Elkhart-Goshen, IN","Elkhart, IN",515,206841,79808,463.161,4.81,41.600693,-85.863986
21180,"Elkins, WV","Elkins, WV",,28005,13120,1039.7,0.258,38.781095,-79.867788
21220,"Elko, NV","Elko, NV",,55222,22835,21348.991,33.288,40.906086,-115.554577
21260,"Ellensburg, WA","Ellensburg, WA",,44424,23918,2297.272,35.717,47.124441,-120.676709
21300,"Elmira, NY","Elmira, NY",236,83584,39035,407.333,3.427,42.148697,-76.752471
21340,"El Paso, TX","El Paso, TX",238,867161,318808,5584.008,2.607,31.527394,-105.521333
21380,"Emporia, KS","Emporia, KS",,34752,16405,1620.531,12.607,38.382134,-96.359301
21420,"Enid, OK","Enid, OK",,62456,27755,1058.507,1.574,36.378132,-97.788741
21460,"Enterprise, AL","Enterprise, AL",222,53559,24155,678.986,1.509,31.402258,-85.989602
21500,"Erie, PA","Erie, PA",240,270495,119910,798.901,759.182,42.117952,-80.096386
21540,"Escanaba, MI","Escanaba, MI",,36839,19815,1171.094,820.238,45.805229,-86.901938
21580,"Española, NM","Española, NM",105,40285,19616,5860.874,35.314,36.509669,-106.693983
21640,"Eufaula, AL-GA","Eufaula, AL",,27057,13388,1036.245,28.835,31.867281,-85.335032
21660,"Eugene-Springfield, OR","Eugene, OR",,382218,166750,4554.092,168.363,43.928334,-122.897581
21700,"Eureka-Arcata, CA","Eureka, CA",,136132,62306,3568.025,484.23,40.706655,-123.926176
21740,"Evanston, WY-UT","Evanston, WY",,23089,11922,3110.479,63.99,41.412124,-110.760958
21780,"Evansville, IN","Evansville, IN",241,269191,121768,1027.416,20.113,38.049142,-87.584519
21820,"Fairbanks-College, AK","Fairbanks, AK",,96299,42772,7334.752,100.19,64.670454,-146.496061
21860,"Fairmont, MN","Fairmont, MN",,19960,9737,712.331,17.247,43.677173,-94.547096
21900,"Fairmont, WV","Fairmont, WV",242,56194,26295,308.785,2.733,39.505839,-80.243402
21980,"Fallon, NV","Fallon, NV",456,25409,10829,4950.157,73.646,39.53771,-118.264166
22020,"Fargo, ND-MN","Fargo, ND",244,251635,112931,2810.111,10.329,46.914859,-96.960183
22060,"Faribault-Northfield, MN","Faribault, MN",378,67152,25064,495.845,20.102,44.350775,-93.298513
22100,"Farmington, MO","Farmington, MO",476,66814,28780,451.886,2.787,37.810707,-90.473868
22140,"Farmington, NM","Farmington, NM",,121798,48050,5517.232,21.194,36.511624,-108.324578
22180,"Fayetteville, NC","Fayetteville, NC",246,387819,163024,1042.719,7.437,35.037956,-78.982209
22190,"Fayetteville, TN","Fayetteville, TN",290,35365,16002,570.342,0.375,35.142784,-86.593403
22220,"Fayetteville-Springdale-Rogers, AR","Fayetteville, AR",,550596,223045,2623.42,50.281,36.116394,-94.079545
22260,"Fergus Falls, MN","Fergus Falls, MN",,60072,36513,1971.635,252.693,46.405727,-95.714581
22300,"Findlay, OH","Findlay, OH",248,75072,33733,531.322,2.328,41.000217,-83.665947
22340,"Fitzgerald, GA","Fitzgerald, GA",,17169,8122,250.118,3.789,31.740772,-83.147197
22380,"Flagstaff, AZ","Flagstaff, AZ",,144705,69233,18616.354,45.034,35.829692,-111.773728
22420,"Flint, MI","Flint, MI",220,405280,183775,636.943,12.644,43.021077,-83.706372
22500,"Florence, SC","Florence, SC",,200040,90452,1361.121,9.407,34.153574,-79.806164
22520,"Florence-Muscle Shoals, AL","Florence, AL",250,151599,72414,1260.97,82.147,34.799254,-87.719388
22540,"Fond du Lac, WI","Fond du Lac, WI",,104027,45711,719.566,46.276,43.754722,-88.493284
22580,"Forest City, NC","Forest City, NC",,64680,32640,565.437,1.812,35.402747,-81.919582
22620,"Forrest City, AR","Forrest City, AR",368,23138,9653,634.784,7.729,35.022838,-90.751506
22660,"Fort Collins-Loveland, CO","Fort Collins, CO",,359363,159083,2595.747,38.242,40.658093,-105.486764
22700,"Fort Dodge, IA","Fort Dodge, IA",,36986,16981,715.704,2.807,42.433579,-94.175831
22780,"Fort Leonard Wood, MO","Fort Leonard Wood, MO",,53726,19325,547.112,4.368,37.824835,-92.207022
22800,"Fort Madison, IA","Fort Madison, IA",161,33442,15869,517.55,21.339,40.647588,-91.477157
22820,"Fort Morgan, CO","Fort Morgan, CO",,29045,11566,1280.485,13.383,40.263159,-103.81221
22840,"Fort Payne, AL","Fort Payne, AL",290,71680,30716,777.077,1.586,34.460915,-85.804021
22900,"Fort Smith, AR-OK","Fort Smith, AR",,228315,100562,1800.027,64.287,35.429088,-94.448349
23060,"Fort Wayne, IN","Fort Wayne, IN",258,447882,189593,1360.855,7.343,41.006999,-85.216424
23140,"Frankfort, IN","Frankfort, IN",320,33020,13481,405.067,0.178,40.305944,-86.477567
23180,"Frankfort, KY","Frankfort, KY",336,75314,34038,410.168,6.125,38.121449,-84.933167
23190,"Franklin, KY","Franklin, KY",150,19574,8302,234.175,2.29,36.740937,-86.581793
23240,"Fredericksburg, TX","Fredericksburg, TX",484,26953,14107,1058.202,3.475,30.325093,-98.94185
23300,"Freeport, IL","Freeport, IL",466,44482,21402,564.247,0.521,42.349726,-89.665994
23340,"Fremont, NE","Fremont, NE",420,37175,16348,528.843,14.159,41.577008,-96.645852
23380,"Fremont, OH","Fremont, OH",184,58885,26500,408.246,9.465,41.355319,-83.142776
23420,"Fresno, CA","Fresno, CA",260,1165523,389150,8095.3,69.067,36.879404,-119.668488
23460,"Gadsden, AL","Gadsden, AL",,103348,47412,535.105,13.522,34.047641,-86.034263
23500,"Gaffney, SC","Gaffney, SC",273,56200,24775,392.964,4.514,35.049796,-81.607647
23540,"Gainesville, FL","Gainesville, FL",264,341067,152302,2343.594,571.41,29.453355,-82.666257
23580,"Gainesville, GA","Gainesville, GA",122,204953,77473,392.628,36.161,34.317569,-83.8185
23620,"Gainesville, TX","Gainesville, TX",206,41860,17698,874.826,23.676,33.639196,-97.210343
23660,"Galesburg, IL","Galesburg, IL",,49751,23809,716.385,3.412,40.930945,-90.213792
23680,"Gallipolis, OH","Gallipolis, OH",,29276,13462,466.53,4.667,38.817046,-82.301746
23700,"Gallup, NM","Gallup, NM",,72073,25180,5451.064,4.899,35.584062,-108.253294
23780,"Garden City, KS","Garden City, KS",,38187,14174,1301.997,0.663,38.049808,-100.739967
23820,"Gardnerville Ranchos, NV-CA","Gardnerville Ranchos, NV",456,50991,26034,1448.878,32.718,38.73469,-119.714259
23900,"Gettysburg, PA","Gettysburg, PA",276,104604,43118,518.693,2.997,39.869471,-77.21773
23940,"Gillette, WY","Gillette, WY",,46857,19900,4802.065,4.251,44.191999,-105.517014
23980,"Glasgow, KY","Glasgow, KY",150,54824,24633,777.016,14.173,36.967571,-85.815497
24020,"Glens Falls, NY","Glens Falls, NY",104,126994,69102,1698.412,79.137,43.44045,-73.636757
24100,"Gloversville, NY","Gloversville, NY",104,53280,28164,495.46,37.42,43.115609,-74.423678
24140,"Goldsboro, NC","Goldsboro, NC",,117480,52882,553.922,3.8,35.35419,-78.00867
24180,"Granbury, TX","Granbury, TX",206,62459,28396,420.738,16.121,32.430149,-97.831677
24220,"Grand Forks, ND-MN","Grand Forks, ND",,104055,48239,3407.225,29.984,47.835929,-96.842681
24260,"Grand Island, NE","Grand Island, NE",,76726,31716,1603.59,20.926,41.083926,-98.374218
24300,"Grand Junction, CO","Grand Junction, CO",,156131,67708,3328.721,12.352,39.019524,-108.460571
24330,"Grand Rapids, MN","Grand Rapids, MN",228,45054,25595,2667.513,260.276,47.490817,-93.611102
24340,"Grand Rapids-Wyoming-Kentwood, MI","Grand Rapids, MI",266,1149649,459734,3242.203,1138.986,42.979841,-85.715614
24420,"Grants Pass, OR","Grants Pass, OR",366,87994,38939,1638.649,2.174,42.386983,-123.57162
24460,"Great Bend, KS","Great Bend, KS",,25477,12396,895.257,5.377,38.481239,-98.767837
24500,"Great Falls, MT","Great Falls, MT",,84423,39022,2698.206,13.249,47.316575,-111.350262
24540,"Greeley, CO","Greeley, CO",216,331466,120293,3984.958,31.787,40.555961,-104.383666
24580,"Green Bay, WI","Green Bay, WI",267,328011,146314,1870.023,978.845,44.474024,-87.99613
24600,"Greencastle, IN","Greencastle, IN",294,36942,14994,480.537,2.157,39.665548,-86.853373
24620,"Greeneville, TN","Greeneville, TN",304,70399,32300,622.169,1.969,36.179487,-82.847523
24640,"Greenfield, MA","Greenfield, MA",521,70980,34395,699.208,25.328,42.584504,-72.591792
24660,"Greensboro-High Point, NC","Greensboro, NC",268,775169,339167,1993.956,26.423,36.025204,-79.792633
24700,"Greensburg, IN","Greensburg, IN",294,26432,11554,372.568,0.755,39.30598,-85.499831
24740,"Greenville, MS","Greenville, MS",,44604,20927,723.972,36.393,33.273174,-90.944446
24780,"Greenville, NC","Greenville, NC",274,171196,80763,652.366,3.184,35.59249,-77.372739
24820,"Greenville, OH","Greenville, OH",212,51751,22619,598.102,1.639,40.131467,-84.621191
24860,"Greenville-Anderson-Greer, SC","Greenville, SC",273,931405,406036,2709.598,77.43,34.683709,-82.413423
24900,"Greenwood, MS","Greenwood, MS",,37850,17612,1222.462,18.502,33.491305,-90.113633
24940,"Greenwood, SC","Greenwood, SC",273,93677,43062,946.799,28.756,34.190755,-82.296677
24980,"Grenada, MS","Grenada, MS",,31277,15689,829.103,28.19,33.637983,-89.714583
25020,"Guayama, PR","Guayama, PR",490,68089,34311,126.65,91.017,17.979155,-66.069473
25060,"Gulfport-Biloxi, MS","Gulfport, MS",,416839,185213,2215.91,813.025,30.480153,-88.999297
25100,"Guymon, OK","Guymon, OK",,21144,8448,2041.293,7.401,36.746317,-101.483855
25180,"Hagerstown-Martinsburg, MD-WV","Hagerstown, MD",548,295165,124157,1008.004,10.534,39.554433,-77.984594
25200,"Hailey, ID","Hailey, ID",,30584,18192,4913.336,26.175,43.325486,-114.19734
25220,"Hammond, LA","Hammond, LA",132,133953,57354,791.172,52.776,30.621348,-90.40649
25260,"Hanford-Corcoran, CA","Hanford, CA",260,152515,46500,1390.972,1.222,36.072478,-119.81553
25300,"Hannibal, MO","Hannibal, MO",448,38881,17924,906.709,21.427,39.664115,-91.579179
25420,"Harrisburg-Carlisle, PA","Harrisburg, PA",276,593318,255664,1621.802,42.203,40.335915,-77.05049
25460,"Harrison, AR","Harrison, AR",,44905,21478,1410.799,14.569,36.087809,-93.162053
25500,"Harrisonburg, VA","Harrisonburg, VA",277,135689,54291,867.129,4.161,38.507585,-78.885321
25540,"Hartford-West Hartford-East Hartford, CT","Hartford, CT",405,1152409,496578,1451.463,111.923,41.688038,-72.545112
25580,"Hastings, NE","Hastings, NE",,40641,18421,1710.461,2.351,40.404569,-98.349062
25620,"Hattiesburg, MS","Hattiesburg, MS",279,153853,66314,1609.894,10.543,31.188441,-89.232741
25700,"Hays, KS","Hays, KS",,28921,13214,899.912,0.462,38.914597,-99.317313
25720,"Heber, UT","Heber, UT",482,77533,40705,3047.626,40.594,40.699219,-111.020425
25740,"Helena, MT","Helena, MT",,90737,42085,6307.737,87.352,46.715671,-112.1352
25770,"Hemlock Farms, PA","Hemlock Farms, PA",408,58996,39747,544.895,21.923,41.325949,-75.031514
25775,"Henderson, KY","Henderson, KY",241,57721,25829,768.387,32.821,37.677139,-87.626242
25780,"Henderson, NC","Henderson, NC",450,42492,19392,252.396,16.29,36.365481,-78.405434
25820,"Hereford, TX","Hereford, TX",,18585,6983,1496.822,1.516,34.940766,-102.607564
25840,"Hermiston-Pendleton, OR","Hermiston, OR",,92044,35988,5245.979,33.201,45.544602,-119.076191
25850,"Hermitage, PA","Hermitage, PA",430,110600,50916,672.538,10.025,41.300014,-80.252786
25860,"Hickory-Lenoir-Morganton, NC","Hickory, NC",172,366031,163980,1639.483,29.02,35.814295,-81.456584
25880,"Hillsdale, MI","Hillsdale, MI",,45698,21440,598.152,8.857,41.927461,-84.637479
25900,"Hilo-Kailua, HI","Hilo, HI",,202163,88965,4028.431,1057.735,19.597764,-155.502443
25940,"Hilton Head Island-Bluffton-Port Royal, SC","Hilton Head Island, SC",,218515,112441,1231.156,393.905,32.386792,-80.830877
25980,"Hinesville, GA","Hinesville, GA",496,82354,33260,916.862,89.478,31.778788,-81.57648
26020,"Hobbs, NM","Hobbs, NM",,73103,27854,4391.552,3.146,32.795687,-103.413271
26090,"Holland, MI","Holland, MI",266,120189,51880,825.253,1008.037,42.421251,-86.261403
26140,"Homosassa Springs, FL","Homosassa Springs, FL",,155173,82142,581.912,378.829,28.850292,-82.595552
26220,"Hood River, OR","Hood River, OR",,23965,10131,522.186,11.214,45.511775,-121.655976
26300,"Hot Springs, AR","Hot Springs, AR",284,100021,52383,677.615,56.932,34.578852,-93.146932
26340,"Houghton, MI","Houghton, MI",,39502,20973,1549.212,5918.571,47.367297,-88.351332
26380,"Houma-Bayou Cane-Thibodaux, LA","Houma, LA",,206082,88422,2297.681,1252.991,29.33413,-90.843674
26420,"Houston-Pasadena-The Woodlands, TX","Houston, TX",288,7170269,2774602,8838.066,1233.681,29.801005,-95.34262
26460,"Hudson, NY","Hudson, NY",104,61469,33292,634.663,13.541,42.247696,-73.626718
26500,"Huntingdon, PA","Huntingdon, PA",107,44123,20957,874.592,14.615,40.422311,-77.968595
26540,"Huntington, IN","Huntington, IN",258,36699,16241,382.639,5.068,40.826394,-85.478597
26580,"Huntington-Ashland, WV-KY-OH","Huntington, WV",170,375233,173541,2915.516,40.921,38.357487,-82.579994
26620,"Huntsville, AL","Huntsville, AL",290,493980,213929,1365.006,54.897,34.783262,-86.734871
26660,"Huntsville, TX","Huntsville, TX",288,77182,28801,784.222,17.276,30.743163,-95.569825
26700,"Huron, SD","Huron, SD",,19089,8436,1258.698,6.114,44.418265,-98.279422
26740,"Hutchinson, KS","Hutchinson, KS",,61881,28309,1255.308,16.802,37.948185,-98.078346
26780,"Hutchinson, MN","Hutchinson, MN",378,36727,15869,491.51,14.067,44.821657,-94.272323
26820,"Idaho Falls, ID","Idaho Falls, ID",292,158478,57036,5196.128,48.394,43.620423,-112.420919
26860,"Indiana, PA","Indiana, PA",430,83394,37678,827.394,6.983,40.651432,-79.087545
26900,"Indianapolis-Carmel-Greenwood, IN","Indianapolis, IN",294,2088343,888218,4085.937,32.641,39.790533,-86.12426
26980,"Iowa City, IA","Iowa City, IA",168,175894,75769,1181.826,12.127,41.517806,-91.64793
27020,"Iron Mountain, MI-WI","Iron Mountain, MI",361,30511,18581,1248.972,24.949,45.947705,-88.08097
27060,"Ithaca, NY","Ithaca, NY",296,102555,46728,474.644,16.904,42.453006,-76.473483
27100,"Jackson, MI","Jackson, MI",,160637,69095,701.897,21.596,42.248474,-84.420868
27140,"Jackson, MS","Jackson, MS",298,619340,269268,6014.245,90.262,32.426311,-90.136422
27180,"Jackson, TN","Jackson, TN",,180446,79484,1711.184,2.789,35.753215,-88.882692
27220,"Jackson, WY-ID","Jackson, WY",,35159,19323,4445.936,221.521,44.048662,-110.426087
27260,"Jacksonville, FL","Jacksonville, FL",300,1613587,695854,3201.767,496.666,30.234184,-81.756033
27300,"Jacksonville, IL","Jacksonville, IL",522,37781,17461,819.748,5.355,39.69395,-90.285047
27340,"Jacksonville, NC","Jacksonville, NC",,203686,84531,762.085,143.108,34.763109,-77.499469
27380,"Jacksonville, TX","Jacksonville, TX",540,50824,20909,1052.955,9.218,31.843881,-95.156343
27420,"Jamestown, ND","Jamestown, ND",,21609,10389,2221.904,76.167,46.972223,-98.956123
27460,"Jamestown-Dunkirk, NY","Jamestown, NY",,127440,66350,1060.41,439.782,42.304216,-79.407595
27500,"Janesville-Beloit, WI","Janesville, WI",357,163817,70230,718.167,7.991,42.66988,-89.075284
27540,"Jasper, IN","Jasper, IN",,43584,18595,427.267,8.067,38.373344,-86.873385
27600,"Jefferson, GA","Jefferson, GA",122,77033,28209,339.576,3.391,34.130905,-83.562557
27620,"Jefferson City, MO","Jefferson City, MO",190,150182,64558,2247.729,30.876,38.636885,-92.088876
27700,"Jesup, GA","Jesup, GA",496,30277,12487,641.813,6.86,31.547845,-81.912376
27740,"Johnson City, TN","Johnson City, TN",304,207442,97518,853.87,10.031,36.265822,-82.332693
27780,"Johnstown, PA","Johnstown, PA",306,133263,64522,687.963,5.268,40.510209,-78.710488
27860,"Jonesboro, AR","Jonesboro, AR",308,134035,57499,1465.457,10.893,35.696978,-90.650175
27900,"Joplin, MO-KS","Joplin, MO",309,201187,86822,1850.827,8.043,37.092135,-94.500651
27940,"Juneau, AK","Juneau, AK",,32108,14073,2704.203,550.678,58.37291,-134.178445
27980,"Kahului-Wailuku, HI","Kahului, HI",,164815,71897,1173.531,1277.625,20.855931,-156.60155
28020,"Kalamazoo-Portage, MI","Kalamazoo, MI",310,261426,114093,561.955,18.343,42.246266,-85.532854
28060,"Kalispell, MT","Kalispell, MT",,105950,50252,5087.223,168.789,48.295422,-114.052059
28100,"Kankakee, IL","Kankakee, IL",176,107421,45312,676.49,4.81,41.13951,-87.861117
28140,"Kansas City, MO-KS","Kansas City, MO",312,2190750,940968,7256.516,116.325,38.931857,-94.443841
28180,"Kapaa, HI","Kapaa, HI",,73511,30236,619.84,646.474,22.012038,-159.705965
28260,"Kearney, NE","Kearney, NE",,56758,23989,1484.437,7.311,40.738595,-99.031788
28300,"Keene, NH","Keene, NH",313,76610,35706,706.709,22.235,42.92546,-72.248183
28340,"Kendallville, IN","Kendallville, IN",258,47431,20127,410.846,6.587,41.404679,-85.417271
28380,"Kennett, MO","Kennett, MO",,28174,13492,541.909,5.293,36.153025,-90.062254
28420,"Kennewick-Richland, WA","Kennewick, WA",314,304252,110227,2941.723,82.936,46.364155,-119.254927
28450,"Kenosha, WI","Kenosha, WI",176,168693,72447,271.833,482.192,42.587526,-87.879996
28500,"Kerrville, TX","Kerrville, TX",484,52810,25246,1103.332,3.951,30.059953,-99.353339
28540,"Ketchikan, AK","Ketchikan, AK",,13910,6615,4857.02,1795.992,55.449938,-131.106685
28580,"Key West-Key Largo, FL","Key West, FL",370,82044,54034,983.034,4306.531,25.58612,-81.022603
28620,"Kill Devil Hills, NC","Kill Devil Hills, NC",545,37160,34493,383.229,1158.505,35.606269,-75.767536
28660,"Killeen-Temple, TX","Killeen, TX",,477577,187316,2818.606,42.073,31.20273,-97.789638
28680,"Kingsland, GA","Kingsland, GA",300,55105,22774,630.272,151.635,30.913358,-81.642019
28700,"Kingsport-Bristol, TN-VA","Kingsport, TN",304,308386,148797,2010.491,36.994,36.604161,-82.440145
28740,"Kingston, NY","Kingston, NY",408,182153,85916,1124.236,36.524,41.947212,-74.265458
28780,"Kingsville, TX","Kingsville, TX",204,30860,13921,881.306,208.897,27.438735,-97.66062
28820,"Kinston, NC","Kinston, NC",,55071,26681,399.087,2.278,35.240066,-77.635514
28860,"Kirksville, MO","Kirksville, MO",,29365,13254,874.629,2.967,40.284489,-92.565124
28880,"Kiryas Joel-Poughkeepsie-Newburgh, NY","Kiryas Joel, NY",408,697704,269287,1607.68,55.931,41.575274,-74.033873
28900,"Klamath Falls, OR","Klamath Falls, OR",,69506,32864,5949.897,187.323,42.683761,-121.646168
28940,"Knoxville, TN","Knoxville, TN",315,908007,407657,3500.931,148.925,36.044462,-84.136114
29020,"Kokomo, IN","Kokomo, IN",294,83452,39613,293.074,0.847,40.483537,-86.114118
29060,"Laconia, NH","Laconia, NH",148,63914,38478,401.847,68.163,43.519109,-71.425366
29100,"La Crosse-Onalaska, WI-MN","La Crosse, WI",317,169853,75376,1795.484,69.788,43.698264,-91.11014
29180,"Lafayette, LA","Lafayette, LA",318,409907,183009,2833.595,441.913,30.012961,-92.136552
29200,"Lafayette-West Lafayette, IN","Lafayette, IN",320,224515,95096,1642.23,8.946,40.482153,-87.017112
29260,"La Grande, OR","La Grande, OR",,26286,11694,2036.941,1.906,45.304081,-117.999149
29300,"LaGrange, GA-AL","LaGrange, GA",122,104139,45366,1010.563,38.512,32.970298,-85.24416
29340,"Lake Charles, LA","Lake Charles, LA",324,248494,110994,3000.241,689.374,30.038451,-93.190093
29380,"Lake City, FL","Lake City, FL",264,69832,29835,797.377,3.941,30.221651,-82.623371
29420,"Lake Havasu City-Kingman, AZ","Lake Havasu City, AZ",,214229,118073,13332.117,128.726,35.717705,-113.749689
29460,"Lakeland-Winter Haven, FL","Lakeland, FL",422,736229,320023,1798.119,212.293,27.953685,-81.693493
29470,"Lake of the Woods, VA","Lake of the Woods, VA",548,36593,15700,340.515,2.709,38.249326,-78.011092
29540,"Lancaster, PA","Lancaster, PA",,553202,216592,943.924,39.911,40.041992,-76.250198
29620,"Lansing-East Lansing, MI","Lansing, MI",330,470861,205850,1698.644,16.068,42.713659,-84.605372
29660,"Laramie, WY","Laramie, WY",,37525,18634,4274.175,34.577,41.665514,-105.721883
29700,"Laredo, TX","Laredo, TX",,267282,85296,3361.478,14.114,27.760799,-99.340752
29720,"Lares, PR","Lares, PR",490,27990,12363,61.45,0.187,18.276925,-66.869587
29740,"Las Cruces, NM","Las Cruces, NM",238,219870,90294,3808.179,6.793,32.349919,-106.834968
29780,"Las Vegas, NM","Las Vegas, NM",105,31423,17952,6647.764,22.191,35.644067,-104.863027
29820,"Las Vegas-Henderson-North Las Vegas, NV","Las Vegas, NV",332,2265926,923275,7891.661,169.261,36.21413,-115.014398
29860,"Laurel, MS","Laurel, MS",279,83472,36688,1371.155,6.105,31.825465,-89.148054
29900,"Laurinburg, NC","Laurinburg, NC",246,34222,14422,319.14,1.483,34.840023,-79.477337
29940,"Lawrence, KS","Lawrence, KS",312,119094,52818,455.766,18.871,38.896417,-95.290947
29980,"Lawrenceburg, TN","Lawrenceburg, TN",400,44377,18660,617.13,0.857,35.220476,-87.396546
30020,"Lawton, OK","Lawton, OK",334,127314,55297,1701.959,23.802,34.529113,-98.430902
30060,"Lebanon, MO","Lebanon, MO",,36060,15935,764.627,3.367,37.659698,-92.594843
30140,"Lebanon, PA","Lebanon, PA",276,143258,59213,361.835,0.665,40.371448,-76.464819
30150,"Lebanon-Claremont, NH-VT","Lebanon, NH",,221463,122732,3902.627,67.478,43.785726,-72.159142
30180,"Le Mars, IA","Le Mars, IA",512,25621,10819,862.828,0.84,42.737585,-96.215864
30260,"Lewisburg, PA","Lewisburg, PA",146,42908,16185,315.955,1.782,40.962179,-77.055475
30280,"Lewisburg, TN","Lewisburg, TN",400,34567,14357,375.462,0.696,35.468329,-86.765868
30300,"Lewiston, ID-WA","Lewiston, ID",,64570,28491,1484.396,12.566,46.251696,-116.925017
30340,"Lewiston-Auburn, ME","Lewiston, ME",438,111532,49923,467.954,29.167,44.167681,-70.207435
30380,"Lewistown, PA","Lewistown, PA",,46146,21391,411.037,3.671,40.601615,-77.651832
30420,"Lexington, NE","Lexington, NE",,25910,11049,1471.985,10.171,40.756816,-99.821978
30460,"Lexington-Fayette, KY","Lexington, KY",336,515954,226808,1469.966,14.302,38.102876,-84.438545
30500,"Lexington Park, MD","Lexington Park, MD",548,207058,81414,571.754,537.573,38.312696,-76.527935
30580,"Liberal, KS","Liberal, KS",,21942,8268,639.653,0.757,37.18096,-100.855257
30620,"Lima, OH","Lima, OH",338,102087,44692,402.545,4.306,40.771627,-84.106103
30660,"Lincoln, IL","Lincoln, IL",522,28027,11985,618.052,0.873,40.129277,-89.365309
30700,"Lincoln, NE","Lincoln, NE",339,339707,143266,1408.99,13.278,40.817429,-96.868801
30780,"Little Rock-North Little Rock-Conway, AR","Little Rock, AR",340,749290,337837,4083.799,115.293,34.755773,-92.400589
30820,"Lock Haven, PA","Lock Haven, PA",558,37860,18623,889.63,8.951,41.239508,-77.629009
30860,"Logan, UT-ID","Logan, UT",,148804,49287,1827.706,12.845,41.88902,-111.787438
30900,"Logansport, IN","Logansport, IN",,37820,16387,412.144,2.704,40.753799,-86.355168
30980,"Longview, TX","Longview, TX",,287359,121141,2680.618,42.066,32.431646,-94.684833
31020,"Longview-Kelso, WA","Longview, WA",440,110621,45540,1141.159,25.272,46.196785,-122.67846
31060,"Los Alamos, NM","Los Alamos, NM",105,19253,8631,109.123,0.08,35.870047,-106.307968
31080,"Los Angeles-Long Beach-Anaheim, CA","Los Angeles, CA",348,13111917,4730219,4853.106,846.05,34.108703,-118.182753
31140,"Louisville/Jefferson County, KY-IN","Louisville, KY",350,1359331,593113,3960.808,79.176,38.224363,-85.701989
31180,"Lubbock, TX","Lubbock, TX",352,352044,151690,5264.558,11.25,33.469794,-101.880412
31220,"Ludington, MI","Ludington, MI",,29178,17451,494.969,747.346,43.957196,-86.442937
31260,"Lufkin, TX","Lufkin, TX",,86608,36619,797.865,66.912,31.251896,-94.611134
31300,"Lumberton, NC","Lumberton, NC",246,117573,48811,947.295,1.96,34.63921,-79.100881
31340,"Lynchburg, VA","Lynchburg, VA",,262124,117990,2120.473,26.442,37.364926,-79.216689
31380,"Macomb, IL","Macomb, IL",,27370,13655,589.323,0.777,40.455808,-90.678954
31420,"Macon-Bibb County, GA","Macon, GA",356,233334,103903,1723.59,14.091,32.856216,-83.714305
31500,"Madison, IN","Madison, IN",,33057,14414,360.698,2.314,38.783604,-85.44009
31540,"Madison, WI","Madison, WI",357,678995,304368,3308.838,77.254,43.083846,-89.597745
31580,"Madisonville, KY","Madisonville, KY",,45223,20949,542.187,12.228,37.31107,-87.542196
31620,"Magnolia, AR","Magnolia, AR",,22707,11051,766.065,0.767,33.223038,-93.232843
31680,"Malvern, AR","Malvern, AR",284,33129,14247,614.944,7.23,34.315177,-92.944147
31700,"Manchester-Nashua, NH","Manchester, NH",148,422733,175630,876.53,15.95,42.911532,-71.723055
31740,"Manhattan, KS","Manhattan, KS",,133834,56426,1835.046,53.243,39.268424,-96.562242
31820,"Manitowoc, WI","Manitowoc, WI",,81242,37821,589.302,904.774,44.156137,-87.577352
31860,"Mankato, MN","Mankato, MN",359,103402,42725,1196.353,36.083,44.15481,-94.147801
31900,"Mansfield, OH","Mansfield, OH",360,125008,54581,495.227,4.849,40.774159,-82.542781
31930,"Marietta, OH","Marietta, OH",425,59639,27997,631.974,8.025,39.450676,-81.490636
31940,"Marinette, WI-MI","Marinette, WI",361,65260,42610,2443.509,444.662,45.435279,-87.769216
31980,"Marion, IN","Marion, IN",,66560,29856,414.089,0.812,40.515758,-85.654946
32000,"Marion, NC","Marion, NC",172,44629,21328,439.954,5.397,35.682271,-82.048044
32020,"Marion, OH","Marion, OH",198,65366,27405,403.807,0.351,40.588034,-83.168803
32060,"Marion-Herrin, IL","Marion, IL",166,67120,31811,420.21,24.12,37.730353,-88.930018
32100,"Marquette, MI","Marquette, MI",,66376,33584,1809.051,1615.968,46.656596,-87.584028
32140,"Marshall, MN","Marshall, MN",,25352,11188,714.411,7.257,44.409195,-95.847268
32180,"Marshall, MO","Marshall, MO",,23219,9872,755.51,11.406,39.13584,-93.204164
32260,"Marshalltown, IA","Marshalltown, IA",,40049,16795,572.503,0.696,42.0417,-92.981403
32280,"Martin, TN","Martin, TN",542,32946,15002,580.353,1.431,36.303596,-88.721194
32300,"Martinsville, VA","Martinsville, VA",,64299,32517,393.307,2.087,36.682503,-79.872564
32340,"Maryville, MO","Maryville, MO",,21140,9465,876.964,0.912,40.361136,-94.883146
32380,"Mason City, IA","Mason City, IA",,50396,26137,968.423,8.637,43.213732,-93.274339
32390,"Massena-Ogdensburg, NY","Massena, NY",,108670,51780,2679.526,141.684,44.488112,-75.074311
32420,"Mayagüez, PR","Mayagüez, PR",364,212796,115443,310.067,344.739,18.01917,-67.166597
32460,"Mayfield, KY","Mayfield, KY",424,36701,16526,551.757,5.031,36.723344,-88.649897
32540,"McAlester, OK","McAlester, OK",,43758,22160,1305.512,72.372,34.92554,-95.74813
32580,"McAllen-Edinburg-Mission, TX","McAllen, TX",365,873167,296286,1571.195,11.637,26.396384,-98.18099
32620,"McComb, MS","McComb, MS",,53986,25896,813.113,1.986,31.147972,-90.250227
32660,"McMinnville, TN","McMinnville, TN",,41163,18164,432.673,1.361,35.67825,-85.777343
32700,"McPherson, KS","McPherson, KS",,30085,13082,898.285,2.318,38.395812,-97.647489
32740,"Meadville, PA","Meadville, PA",240,83876,42234,1012.355,25.247,41.687876,-80.107795
32780,"Medford, OR","Medford, OR",366,222604,96286,2783.252,18.06,42.411621,-122.675611
32820,"Memphis, TN-MS-AR","Memphis, TN",368,1343441,572035,4981.852,118.63,35.010307,-89.820503
32860,"Menomonie, WI","Menomonie, WI",232,45221,18729,850.159,13.735,44.947751,-91.897645
32900,"Merced, CA","Merced, CA",488,282290,87895,1938.004,40.648,37.194806,-120.722802
32940,"Meridian, MS","Meridian, MS",,88294,41217,1395.25,13.438,32.219701,-88.670401
33020,"Mexico, MO","Mexico, MO",190,24873,10563,692.25,4.573,39.214481,-91.843418
33060,"Miami, OK","Miami, OK",309,30472,13699,470.817,13.789,36.835764,-94.802681
33100,"Miami-Fort Lauderdale-West Palm Beach, FL","Miami, FL",370,6123949,2643202,5067.125,1013.824,26.101828,-80.478755
33140,"Michigan City-La Porte, IN","Michigan City, IN",176,112215,49763,598.289,14.971,41.549013,-86.744739
33180,"Middlesborough, KY","Middlesborough, KY",371,24248,11634,358.999,2.117,36.728928,-83.680718
33220,"Midland, MI","Midland, MI",474,83503,36927,517.859,10.21,43.648203,-84.379414
33260,"Midland, TX","Midland, TX",372,174621,72376,1815.313,2.388,32.092359,-101.994539
33300,"Milledgeville, GA","Milledgeville, GA",,43778,20092,258.699,9.577,33.05949,-83.255457
33340,"Milwaukee-Waukesha, WI","Milwaukee, WI",376,1568940,693549,1454.837,1867.072,42.912643,-87.862312
33380,"Minden, LA","Minden, LA",508,36761,18325,593.319,21.601,32.732152,-93.339825
33420,"Mineral Wells, TX","Mineral Wells, TX",206,28569,15138,952.549,32.959,32.752204,-98.317967
33460,"Minneapolis-St. Paul-Bloomington, MN-WI","Minneapolis, MN",378,3678328,1509511,7047.483,472.806,45.096664,-93.275361
33500,"Minot, ND","Minot, ND",,77140,36387,4764.214,96.227,48.320242,-101.19801
33540,"Missoula, MT","Missoula, MT",,123193,57649,3812.628,28.758,47.069545,-114.262668
33580,"Mitchell, SD","Mitchell, SD",,25782,11920,1439.457,3.297,43.826091,-98.021652
33620,"Moberly, MO","Moberly, MO",190,24652,10801,482.713,5.117,39.439249,-92.492959
33660,"Mobile, AL","Mobile, AL",380,413878,184845,1229.374,414.678,30.684572,-88.196568
33700,"Modesto, CA","Modesto, CA",488,552063,183317,1496.15,17.907,37.562316,-121.002831
33740,"Monroe, LA","Monroe, LA",384,226100,101217,2837.826,69.731,32.67396,-92.058318
33780,"Monroe, MI","Monroe, MI",220,154823,65946,549.353,130.581,41.916097,-83.487106
33860,"Montgomery, AL","Montgomery, AL",388,384740,171555,2714.411,71.981,32.365631,-86.404585
33900,"Monticello, IN","Monticello, IN",320,24630,12908,505.136,3.543,40.75095,-86.864293
33910,"Monticello, NY","Monticello, NY",408,78725,49390,968.145,28.47,41.719993,-74.771577
33940,"Montrose, CO","Montrose, CO",,42823,19122,2240.946,1.901,38.407507,-108.266282
33980,"Morehead City, NC","Morehead City, NC",404,68353,51096,507.604,822.808,34.858343,-76.53586
34020,"Morgan City, LA","Morgan City, LA",,49114,22516,558.527,561.197,29.629349,-91.463804
34060,"Morgantown, WV","Morgantown, WV",,140194,64740,1008.906,8.362,39.525155,-79.801912
34100,"Morristown, TN","Morristown, TN",315,119548,52455,436.34,53.779,36.115484,-83.376546
34140,"Moscow, ID","Moscow, ID",446,39872,17301,1075.867,0.915,46.81892,-116.730974
34180,"Moses Lake, WA","Moses Lake, WA",393,99145,38851,2679.547,111.9,47.213633,-119.467788
34220,"Moultrie, GA","Moultrie, GA",,45813,19143,547.032,9.607,31.189707,-83.769773
34260,"Mountain Home, AR","Mountain Home, AR",,41801,22747,553.931,32.786,36.280268,-92.329949
34300,"Mountain Home, ID","Mountain Home, ID",147,28752,12119,3075.079,26.383,43.394698,-115.471205
34340,"Mount Airy, NC","Mount Airy, NC",268,71429,33549,532.644,4.013,36.415416,-80.686463
34380,"Mount Pleasant, MI","Mount Pleasant, MI",394,64938,28580,572.7,4.998,43.645233,-84.839424
34420,"Mount Pleasant, TX","Mount Pleasant, TX",,55837,23666,854.139,33.439,33.132104,-94.903503
34460,"Mount Sterling, KY","Mount Sterling, KY",336,47101,21022,678.907,9.87,38.039616,-83.747734
34500,"Mount Vernon, IL","Mount Vernon, IL",,37043,16659,571.235,12.568,38.30078,-88.92421
34540,"Mount Vernon, OH","Mount Vernon, OH",198,62657,25865,525.499,4.139,40.40362,-82.422393
34580,"Mount Vernon-Anacortes, WA","Mount Vernon, WA",500,129480,55875,1730.231,186.804,48.493292,-121.81577
34620,"Muncie, IN","Muncie, IN",294,112156,51613,392.109,3.8,40.227543,-85.399262
34660,"Murray, KY","Murray, KY",,37345,17983,384.85,25.847,36.620978,-88.274086
34680,"Murrells Inlet, SC","Murrells Inlet, SC",396,63594,36219,813.601,212.766,33.417531,-79.296333
34700,"Muscatine, IA","Muscatine, IA",209,42968,18386,437.44,11.684,41.483776,-91.118699
34740,"Muskegon-Norton Shores, MI","Muskegon, MI",266,175947,74639,503.914,956.11,43.428739,-86.420908
34780,"Muskogee, OK","Muskogee, OK",538,66606,29435,810.64,29.374,35.617551,-95.383911
34820,"Myrtle Beach-Conway-North Myrtle Beach, SC","Myrtle Beach, SC",396,356578,206764,1133.159,121.567,33.909269,-78.976675
34860,"Nacogdoches, TX","Nacogdoches, TX",,64768,28903,946.324,34.645,31.62056,-94.62025
34880,"Nantucket, MA","Nantucket, MA",,14065,12287,46.192,257.463,41.293392,-70.102164
34900,"Napa, CA","Napa, CA",488,137384,55588,751.975,40.326,38.5071,-122.325904
34940,"Naples-Marco Island, FL","Naples, FL",163,380221,229814,1996.848,608.192,26.118786,-81.400955
34980,"Nashville-Davidson--Murfreesboro--Franklin, TN","Nashville, TN",400,2015869,847497,6301.911,76.257,36.091577,-86.72298
35020,"Natchez, MS-LA","Natchez, MS",,55309,27277,1679.417,82.765,31.542918,-91.382533
35060,"Natchitoches, LA","Natchitoches, LA",,37478,18605,1253.008,46.544,31.732509,-93.082546
35100,"New Bern, NC","New Bern, NC",404,122678,58926,1514.456,294.15,35.116829,-77.08132
35140,"Newberry, SC","Newberry, SC",192,37918,18313,630.306,16.98,34.289881,-81.599676
35220,"New Castle, IN","New Castle, IN",294,48913,20978,391.877,2.954,39.929591,-85.397363
35300,"New Haven, CT","New Haven, CT",405,571298,246338,367.169,252.41,41.290167,-72.837024
35340,"New Iberia, LA","New Iberia, LA",318,69958,31102,574.741,465.623,29.606013,-91.842706
35380,"New Orleans-Metairie, LA","New Orleans, LA",406,998189,462011,2358.552,4415.524,29.282447,-89.576068
35420,"New Philadelphia-Dover, OH","New Philadelphia, OH",184,92840,40785,567.565,4.001,40.447439,-81.471166
35440,"Newport, OR","Newport, OR",,50334,32094,980.983,213.571,44.641061,-123.911212
35460,"Newport, TN","Newport, TN",315,36186,17833,436.135,6.924,35.916198,-83.119224
35580,"New Ulm, MN","New Ulm, MN",359,25880,11765,611.109,7.156,44.246541,-94.733647
35620,"New York-Newark-Jersey City, NY-NJ","New York, NY",408,19849599,7941609,6139.594,2505.78,40.735425,-73.80773
35660,"Niles, MI","Niles, MI",515,153938,76948,567.781,1013.691,41.791382,-86.742543
35700,"Nogales, AZ","Nogales, AZ",536,47838,18811,1236.26,1.185,31.525733,-110.845228
35740,"Norfolk, NE","Norfolk, NE",,48667,20832,1573.493,7.552,42.04313,-97.487952
35820,"North Platte, NE","North Platte, NE",,35371,16944,3134.838,11.445,41.141344,-100.697352
35840,"North Port-Bradenton-Sarasota, FL","North Port, FL",412,844461,462959,1298.768,640.815,27.329055,-82.414533
35900,"North Wilkesboro, NC","North Wilkesboro, NC",,66125,31743,753.678,2.646,36.208883,-81.166095
35940,"Norwalk, OH","Norwalk, OH",184,58518,25519,492.243,3.332,41.14508,-82.594641
35980,"Norwich-New London-Willimantic, CT","Norwich, CT",405,280293,125334,598.135,83.577,41.484769,-72.101666
36020,"Oak Harbor, WA","Oak Harbor, WA",500,86510,42098,208.474,308.851,48.158554,-122.670649
36100,"Ocala, FL","Ocala, FL",,378225,179079,1588.422,74.24,29.202805,-82.0431
36180,"Ocean Pines, MD","Ocean Pines, MD",480,52827,56399,468.402,226.461,38.222133,-75.309931
36220,"Odessa, TX","Odessa, TX",372,162300,66082,897.884,3.934,31.865301,-102.542507
36260,"Ogden, UT","Ogden, UT",482,638359,216503,1544.962,361.09,41.124342,-111.866933
36340,"Oil City, PA","Oil City, PA",,50475,26276,674.265,8.552,41.400714,-79.765813
36380,"Okeechobee, FL","Okeechobee, FL",370,39870,18496,769.286,122.751,27.385592,-80.887388
36420,"Oklahoma City, OK","Oklahoma City, OK",416,1428923,608642,5511.724,69.939,35.430968,-97.506966
36460,"Olean, NY","Olean, NY",160,77000,40254,1308.183,14.202,42.239099,-78.662332
36500,"Olympia-Lacey-Tumwater, WA","Olympia, WA",500,294272,121682,722.501,51.589,46.935822,-122.830152
36540,"Omaha, NE-IA","Omaha, NE",420,966688,402606,4345.553,61.647,41.290459,-95.99997
36580,"Oneonta, NY","Oneonta, NY",,59678,29965,1001.738,14.02,42.629776,-75.028841
36620,"Ontario, OR-ID","Ontario, OR",147,57109,21471,10294.6,45.513,43.225869,-117.619933
36660,"Opelousas, LA","Opelousas, LA",318,82574,36840,924.029,15.063,30.583441,-91.989274
36700,"Orangeburg, SC","Orangeburg, SC",192,84159,41365,1106.379,21.505,33.436135,-80.802913
36740,"Orlando-Kissimmee-Sanford, FL","Orlando, FL",422,2679298,1094927,3492.043,519.471,28.434396,-81.356084
36780,"Oshkosh-Neenah, WI","Oshkosh, WI",118,171197,76371,434.697,143.873,44.085707,-88.668149
36820,"Oskaloosa, IA","Oskaloosa, IA",218,22059,9700,570.851,2.546,41.330797,-92.636366
36830,"Othello, WA","Othello, WA",393,20557,6774,1924.989,4.813,47.011238,-118.512861
36837,"Ottawa, IL","Ottawa, IL",176,148326,68507,2164.306,29.535,41.356488,-89.173385
36840,"Ottawa, KS","Ottawa, KS",312,25968,11180,571.772,5.364,38.558019,-95.278962
36900,"Ottumwa, IA","Ottumwa, IA",,35292,15754,431.843,4.179,41.031275,-92.409466
36940,"Owatonna, MN","Owatonna, MN",378,37396,15731,429.548,2.692,44.015261,-93.220453
36980,"Owensboro, KY","Owensboro, KY",,112089,48107,710.922,21.785,37.664375,-87.147386
37020,"Owosso, MI","Owosso, MI",330,68124,30230,530.967,9.974,42.951545,-84.146352
37060,"Oxford, MS","Oxford, MS",,68671,34584,1098.848,75.385,34.221062,-89.584602
37100,"Oxnard-Thousand Oaks-Ventura, CA","Oxnard, CA",348,842009,293491,1840.775,365.784,34.358748,-119.133145
37120,"Ozark, AL","Ozark, AL",222,49455,22829,561.113,1.564,31.430654,-85.609476
37140,"Paducah, KY-IL","Paducah, KY",424,103212,49564,1235.454,89.687,37.094234,-88.71705
37220,"Pahrump, NV","Pahrump, NV",332,51698,25017,18181.914,16.683,37.965864,-116.459011
37260,"Palatka, FL","Palatka, FL",300,73604,36183,728.354,98.567,29.593896,-81.732039
37300,"Palestine, TX","Palestine, TX",,58077,20287,1062.617,15.384,31.841261,-95.661727
37340,"Palm Bay-Melbourne-Titusville, FL","Palm Bay, FL",,610723,290314,1014.97,542.066,28.298311,-80.700333
37420,"Pampa, TX","Pampa, TX",,22036,10402,1850.032,3.493,35.617393,-100.810553
37460,"Panama City-Panama City Beach, FL","Panama City, FL",,206069,115302,1343.275,739.4,30.273241,-85.642089
37500,"Paragould, AR","Paragould, AR",308,45954,19235,577.34,2.036,36.120607,-90.566346
37540,"Paris, TN","Paris, TN",,32305,16976,561.902,31.499,36.325295,-88.300288
37580,"Paris, TX","Paris, TX",,61776,28883,1951.227,38.612,33.646445,-95.295089
37620,"Parkersburg-Vienna, WV","Parkersburg, WV",425,89474,43030,599.011,12.521,39.141531,-81.460402
37740,"Payson, AZ","Payson, AZ",429,53419,32519,4757.578,37.246,33.789618,-110.81187
37800,"Pella, IA","Pella, IA",218,33487,14179,554.49,16.017,41.331433,-93.093868
37860,"Pensacola-Ferry Pass-Brent, FL","Pensacola, FL",,510290,222708,1669.395,678.484,30.608557,-87.158547
37900,"Peoria, IL","Peoria, IL",427,368011,167724,2467.649,50.394,40.788069,-89.514639
37940,"Peru, IN","Peru, IN",294,35952,14901,373.842,3.546,40.772883,-86.044258
37950,"Petoskey, MI","Petoskey, MI",,34072,21791,467.547,414.45,45.590094,-84.986822
37980,"Philadelphia-Camden-Wilmington, PA-NJ-DE-MD","Philadelphia, PA",428,6232894,2590451,4603.206,267.156,39.894958,-75.311982
38060,"Phoenix-Mesa-Chandler, AZ","Phoenix, AZ",429,4864209,1996937,14568.687,31.997,33.185765,-112.067862
38100,"Picayune, MS","Picayune, MS",406,56351,24869,811.319,8.024,30.774793,-89.586904
38180,"Pierre, SD","Pierre, SD",,20791,9421,2185.959,131.934,44.404897,-100.484817
38210,"Pikeville, KY","Pikeville, KY",,93976,46364,1179.522,4.75,37.499366,-82.509794
38220,"Pine Bluff, AR","Pine Bluff, AR",340,74482,34371,1470.256,44.646,34.121115,-92.041969
38240,"Pinehurst-Southern Pines, NC","Pinehurst, NC",246,100759,48595,697.616,8.063,35.308273,-79.492723
38260,"Pittsburg, KS","Pittsburg, KS",,39012,18029,589.771,5.241,37.505821,-94.853897
38300,"Pittsburgh, PA","Pittsburgh, PA",430,2451408,1166355,5640.324,64.883,40.471332,-79.863986
38340,"Pittsfield, MA","Pittsfield, MA",,128763,69762,926.874,19.579,42.371493,-73.217928
38380,"Plainview, TX","Plainview, TX",352,37911,16018,1996.823,0.475,34.066933,-101.571422
38420,"Platteville, WI","Platteville, WI",,51842,22148,1146.877,36.497,42.870028,-90.694229
38460,"Plattsburgh, NY","Plattsburgh, NY",,79839,37309,1037.751,79.762,44.752712,-73.705643
38500,"Plymouth, IN","Plymouth, IN",515,46208,19828,443.62,6.123,41.325003,-86.269036
38540,"Pocatello, ID","Pocatello, ID",,87434,35186,1112.489,35.552,42.692921,-112.228982
38620,"Ponca City, OK","Ponca City, OK",,43859,20990,919.61,25.307,36.814885,-97.143862
38660,"Ponce, PR","Ponce, PR",434,276815,128693,365.454,172.757,18.022864,-66.645703
38700,"Pontiac, IL","Pontiac, IL",145,35771,15909,1043.628,2.307,40.894376,-88.552852
38740,"Poplar Bluff, MO","Poplar Bluff, MO",,42280,19336,694.756,4.321,36.71518,-90.40313
38820,"Port Angeles, WA","Port Angeles, WA",,77333,37994,1738.773,930.244,48.110903,-123.88986
38860,"Portland-South Portland, ME","Portland, ME",438,552916,281528,2081.368,775.836,43.651417,-70.418375
38900,"Portland-Vancouver-Hillsboro, OR-WA","Portland, OR",440,2505312,1036369,6687.394,136.817,45.600622,-122.484378
38920,"Port Lavaca, TX","Port Lavaca, TX",544,20127,10696,506.931,525.735,28.441719,-96.579574
38940,"Port St. Lucie, FL","Port St. Lucie, FL",370,494081,231647,1115.696,325.429,27.228046,-80.425388
39020,"Portsmouth, OH","Portsmouth, OH",170,73716,33209,610.146,6.214,38.814889,-82.998675
39040,"Port Townsend, WA","Port Townsend, WA",,33006,19148,1803.728,384.169,47.805708,-123.527057
39060,"Pottsville, PA","Pottsville, PA",,143201,67328,778.579,4.178,40.703682,-76.217788
39150,"Prescott Valley-Prescott, AZ","Prescott Valley, AZ",,237830,121829,8122.932,4.385,34.631071,-112.577225
39220,"Price, UT","Price, UT",,20338,9623,1479.343,5.979,39.673284,-110.588484
39300,"Providence-Warwick, RI-MA","Providence, RI",148,1670949,726350,1587.001,649.093,41.70684,-71.286687
39340,"Provo-Orem-Lehi, UT","Provo, UT",482,677964,199201,5396.273,153.842,39.872067,-112.359059
39380,"Pueblo, CO","Pueblo, CO",444,168135,72364,2386.591,11.174,38.162765,-104.484668
39420,"Pullman, WA","Pullman, WA",446,47141,20974,2159.262,18.628,46.905944,-117.53539
39460,"Punta Gorda, FL","Punta Gorda, FL",412,189900,111330,681.118,266.118,26.906396,-82.003657
39480,"Putnam, CT","Putnam, CT",405,95687,41503,553.895,9.262,41.842375,-71.972655
39500,"Quincy, IL-MO","Quincy, IL",448,75570,34560,1360.169,21.897,40.027165,-91.389838
39540,"Racine-Mount Pleasant, WI","Racine, WI",376,197068,84455,332.611,459.532,42.780392,-87.771599
39580,"Raleigh-Cary, NC","Raleigh, NC",450,1420825,581802,2118.432,28.801,35.756746,-78.460441
39660,"Rapid City, SD","Rapid City, SD",452,148871,67155,7804.642,21.683,44.195108,-102.916612
39700,"Raymondville, TX","Raymondville, TX",154,20308,6820,590.613,194.154,26.481861,-97.594731
39740,"Reading, PA","Reading, PA",428,428483,170678,856.403,9.351,40.413957,-75.92686
39780,"Red Bluff, CA","Red Bluff, CA",454,65484,27440,2949.137,13.038,40.126157,-122.232274
39820,"Redding, CA","Redding, CA",454,181852,79626,3775.651,71.745,40.760514,-122.043556
39860,"Red Wing, MN","Red Wing, MN",378,47697,20905,756.713,22.824,44.406178,-92.716
39900,"Reno, NV","Reno, NV",456,550204,234996,8582.727,248.695,40.251057,-119.555507
39940,"Rexburg, ID","Rexburg, ID",292,66006,22892,2333.227,36.271,44.142753,-111.508107
39960,"Rice Lake, WI","Rice Lake, WI",,46683,23846,863.053,26.71,45.437192,-91.852892
39980,"Richmond, IN","Richmond, IN",458,66522,30782,401.755,2.588,39.863091,-85.006735
40060,"Richmond, VA","Richmond, VA",,1316145,553455,4364.319,127.742,37.411324,-77.441816
40080,"Richmond-Berea, KY","Richmond, KY",336,123264,53574,1007.577,9.386,37.59662,-84.205586
40090,"Rifle, CO","Rifle, CO",233,79008,37613,3918.127,10.88,39.509542,-107.667311
40100,"Rio Grande City-Roma, TX","Rio Grande City, TX",365,65716,22828,1223.179,5.941,26.530903,-98.740235
40140,"Riverside-San Bernardino-Ontario, CA","Riverside, CA",348,4610050,1584750,27277.42,130.998,34.538476,-116.134541
40180,"Riverton, WY","Riverton, WY",,39402,17474,9183.59,82.15,43.054831,-108.608935
40220,"Roanoke, VA","Roanoke, VA",,314708,147660,1867.568,27.883,37.286226,-79.946935
40260,"Roanoke Rapids, NC","Roanoke Rapids, NC",468,66300,35499,1260.448,20.375,36.320576,-77.542757
40300,"Rochelle, IL","Rochelle, IL",466,51672,22640,758.654,4.78,42.041884,-89.320176
40340,"Rochester, MN","Rochester, MN",462,225911,97342,2477.161,28.943,43.94981,-92.33066
40380,"Rochester, NY","Rochester, NY",464,1062146,476628,2927.766,1942.143,43.184718,-77.556558
40420,"Rockford, IL","Rockford, IL",466,338050,145222,793.79,7.427,42.331183,-89.042914
40460,"Rockingham, NC","Rockingham, NC",246,43149,19768,473.689,6.014,35.004636,-79.755695
40540,"Rock Springs, WY","Rock Springs, WY",,42079,19198,10426.98,64.182,41.660328,-108.875677
40580,"Rocky Mount, NC","Rocky Mount, NC",468,144082,66549,1045.88,3.815,35.941045,-77.798549
40620,"Rolla, MO","Rolla, MO",,44843,20194,671.787,2.536,37.866326,-91.790349
40660,"Rome, GA","Rome, GA",122,98541,40568,509.833,8.632,34.26369,-85.213685
40700,"Roseburg, OR","Roseburg, OR",,111322,49926,5035.675,97.283,43.286328,-123.154476
40740,"Roswell, NM","Roswell, NM",,64701,26727,6067.178,7.903,33.361604,-104.469837
40760,"Ruidoso, NM","Ruidoso, NM",,20222,17698,4831.115,0.214,33.740841,-105.449805
40770,"Russellville, AL","Russellville, AL",250,32011,13940,633.959,12.564,34.441989,-87.842814
40780,"Russellville, AR","Russellville, AR",,83817,36233,1741.338,37.748,35.199586,-93.252763
40820,"Ruston, LA","Ruston, LA",384,48323,20491,471.636,0.733,32.601823,-92.662303
40860,"Rutland, VT","Rutland, VT",,60585,33906,930.55,14.966,43.612399,-73.060304
40900,"Sacramento-Roseville-Folsom, CA","Sacramento, CA",472,2394673,936196,5093.193,211.591,38.790272,-121.005643
40940,"Safford, AZ","Safford, AZ",,38453,13755,4621.877,18.331,32.931828,-109.87831
40980,"Saginaw, MI","Saginaw, MI",474,189821,86101,800.806,15.159,43.328267,-84.05541
41060,"St. Cloud, MN","St. Cloud, MN",378,199922,83104,1751.179,51.764,45.593031,-94.488363
41100,"St. George, UT","St. George, UT",,183297,75758,2427.589,3.005,37.262531,-113.4878
41140,"St. Joseph, MO-KS","St. Joseph, MO",312,121952,53541,1655.714,19.928,39.834843,-94.783754
41180,"St. Louis, MO-IL","St. Louis, MO",476,2813523,1261744,7863.495,218.426,38.740211,-90.345825
41260,"St. Marys, PA","St. Marys, PA",,30886,16898,826.901,4.939,41.427332,-78.653937
41400,"Salem, OH","Salem, OH",566,101723,46164,531.917,2.81,40.770073,-80.778455
41420,"Salem, OR","Salem, OR",440,433415,162981,1921.763,13.436,44.903385,-122.901757
41460,"Salina, KS","Salina, KS",,59928,26796,1440.977,1.671,38.96457,-97.663387
41500,"Salinas, CA","Salinas, CA",,437609,143743,3281.718,489.503,36.240104,-121.315578
41540,"Salisbury, MD","Salisbury, MD",480,128487,54646,694.178,316.379,38.197279,-75.769252
41620,"Salt Lake City-Murray, UT","Salt Lake City, UT",482,1254675,454070,7793.121,298.586,40.572887,-112.953253
41660,"San Angelo, TX","San Angelo, TX",,120837,52314,2573.864,18.312,31.36531,-100.659418
41700,"San Antonio-New Braunfels, TX","San Antonio, TX",484,2570862,1015924,7313.19,57.67,29.43306,-98.606973
41740,"San Diego-Chula Vista-Carlsbad, CA","San Diego, CA",,3289701,1230349,4210.46,315.269,33.023604,-116.776117
41760,"Sandpoint, ID","Sandpoint, ID",,47976,26374,1733.225,184.907,48.324634,-116.62745
41780,"Sandusky, OH","Sandusky, OH",184,115666,66924,505.99,704.871,41.519606,-82.794568
41820,"Sanford, NC","Sanford, NC",450,63560,26560,255.068,4.135,35.476336,-79.172117
41860,"San Francisco-Oakland-Fremont, CA","San Francisco, CA",488,4692242,1851003,2469.802,956.355,37.773718,-122.274432
41940,"San Jose-Sunnyvale-Santa Clara, CA","San Jose, CA",488,1981584,708772,2679.736,14.794,36.908472,-121.371372
41980,"San Juan-Bayamón-Caguas, PR","San Juan, PR",490,2073546,980193,1438.229,562.918,18.294453,-66.036844
42020,"San Luis Obispo-Paso Robles, CA","San Luis Obispo, CA",,281712,123968,3300.842,314.924,35.388189,-120.448897
42100,"Santa Cruz-Watsonville, CA","Santa Cruz, CA",488,268571,106433,445.106,162.055,37.012347,-122.007789
42140,"Santa Fe, NM","Santa Fe, NM",105,154481,76714,1910.38,1.02,35.514531,-105.963972
42200,"Santa Maria-Santa Barbara, CA","Santa Maria, CA",,445213,158807,2733.941,1053.75,34.536677,-120.038364
42220,"Santa Rosa-Petaluma, CA","Santa Rosa, CA",,488436,205393,1575.337,192.005,38.525182,-122.92611
42300,"Sault Ste. Marie, MI","Sault Ste. Marie, MI",,36670,20349,1558.508,1139.968,46.321819,-84.52063
42340,"Savannah, GA","Savannah, GA",496,406575,175510,1349.109,218.224,32.109153,-81.273107
42380,"Sayre, PA","Sayre, PA",,60159,29443,1147.376,13.641,41.791504,-76.502123
42420,"Scottsbluff, NE","Scottsbluff, NE",,36718,16845,1485.659,6.086,41.699256,-103.708555
42460,"Scottsboro, AL","Scottsboro, AL",174,52618,24706,1078.015,48.778,34.764114,-85.980056
42540,"Scranton--Wilkes-Barre, PA","Scranton, PA",,567287,263631,1745.952,30.092,41.322881,-75.898188
42580,"Seaford, DE","Seaford, DE",,240668,144210,936.146,260.277,38.673227,-75.337024
42620,"Searcy, AR","Searcy, AR",340,77118,33395,1033.966,8.047,35.255118,-91.753034
42660,"Seattle-Tacoma-Bellevue, WA","Seattle, WA",500,4001701,1657075,5870.23,438.436,47.490552,-121.833977
42680,"Sebastian-Vero Beach-West Vero Corridor, FL","Sebastian, FL",370,160986,83801,502.527,114.099,27.700528,-80.574789
42700,"Sebring, FL","Sebring, FL",,102339,57605,1017.66,89.061,27.34108,-81.342353
42740,"Sedalia, MO","Sedalia, MO",,43059,18562,682.236,4.043,38.727367,-93.285207
42780,"Selinsgrove, PA","Selinsgrove, PA",146,39797,16003,328.784,2.764,40.755412,-77.07302
42820,"Selma, AL","Selma, AL",388,38326,18992,978.738,15.106,32.333526,-87.11436
42860,"Seneca, SC","Seneca, SC",273,78775,41023,626.565,46.993,34.748766,-83.06154
42900,"Seneca Falls, NY","Seneca Falls, NY",464,33651,16116,323.698,66.726,42.782294,-76.827088
42940,"Sevierville, TN","Sevierville, TN",315,98455,56728,592.512,5.185,35.787822,-83.5249
42980,"Seymour, IN","Seymour, IN",294,46212,19144,509.978,3.928,38.911957,-86.042516
43020,"Shawano, WI","Shawano, WI",267,45127,22570,1250.84,23.516,44.851643,-88.745543
43060,"Shawnee, OK","Shawnee, OK",416,72734,30051,787.793,5.732,35.211391,-96.957004
43100,"Sheboygan, WI","Sheboygan, WI",,117741,52375,511.519,759.722,43.738713,-87.731531
43140,"Shelby-Kings Mountain, NC","Shelby, NC",172,99527,43782,464.249,3.93,35.33463,-81.557114
43180,"Shelbyville, TN","Shelbyville, TN",400,50533,19813,473.639,1.151,35.51366,-86.458294
43220,"Shelton, WA","Shelton, WA",500,66053,33461,959.553,91.49,47.350832,-123.173103
43260,"Sheridan, WY","Sheridan, WY",,31176,14999,2523.361,3.084,44.781369,-106.881211
43300,"Sherman-Denison, TX","Sherman, TX",206,137008,58923,932.832,46.369,33.624548,-96.675777
43320,"Show Low, AZ","Show Low, AZ",,107110,56556,9949.492,9.313,35.390785,-110.321025
43340,"Shreveport-Bossier City, LA","Shreveport, LA",508,391957,180570,2595.493,103.049,32.437682,-93.744884
43380,"Sidney, OH","Sidney, OH",212,48145,20102,407.694,3.013,40.33668,-84.204142
43420,"Sierra Vista-Douglas, AZ","Sierra Vista, AZ",,125504,59056,6209.863,6.814,31.840129,-109.775163
43460,"Sikeston, MO","Sikeston, MO",164,50360,22106,831.602,23.047,36.94283,-89.427601
43500,"Silver City, NM","Silver City, NM",,28006,14625,3961.207,5.905,32.732087,-108.381504
43580,"Sioux City, IA-NE-SD","Sioux City, IA",512,143534,57929,1597.929,14.456,42.508037,-96.311314
43620,"Sioux Falls, SD-MN","Sioux Falls, SD",,287603,121745,3057.862,11.04,43.525658,-96.875416
43640,"Slidell-Mandeville-Covington, LA","Slidell, LA",406,266168,110680,845.281,250.341,30.410022,-89.951962
43660,"Snyder, TX","Snyder, TX",,16883,6908,905.445,2.099,32.744353,-100.913346
43700,"Somerset, KY","Somerset, KY",,65145,31615,658.1,19.055,37.107428,-84.576969
43740,"Somerset, PA","Somerset, PA",306,73802,37796,1075.047,6.603,39.981297,-79.028486
43760,"Sonora, CA","Sonora, CA",,54993,31447,2220.911,53.54,38.021434,-119.964733
43780,"South Bend-Mishawaka, IN-MI","South Bend, IN",515,323992,143533,947.889,21.806,41.774981,-86.123014
43890,"Sparta, WI","Sparta, WI",317,46208,19804,900.904,7.176,43.945175,-90.619969
43900,"Spartanburg, SC","Spartanburg, SC",273,357277,151566,1321.963,13.246,34.83462,-81.842401
43940,"Spearfish, SD","Spearfish, SD",452,26047,14289,800.053,0.258,44.348514,-103.806362
43980,"Spencer, IA","Spencer, IA",517,16423,8098,567.238,5.354,43.081224,-95.149875
44020,"Spirit Lake, IA","Spirit Lake, IA",517,17692,13841,380.532,23.429,43.389611,-95.196057
44060,"Spokane-Spokane Valley, WA","Spokane, WA",518,585485,247356,4241.327,79.669,48.091618,-117.663472
44100,"Springfield, IL","Springfield, IL",522,208406,98543,1182.621,9.802,39.828621,-89.696067
44140,"Springfield, MA","Springfield, MA",521,464575,196957,617.005,17.149,42.136198,-72.635648
44180,"Springfield, MO","Springfield, MO",,477056,208534,3006.973,13.712,37.36087,-93.180262
44220,"Springfield, OH","Springfield, OH",212,135877,61040,395.879,5.64,39.917032,-83.783676
44260,"Starkville, MS","Starkville, MS",523,61330,30249,879.397,5.765,33.514617,-89.077508
44300,"State College, PA","State College, PA",524,158665,65712,1107.259,4.361,40.909322,-77.847667
44340,"Statesboro, GA","Statesboro, GA",496,90588,37750,858.857,16.65,32.351704,-81.775036
44420,"Staunton-Stuarts Draft, VA","Staunton, VA",277,125355,55256,1001.964,3.88,38.160958,-79.127632
44460,"Steamboat Springs, CO","Steamboat Springs, CO",,38176,22738,7105.263,13.759,40.571846,-107.825352
44500,"Stephenville, TX","Stephenville, TX",,42788,18311,1083.179,6.628,32.236669,-98.220545
44540,"Sterling, CO","Sterling, CO",,21302,8693,1838.599,6.318,40.728091,-103.090464
44580,"Sterling, IL","Sterling, IL",221,55569,25860,684.099,12.31,41.750673,-89.911005
44620,"Stevens Point-Plover, WI","Stevens Point, WI",554,70281,31265,800.874,21.944,44.476246,-89.49807
44660,"Stillwater, OK","Stillwater, OK",,82058,36748,684.901,12.352,36.079225,-96.975255
44700,"Stockton-Lodi, CA","Stockton, CA",488,779445,252327,1392.238,34.363,37.934982,-121.272244
44740,"Storm Lake, IA","Storm Lake, IA",,20687,8197,574.899,5.327,42.741522,-95.141432
44780,"Sturgis, MI","Sturgis, MI",310,60887,27198,500.64,20.387,41.911488,-85.52287
44860,"Sulphur Springs, TX","Sulphur Springs, TX",206,37008,15698,767.431,25.341,33.148967,-95.565434
44900,"Summerville, GA","Summerville, GA",174,24902,10864,313.327,0.22,34.474178,-85.345289
44940,"Sumter, SC","Sumter, SC",192,105199,47015,665.078,17.007,33.91614,-80.382376
44980,"Sunbury, PA","Sunbury, PA",146,109505,51513,588.009,21.549,40.885514,-76.712649
45000,"Susanville, CA","Susanville, CA",,31873,12266,4541.369,178.746,40.715287,-120.621223
45020,"Sweetwater, TX","Sweetwater, TX",101,14657,7118,911.997,1.951,32.312338,-100.418108
45060,"Syracuse, NY","Syracuse, NY",532,658694,296553,2384.85,394.085,43.006516,-76.196134
45140,"Tahlequah, OK","Tahlequah, OK",,47412,22138,749.127,26.896,35.904367,-94.996796
45180,"Talladega-Sylacauga, AL","Talladega, AL",142,91434,44133,1387.726,38.944,33.186086,-86.197757
45220,"Tallahassee, FL","Tallahassee, FL",533,386064,173637,2389.3,430.529,30.346366,-84.267001
45300,"Tampa-St. Petersburg-Clearwater, FL","Tampa, FL",,3194310,1471328,2515.853,1408.794,28.120541,-82.525188
45340,"Taos, NM","Taos, NM",,34475,20950,2202.373,1.306,36.577183,-105.638878
45380,"Taylorville, IL","Taylorville, IL",522,33893,15210,709.483,6.265,39.545524,-89.279593
45460,"Terre Haute, IN","Terre Haute, IN",,169030,74685,1465.322,19.478,39.392389,-87.347096
45500,"Texarkana, TX-AR","Texarkana, TX",,147453,65526,2040.234,84.305,33.478373,-94.207162
45520,"The Dalles, OR","The Dalles, OR",,26639,12038,2381.136,13.793,45.164536,-121.165069
45580,"Thomaston, GA","Thomaston, GA",122,27638,12331,323.467,4.087,32.881837,-84.292283
45620,"Thomasville, GA","Thomasville, GA",,71740,32302,999.095,13.387,30.86301,-84.058195
45660,"Tiffin, OH","Tiffin, OH",248,55062,23960,551.026,1.767,41.119992,-83.127547
45700,"Tifton, GA","Tifton, GA",,50141,21308,546.308,12.462,31.592714,-83.572994
45740,"Toccoa, GA","Toccoa, GA",,26732,12342,178.862,5.034,34.553582,-83.290588
45780,"Toledo, OH","Toledo, OH",,604180,275115,1362.276,261.308,41.544357,-83.690777
45820,"Topeka, KS","Topeka, KS",,232995,104653,3232.713,57.242,39.041389,-95.802639
45860,"Torrington, CT","Torrington, CT",405,112696,55596,786.642,21.466,41.854809,-73.221494
45880,"Town of Pecos, TX","Town of Pecos, TX",,14022,5064,2635.354,6.717,31.308366,-103.712706
45900,"Traverse City, MI","Traverse City, MI",,153733,85143,1690.975,2872.657,44.952324,-85.90832
45940,"Trenton-Princeton, NJ","Trenton, NJ",408,383732,150035,224.478,4.377,40.282503,-74.703724
45980,"Troy, AL","Troy, AL",,32997,16049,672.067,0.903,31.798653,-85.941608
46020,"Truckee-Grass Valley, CA","Truckee, CA",472,102322,53690,957.76,16.036,39.297508,-120.771343
46060,"Tucson, AZ","Tucson, AZ",536,1042393,471058,9188.683,1.974,32.128038,-111.783657
46100,"Tullahoma-Manchester, TN","Tullahoma, TN",400,64638,27939,558.186,6.785,35.44674,-86.134324
46140,"Tulsa, OK","Tulsa, OK",538,1017724,438892,6270.276,189.903,36.254442,-96.177298
46180,"Tupelo, MS","Tupelo, MS",539,132176,58780,1397.745,14.079,34.384239,-88.508626
46220,"Tuscaloosa, AL","Tuscaloosa, AL",,272931,121779,3493.269,64.535,33.097877,-87.799147
46300,"Twin Falls, ID","Twin Falls, ID",,115066,43638,2519.257,11.957,42.440397,-114.568729
46340,"Tyler, TX","Tyler, TX",540,234667,97561,921.473,28.248,32.375105,-95.268939
46380,"Ukiah, CA","Ukiah, CA",,91145,41380,3506.807,371.348,39.432388,-123.442881
46460,"Union City, TN","Union City, TN",542,30670,14335,544.848,10.598,36.361892,-89.148078
46500,"Urbana, OH","Urbana, OH",212,38715,16870,428.977,0.842,40.132775,-83.767604
46520,"Urban Honolulu, HI","Urban Honolulu, HI",,1010100,369775,600.786,1565.437,21.461365,-158.201974
46540,"Utica-Rome, NY","Utica, NY",,291348,137499,2623.028,91.783,43.33228,-75.173189
46580,"Utuado, PR","Utuado, PR",490,28155,13346,113.532,1.538,18.270865,-66.702989
46620,"Uvalde, TX","Uvalde, TX",,24833,10108,1551.922,6.712,29.350308,-99.768427
46660,"Valdosta, GA","Valdosta, GA",,148203,62236,1607.368,21.516,30.827158,-83.243555
46700,"Vallejo, CA","Vallejo, CA",488,450995,162513,821.736,84.408,38.267226,-121.939594
46780,"Van Wert, OH","Van Wert, OH",338,28833,12560,409.15,1.269,40.85552,-84.585775
46820,"Vermillion, SD","Vermillion, SD",,14953,6152,412.022,5.397,42.91615,-96.980468
46860,"Vernal, UT","Vernal, UT",,35951,13689,4482.881,21.609,40.125887,-109.517748
46900,"Vernon, TX","Vernon, TX",,12795,5861,970.946,7.028,34.08492,-99.24244
46980,"Vicksburg, MS","Vicksburg, MS",298,44341,21533,588.534,30.02,32.356095,-90.852384
47020,"Victoria, TX","Victoria, TX",544,98301,42506,1734.098,14.103,28.731455,-97.196993
47080,"Vidalia, GA","Vidalia, GA",,35633,15835,605.158,10.528,32.154218,-82.411379
47180,"Vincennes, IN","Vincennes, IN",,36148,16938,515.831,8.073,38.688381,-87.420358
47220,"Vineland, NJ","Vineland, NJ",428,153588,57143,483.38,194.465,39.328434,-75.121628
47240,"Vineyard Haven, MA","Vineyard Haven, MA",,20543,17621,103.202,387.759,41.38097,-70.701499
47260,"Virginia Beach-Chesapeake-Norfolk, VA-NC","Virginia Beach, VA",545,1778374,753121,3201.872,1351.589,36.837289,-76.391849
47300,"Visalia, CA","Visalia, CA",,473446,151190,4823.899,14.387,36.228834,-118.781055
47340,"Wabash, IN","Wabash, IN",,31032,14053,412.539,8.437,40.843747,-85.795192
47380,"Waco, TX","Waco, TX",,296507,122894,2785.157,51.558,31.5921,-97.286018
47420,"Wahpeton, ND-MN","Wahpeton, ND",244,23002,10529,2186.712,9.852,46.29395,-96.790701
47460,"Walla Walla, WA","Walla Walla, WA",314,62150,25032,1270.033,28.932,46.254606,-118.48037
47540,"Wapakoneta, OH","Wapakoneta, OH",338,46263,19961,401.388,0.517,40.561309,-84.224018
47580,"Warner Robins, GA","Warner Robins, GA",356,192171,78912,526.33,4.891,32.492806,-83.711084
47620,"Warren, PA","Warren, PA",,38492,21694,884.282,14.428,41.834298,-79.298182
47660,"Warrensburg, MO","Warrensburg, MO",312,54025,22605,829.261,3.931,38.741528,-93.811863
47700,"Warsaw, IN","Warsaw, IN",515,80442,38312,531.446,22.947,41.244293,-85.861575
47780,"Washington, IN","Washington, IN",,33337,12739,429.514,7.36,38.69609,-87.076943
47820,"Washington, NC","Washington, NC",274,44711,24299,832.736,130.112,35.482313,-76.842014
47900,"Washington-Arlington-Alexandria, DC-VA-MD-WV","Washington, DC",548,6239011,2458498,6034.459,302.229,38.829787,-77.495684
47920,"Washington Court House, OH","Washington Court House, OH",198,28901,12685,406.361,0.654,39.555246,-83.461893
47930,"Waterbury-Shelton, CT","Waterbury, CT",405,451887,191666,412.784,8.783,41.518931,-73.087906
47940,"Waterloo-Cedar Falls, IA","Waterloo, IA",,168404,74549,1503.092,10.883,42.536796,-92.471608
47980,"Watertown, SD","Watertown, SD",,28402,13257,687.585,29.579,44.966285,-97.198837
48020,"Watertown-Fort Atkinson, WI","Watertown, WI",376,85932,36469,556.492,26.249,43.013804,-88.773985
48060,"Watertown-Fort Drum, NY","Watertown, NY",,117445,61573,1267.93,588.628,43.996389,-76.052968
48140,"Wausau, WI","Wausau, WI",554,137820,59980,1545.194,31.14,44.898036,-89.757823
48180,"Waycross, GA","Waycross, GA",,55739,24310,1239.696,11.521,31.133114,-82.36865
48200,"Waynesville, NC","Waynesville, NC",120,62152,35051,553.56,0.942,35.558882,-82.981307
48220,"Weatherford, OK","Weatherford, OK",555,39321,18072,1991.868,18.883,35.449463,-98.991295
48260,"Weirton-Steubenville, WV-OH","Weirton, WV",430,116536,56207,579.93,11.562,40.388914,-80.701966
48300,"Wenatchee-East Wenatchee, WA","Wenatchee, WA",,122265,55019,4740.422,102.784,47.76611,-120.270197
48460,"West Plains, MO","West Plains, MO",,39960,18081,927.177,1.127,36.774369,-91.887368
48540,"Wheeling, WV-OH","Wheeling, WV",,139287,67612,943.388,19.065,39.977687,-80.854826
48580,"Whitewater-Elkhorn, WI","Whitewater, WI",376,105127,53231,555.433,21.163,42.66811,-88.541731
48620,"Wichita, KS","Wichita, KS",556,646794,276052,4148.141,33.185,37.637896,-97.246287
48660,"Wichita Falls, TX","Wichita Falls, TX",,148523,64650,2619.641,55.568,33.776144,-98.501907
48680,"Wildwood-The Villages, FL","Wildwood, FL",422,131832,76923,557.144,22.685,28.713976,-82.069684
48700,"Williamsport, PA","Williamsport, PA",558,114022,52671,1228.92,15.026,41.343882,-77.055262
48780,"Williston, ND","Williston, ND",,39076,20185,2077.6,70.208,48.355765,-103.501333
48820,"Willmar, MN","Willmar, MN",,43686,20032,797.365,65.012,45.152714,-95.004981
48900,"Wilmington, NC","Wilmington, NC",,429447,235362,1913.62,398.949,34.253691,-78.041674
48940,"Wilmington, OH","Wilmington, OH",178,42077,17938,408.731,3.602,39.416681,-83.804583
48980,"Wilson, NC","Wilson, NC",468,78667,36429,367.574,5.534,35.700357,-77.921598
49010,"Winchester, TN","Winchester, TN",400,42980,19565,554.497,21.254,35.155926,-86.099203
49020,"Winchester, VA-WV","Winchester, VA",548,143385,60881,1062.73,6.493,39.272974,-78.471828
49080,"Winnemucca, NV","Winnemucca, NV",,17266,7671,9640.792,17.064,41.407914,-118.127591
49100,"Winona, MN","Winona, MN",462,49792,21702,626.177,15.464,43.981353,-91.777044
49180,"Winston-Salem, NC","Winston, NC",268,678243,303193,2009.002,31.474,36.078852,-80.345064
49220,"Wisconsin Rapids-Marshfield, WI","Wisconsin Rapids, WI",554,74138,34558,793.017,16.235,44.461413,-90.038825
49260,"Woodward, OK","Woodward, OK",,20411,9372,1242.786,3.743,36.425619,-99.273661
49300,"Wooster, OH","Wooster, OH",184,116680,46649,554.789,1.946,40.829661,-81.887194
49340,"Worcester, MA","Worcester, MA",148,858898,351506,1510.677,68.476,42.311693,-71.940282
49380,"Worthington, MN","Worthington, MN",,22194,8424,715.117,7.434,43.677686,-95.763132
49420,"Yakima, WA","Yakima, WA",,256143,90660,4294.512,15.903,46.456558,-120.740145
49460,"Yankton, SD","Yankton, SD",,23311,10405,521.189,11.072,43.006603,-97.388361
49620,"York-Hanover, PA","York, PA",276,457051,187450,904.366,6.372,39.921751,-76.728889
49660,"Youngstown-Warren, OH","Youngstown, OH",566,429728,202778,1029.066,32.151,41.195092,-80.76508
49700,"Yuba City, CA","Yuba City, CA",472,180806,64186,1234.702,17.72,39.160969,-121.511833
49740,"Yuma, AZ","Yuma, AZ",,204374,92808,5513.82,5.113,32.773942,-113.910905
49780,"Zanesville, OH","Zanesville, OH",198,86393,38348,664.546,8.04,39.966046,-81.943506
49820,"Zapata, TX","Zapata, TX",,13896,6183,998.412,59.603,26.996981,-99.182603
