GEOID,GNIS ID,Name,County GEOID,FIPS Class,Population,Housing Units,Land Area,Water Area,Latitude,Longitude
0100190171,161593,Autaugaville Division,01001,Z5,3850,1880,184.615,5.366,32.4560218,-86.7322067
0100190315,165647,Billingsley Division,01001,Z5,2959,1495,149.37,0.608,32.6089354,-86.7563119
0100192106,165648,Marbury Division,01001,Z5,6540,2723,113.034,0.199,32.6429572,-86.5237702
0100192628,165649,Prattville Division,01001,Z5,44890,18072,147.436,3.741,32.4794472,-86.5068128
0100390207,161594,Bay Minette Division,01003,Z5,26591,10035,516.725,10.624,30.7891942,-87.6981651
0100390846,165650,Daphne Division,01003,Z5,53903,21301,114.809,54.98,30.6681314,-87.9091085
0100390963,165651,Elberta Division,01003,Z5,12220,6664,122.041,18.285,30.4102392,-87.5253896
0100391053,165652,Fairhope Division,01003,Z5,32367,14882,65.768,75.65,30.4645517,-87.9114905
0100391152,161595,Foley Division,01003,Z5,64768,53583,174.285,261.455,30.2969467,-87.7888774
0100392754,161596,Robertsdale Division,01003,Z5,28582,11241,170.738,1.64,30.566334,-87.6403482
0100393024,161597,Stockton Division,01003,Z5,3244,1897,375.109,14.499,31.1127694,-87.7862163
0100393042,165653,Summerdale Division,01003,Z5,5456,2160,50.388,0.278,30.4907504,-87.680929
0100590189,165654,Bakerhill Division,01005,Z5,3030,2031,128.848,3.854,31.7736328,-85.2855747
0100590630,165655,Clayton Division,01005,Z5,3841,1275,199.617,0.38,31.9204029,-85.453759
0100590648,165656,Clio Division,01005,Z5,3859,1515,132.556,0.154,31.6731224,-85.5681143
0100591017,161598,Eufaula Division,01005,Z5,13025,5921,287.771,14.927,31.995114,-85.2431998
0100591989,165657,Louisville Division,01005,Z5,1504,925,136.216,0.193,31.8001677,-85.5725552
0100790531,161599,Centreville-Brent Division,01007,Z5,12765,5008,388.054,1.674,32.9331656,-87.1461983
0100792601,165658,Piper-Coleanor Division,01007,Z5,1129,507,74.919,0.779,33.0671551,-86.9953602
0100793438,165659,West Blocton Division,01007,Z5,8518,3498,159.496,1.243,33.1248166,-87.1403254
0100990333,165660,Blountsville Division,01009,Z5,7439,3145,96.224,0.577,34.0327756,-86.6356784
0100990414,165661,Brooksville Division,01009,Z5,4076,1882,94.651,0.485,34.165243,-86.4881144
0100990612,165662,Clarence Division,01009,Z5,5364,2531,73.32,0.191,34.0758336,-86.3910085
0100990639,165663,Cleveland Division,01009,Z5,4199,1580,44.994,0.212,33.9988916,-86.5440621
0100991557,165664,Hayden Division,01009,Z5,14184,5195,102.601,0.603,33.8949809,-86.8112195
0100991953,165665,Locust Fork Division,01009,Z5,8526,3615,78.652,0.382,33.8480979,-86.6435392
0100992439,165666,Oneonta Division,01009,Z5,15096,6579,154.449,3.287,33.9105829,-86.4647174
0101191098,165667,Fitzpatrick Division,01011,Z5,875,369,134.459,0.784,32.1615282,-85.9192712
0101191701,165668,Inverness Division,01011,Z5,1770,820,169.147,0.557,31.9936017,-85.7512191
0101192133,165669,Midway Division,01011,Z5,1627,784,165.331,0.19,32.1096678,-85.5220483
0101193249,165670,Union Springs Division,01011,Z5,6114,2549,153.877,0.797,32.1546308,-85.7059072
0101390540,165671,Chapman Division,01013,Z5,1988,926,136.009,0.068,31.7186621,-86.7474627
0101391170,165672,Forest Home Division,01013,Z5,1377,792,170.457,0.105,31.8761917,-86.7944197
0101391314,165673,Georgiana-McKenzie Division,01013,Z5,3898,2276,197.941,0.142,31.5914941,-86.7085343
0101391422,165674,Greenville Division,01013,Z5,11918,5848,272.432,0.727,31.8083503,-86.5551076
0101590066,165679,Alexandria-Webster Chapel Division,01015,Z5,11758,4593,100.936,0.693,33.8470716,-85.8932033
0101590099,161600,Anniston Division,01015,Z5,66915,31354,204.726,1.264,33.6733194,-85.8701645
0101590585,165675,Choccolocco Division,01015,Z5,7207,2954,92.402,0.911,33.7368502,-85.6777487
0101591746,165676,Jacksonville Division,01015,Z5,18649,8428,71.108,0.214,33.8565577,-85.7669255
0101592430,165677,Ohatchee Division,01015,Z5,4626,2182,68.607,2.907,33.7668853,-86.0355301
0101592556,165678,Piedmont Division,01015,Z5,7270,3601,68.112,0.394,33.9166876,-85.6388567
0101791107,165680,Five Points Division,01017,Z5,2664,1344,119.012,3.618,33.0377219,-85.3234455
0101791818,165681,La Fayette Division,01017,Z5,4600,2211,181.06,0.789,32.8970024,-85.4440691
0101791827,165682,Lanett Division,01017,Z5,11024,4732,64.99,0.933,32.8860534,-85.2536224
0101792169,165684,Milltown Division,01017,Z5,1051,441,80.099,0.827,33.0400692,-85.5149223
0101793272,165683,Valley Division,01017,Z5,14190,6998,71.397,0.171,32.7805646,-85.249187
0101793393,165685,Waverly Division,01017,Z5,1305,707,79.995,0.221,32.7801996,-85.4961336
0101990513,165686,Cedar Bluff-Gaylesville Division,01019,Z5,7364,4339,176.44,15.428,34.3221423,-85.5584891
0101990522,165687,Centre Division,01019,Z5,8189,4147,142.864,6.649,34.0732708,-85.6653181
0101991854,165688,Leesburg Division,01019,Z5,5488,3321,90.188,12.893,34.2042719,-85.7526472
0101992983,165689,Spring Garden Division,01019,Z5,3934,2927,144.032,11.482,34.0750016,-85.501887
0102190603,165690,Clanton Division,01021,Z5,14048,6283,84.536,1.441,32.8513951,-86.6024472
0102191710,165691,Isabella-Pletcher Division,01021,Z5,4011,1594,100.673,0.153,32.7724372,-86.7382547
0102191764,165692,Jemison Division,01021,Z5,15032,5821,129.411,0.618,32.9752004,-86.7827187
0102192097,165693,Maplesville Division,01021,Z5,3362,1365,174.171,0.536,32.7630929,-86.8988487
0102192178,165694,Mineral Springs Division,01021,Z5,3551,1797,105.075,3.524,32.9800633,-86.6057393
0102193285,165695,Verbena Division,01021,Z5,4853,2547,98.971,1.678,32.7595695,-86.5258532
0102390441,161601,Butler Division,01023,Z5,4204,2328,290.625,2.818,32.0663272,-88.2124534
0102391332,165696,Gilbertown-Toxey Division,01023,Z5,3172,1967,223.37,0.729,31.9395048,-88.3485594
0102391908,165697,Lisman Division,01023,Z5,3248,1717,222.889,1.613,32.24277,-88.2134558
0102392925,165698,Silas Division,01023,Z5,2168,1120,176.595,2.221,31.7616598,-88.3023521
0102590675,165699,Coffeeville Division,01025,Z5,1228,923,142.919,2.941,31.8338828,-88.0609605
0102591260,165700,Fulton Division,01025,Z5,1641,813,96.143,0.028,31.798006,-87.6610296
0102591440,161602,Grove Hill Division,01025,Z5,5163,2579,321.513,1.892,31.6348287,-87.6996709
0102591726,165701,Jackson Division,01025,Z5,6965,3328,186.776,2.22,31.6049635,-87.9454419
0102593132,161604,Thomasville Division,01025,Z5,5103,2617,263.699,0.1,31.8915235,-87.8522448
0102593362,161603,Walker Springs Division,01025,Z5,3246,1528,227.371,6.972,31.4010372,-87.821392
0102790126,165702,Ashland Division,01027,Z5,6348,2952,217.253,0.736,33.2234429,-85.8015251
0102791899,165703,Lineville Division,01027,Z5,5473,3011,198.088,0.735,33.3941759,-85.7729166
0102792142,165704,Millerville-Hollins Division,01027,Z5,2363,1046,188.621,0.568,33.189935,-86.0208837
0102991251,165705,Fruithurst Division,01029,Z5,3018,1256,189.761,0.178,33.8244794,-85.4700638
0102991593,161605,Heflin Division,01029,Z5,7517,3400,255.918,0.597,33.6059049,-85.6088407
0102992682,165706,Ranburne Division,01029,Z5,4511,2136,114.427,0.133,33.5790617,-85.3979992
0103190954,165707,Elba Division,01031,Z5,6333,3056,158.245,0.605,31.4143511,-86.0805553
0103190999,165708,Enterprise Division,01031,Z5,38550,16955,214.144,0.247,31.3587384,-85.8687277
0103191341,165709,Goodman Division,01031,Z5,2329,1055,82.458,0.312,31.2532595,-86.0285777
0103191719,165710,Jack Division,01031,Z5,2347,1118,94.272,0.042,31.5584173,-86.0568728
0103191800,165711,Kinston Division,01031,Z5,1669,715,49.435,0.234,31.2757464,-86.1529505
0103193303,165712,Victoria Division,01031,Z5,1815,1035,80.432,0.069,31.5448136,-85.9006035
0103390567,161606,Cherokee Division,01033,Z5,3608,2148,243.145,15.254,34.7226229,-88.0131553
0103391863,165713,Leighton Division,01033,Z5,7798,4319,129.044,8.437,34.6996333,-87.5244006
0103391926,165714,Littleville Division,01033,Z5,7929,3337,151.413,3.116,34.6504127,-87.7805187
0103393186,165715,Tri-Cities Division,01033,Z5,37454,17692,69.352,3.756,34.729171,-87.6483568
0103590504,165716,Castleberry Division,01035,Z5,2779,1604,185.439,1.154,31.3492489,-87.0411512
0103591044,165717,Evergreen Division,01035,Z5,4569,2555,209.274,0.697,31.3804315,-86.858547
0103592016,161607,Lyeffion Division,01035,Z5,1916,922,217.81,0.235,31.596975,-87.0069263
0103592718,165718,Repton Division,01035,Z5,1789,965,151.168,0.3,31.3536159,-87.2468026
0103592916,165719,Shreve Division,01035,Z5,725,423,86.588,0.096,31.4291349,-86.7433555
0103791350,165720,Goodwater-Kellyton Division,01037,Z5,3072,1671,97.066,0.615,32.9944114,-86.0753871
0103792763,165721,Rockford Division,01037,Z5,3795,2383,250.916,5.687,32.8339149,-86.2059768
0103793429,161608,Weogufka-Marble Valley Division,01037,Z5,3575,2010,302.927,9.139,33.0019873,-86.3357887
0103990090,161609,Andalusia Division,01039,Z5,17607,8686,360.485,3.155,31.3292048,-86.5244697
0103991062,165722,Falco Division,01039,Z5,1915,958,204.821,2.601,31.1220604,-86.5861567
0103991134,165723,Florala Division,01039,Z5,3475,1667,155.666,1.482,31.0518361,-86.3485963
0103992448,165724,Opp Division,01039,Z5,9630,4689,170.646,1.819,31.2505224,-86.2666647
0103992781,165725,Rose Hill-Gantt Division,01039,Z5,4863,2627,138.953,4.146,31.4389385,-86.4047496
0104190360,161610,Brantley Division,01041,Z5,2847,1630,185.239,0.814,31.5580293,-86.3207434
0104192007,165726,Luverne Division,01041,Z5,6435,3098,243.969,0.638,31.7255311,-86.3108958
0104192529,165727,Petrey-Highland Home Division,01041,Z5,4018,1816,179.657,0.629,31.9179213,-86.309711
0104390180,165728,Baileyton-Joppa Division,01043,Z5,6536,2743,56.793,0.483,34.2655212,-86.5732357
0104390369,165729,Bremen Division,01043,Z5,8167,4115,147.739,6.521,33.9749585,-86.9723152
0104390774,165730,Crane Hill Division,01043,Z5,2615,1964,43.839,8.117,34.0562608,-87.0540483
0104390810,165731,Cullman Division,01043,Z5,28833,12829,79.327,1.609,34.1585539,-86.8436261
0104391521,165732,Hanceville Division,01043,Z5,8062,3615,72.941,0.498,34.0279799,-86.7987611
0104391647,165733,Holly Pond Division,01043,Z5,5264,2006,54.105,0.479,34.1617836,-86.6357421
0104391773,165734,Jones Chapel Division,01043,Z5,4667,1910,83.365,0.744,34.2183247,-87.0576576
0104391962,165735,Logan Division,01043,Z5,3863,1684,51.284,0.324,34.1562267,-86.9687602
0104392934,165736,Simcoe Division,01043,Z5,7616,3184,59.549,0.498,34.2402073,-86.7258866
0104393330,165737,Vinemont Division,01043,Z5,8957,3684,64.289,0.626,34.2728905,-86.8841952
0104393420,165738,Welti Division,01043,Z5,2549,1125,21.509,0.384,34.135545,-86.729005
0104590828,165739,Daleville Division,01045,Z5,11201,5845,60.842,0.0,31.2674782,-85.7393602
0104590936,165740,Echo Division,01045,Z5,1988,1083,95.44,0.12,31.493178,-85.471693
0104591215,165741,Fort Rucker Division,01045,Z5,5912,1519,66.595,1.082,31.388618,-85.7229812
0104592376,165742,Newton-Midland City Division,01045,Z5,9785,4438,100.294,0.04,31.3187425,-85.530129
0104592466,165743,Ozark Division,01045,Z5,20557,9905,237.941,0.322,31.5088712,-85.6364741
0104790486,165744,Carlowville Division,01047,Z5,614,426,195.563,1.979,32.1316423,-87.049221
0104792457,165746,Orrville Division,01047,Z5,2537,1114,208.935,2.612,32.3282549,-87.2123292
0104792808,165747,Safford Division,01047,Z5,293,200,152.464,2.009,32.3138029,-87.3548774
0104792844,165748,Sardis Division,01047,Z5,1435,878,79.177,1.332,32.2728637,-87.021388
0104792880,161611,Selma Division,01047,Z5,29264,13926,262.517,4.724,32.4884439,-87.0061258
0104792883,165745,Selmont-Tyler Division,01047,Z5,5019,2493,80.082,2.451,32.3318291,-86.9155157
0104990693,165749,Collinsville Division,01049,Z5,4456,1778,79.879,0.393,34.2665991,-85.8773309
0104990792,165750,Crossville Division,01049,Z5,8437,3186,58.442,0.094,34.2570496,-86.028038
0104991206,165751,Fort Payne Division,01049,Z5,19826,8671,161.289,0.559,34.4139039,-85.7189247
0104991269,165752,Fyffe Division,01049,Z5,6656,2629,82.722,0.009,34.4367461,-85.9718555
0104991323,165753,Geraldine Division,01049,Z5,5277,2521,82.77,0.039,34.3518473,-86.0013465
0104991611,165754,Henagar Division,01049,Z5,3546,1442,44.238,0.038,34.6122909,-85.7218208
0104991692,165755,Ider Division,01049,Z5,5752,2353,78.335,0.0,34.729368,-85.6366785
0104992655,165756,Rainsville-Sylvania Division,01049,Z5,13716,5673,94.744,0.199,34.5182877,-85.8237575
0104993276,165757,Valley Head-Mentone Division,01049,Z5,3888,2394,94.659,0.255,34.5864851,-85.5897022
0105190855,165758,Deatsville Division,01051,Z5,10261,3129,63.56,4.746,32.6429785,-86.3568274
0105190945,165759,Eclectic Division,01051,Z5,7632,5048,110.122,18.184,32.6703187,-86.0024314
0105190972,165760,Elmore Division,01051,Z5,30066,12138,66.109,4.259,32.5044309,-86.3534343
0105193087,165761,Tallassee Division,01051,Z5,7969,3550,122.34,2.642,32.5160346,-85.9795277
0105193141,165762,Titus Division,01051,Z5,4905,2100,108.429,3.66,32.7050312,-86.2177696
0105193456,165763,Wetumpka Division,01051,Z5,26313,10460,147.957,5.034,32.542755,-86.1737719
0105390153,165764,Atmore Division,01053,Z5,11666,5921,113.605,0.935,31.056917,-87.4604571
0105390378,165765,Brewton Division,01053,Z5,9859,4660,163.531,1.829,31.1527372,-87.1311978
0105390927,161612,East Escambia Division,01053,Z5,5750,2672,364.597,3.623,31.1152402,-86.8905058
0105391125,165766,Flomaton Division,01053,Z5,3754,1914,128.086,0.678,31.1086563,-87.2802646
0105392034,165767,McCullough-Huxford Division,01053,Z5,5850,1505,175.589,0.667,31.1815454,-87.4755945
0105590081,165768,Altoona Division,01055,Z5,4969,2336,79.323,0.259,34.0558387,-86.2619841
0105591278,165769,Gadsden Division,01055,Z5,71097,33205,186.003,10.124,33.9753009,-86.0575077
0105591638,165770,Hokes Bluff Division,01055,Z5,9788,4540,79.204,1.766,34.016726,-85.8274198
0105591980,165771,Lookout Mountain Division,01055,Z5,2522,1163,50.549,0.026,34.131515,-85.9242982
0105592268,165772,Mountainboro Division,01055,Z5,9769,3869,69.358,0.198,34.1378315,-86.1202122
0105593213,165773,Turkeytown Division,01055,Z5,3344,1496,33.746,1.13,34.0643418,-85.863656
0105593465,165774,Wills Valley Division,01055,Z5,1979,720,36.923,0.019,34.1444937,-86.0030279
0105790279,165775,Berry Division,01057,Z5,3671,1400,165.135,0.213,33.6474473,-87.6070653
0105791089,165776,Fayette Division,01057,Z5,8262,4308,200.039,1.293,33.643481,-87.8397688
0105792380,165777,Northeast Fayette Division,01057,Z5,1324,625,120.232,0.028,33.808499,-87.6367739
0105793495,165778,Winfield-Glen Allen Division,01057,Z5,3108,1503,142.278,0.138,33.8425961,-87.8353847
0105992547,165779,Phil Campbell Division,01059,Z5,6321,2544,135.549,1.033,34.3579105,-87.6989614
0105992691,165780,Red Bay Division,01059,Z5,5382,2677,130.148,2.607,34.4879602,-88.0591784
0105992799,165781,Russellville Division,01059,Z5,18752,7938,263.094,7.177,34.4911926,-87.7444009
0105993312,165782,Vina Division,01059,Z5,1579,771,105.168,1.746,34.3657313,-88.0127095
0106190252,165783,Bellwood-Coffee Springs Division,01061,Z5,2105,1165,84.412,0.417,31.1551768,-85.8859688
0106191305,165784,Geneva Division,01061,Z5,5563,2639,56.195,0.604,31.0507978,-85.9113163
0106191530,165785,Hartford Division,01061,Z5,5854,2729,131.443,1.115,31.0725916,-85.7358628
0106192835,165786,Samson Division,01061,Z5,4208,2284,166.772,1.972,31.0882555,-86.0871566
0106192952,165787,Slocomb Division,01061,Z5,8874,3678,135.663,0.358,31.1061661,-85.572125
0106390342,165788,Boligee Division,01063,Z5,393,434,71.292,1.206,32.7629838,-88.0276767
0106391026,161613,Eutaw Division,01063,Z5,4029,1962,193.992,3.914,32.8968647,-87.8766488
0106391179,165789,Forkland-Tishabee Division,01063,Z5,1326,971,149.105,5.667,32.652901,-87.8972139
0106392088,161614,Mantua-West Greene Division,01063,Z5,2103,936,232.634,2.115,32.975634,-88.0287934
0106591413,165790,Greensboro Division,01065,Z5,3501,1796,19.005,0.284,32.6937782,-87.5971421
0106591414,165792,Greensboro Northeast Division,01065,Z5,1244,678,111.086,0.771,32.784204,-87.5278527
0106591415,165794,Greensboro South Division,01065,Z5,965,474,69.107,2.326,32.6373104,-87.660903
0106592259,165791,Moundville Division,01065,Z5,3710,1511,132.941,1.097,32.9462573,-87.5556261
0106592345,165793,Newbern Division,01065,Z5,1656,835,113.147,2.027,32.5441876,-87.641357
0106592853,165795,Sawyerville Division,01065,Z5,2405,1121,102.71,3.277,32.7460809,-87.7332693
0106593015,165796,Stewart-Akron Division,01065,Z5,1338,1007,95.994,2.729,32.8644631,-87.7010217
0106790009,165797,Abbeville Division,01067,Z5,4070,2308,172.799,0.233,31.598084,-85.3148341
0106791485,165798,Haleburg Division,01067,Z5,1862,782,120.686,0.066,31.4099231,-85.1497125
0106791584,165799,Headland-Newville Division,01067,Z5,8151,3408,137.87,0.049,31.4023519,-85.3236024
0106792907,165800,Shorterville Division,01067,Z5,3082,2559,130.537,6.069,31.6146703,-85.1464918
0106990702,165801,Columbia Division,01069,Z5,1255,603,43.565,0.131,31.2475988,-85.147746
0106990747,165802,Cottonwood Division,01069,Z5,5411,2691,78.825,0.366,31.0702411,-85.2999826
0106990900,161615,Dothan Division,01069,Z5,89995,41402,265.293,0.77,31.2183663,-85.3764208
0106991368,165803,Gordon Division,01069,Z5,1921,1028,118.269,0.233,31.0771088,-85.1158906
0106992070,165804,Madrid Division,01069,Z5,7773,3216,73.873,0.351,31.0734843,-85.4292385
0107190387,165805,Bridgeport Division,01071,Z5,3371,1719,35.89,1.096,34.9499947,-85.7585109
0107191971,165806,Long Island Division,01071,Z5,5929,2775,134.598,5.258,34.852143,-85.7005517
0107192475,165807,Paint Rock Division,01071,Z5,3437,1564,99.863,0.364,34.6775928,-86.2564796
0107192610,165808,Pisgah Division,01071,Z5,4223,2074,76.334,2.874,34.6992769,-85.8080392
0107192637,165809,Princeton Division,01071,Z5,2179,1109,213.17,0.648,34.8669037,-86.2181979
0107192862,165810,Scottsboro Division,01071,Z5,20954,9600,194.088,19.31,34.7008819,-86.057374
0107192871,165811,Section Division,01071,Z5,6538,3038,109.578,12.089,34.5687297,-85.970662
0107193006,165812,Stevenson Division,01071,Z5,5917,2787,214.494,7.139,34.8858352,-85.9288552
0107390324,161616,Birmingham Division,01073,Z5,450098,216125,317.988,1.437,33.5142417,-86.8261326
0107390405,165813,Brookside Division,01073,Z5,3742,1549,40.834,0.185,33.6828839,-86.9198936
0107390621,165814,Clay Division,01073,Z5,14357,5405,37.384,0.472,33.704332,-86.5837001
0107390722,165815,Concord-Rock Creek Division,01073,Z5,7567,2960,32.535,0.217,33.4435853,-87.0526748
0107391296,165816,Gardendale Division,01073,Z5,24551,10290,77.105,0.083,33.6975444,-86.8063047
0107391404,165817,Graysville-Adamsville Division,01073,Z5,11434,5002,45.247,0.494,33.618305,-86.9792286
0107391431,165818,Greenwood Division,01073,Z5,25143,10740,49.255,0.561,33.3018369,-86.9740122
0107391656,165819,Hoover Division,01073,Z5,54081,22757,44.648,0.318,33.3953351,-86.8643108
0107391791,165820,Kimberly-Morris Division,01073,Z5,10492,4220,44.028,0.034,33.7706931,-86.7449662
0107391845,165821,Leeds Division,01073,Z5,16761,7159,41.801,1.016,33.5092739,-86.6141545
0107392124,165822,Maytown-Sylvan Springs Division,01073,Z5,4506,1576,65.222,0.491,33.5394886,-87.0641695
0107392385,165823,North Johns Division,01073,Z5,5218,2369,137.445,3.262,33.4118793,-87.172964
0107392484,165824,Palmerdale Division,01073,Z5,6114,2230,20.544,0.408,33.7427792,-86.6492327
0107392745,165825,Robbins Crossroads Division,01073,Z5,5578,2318,35.516,0.374,33.7316359,-86.9944509
0107393204,165826,Trussville Division,01073,Z5,22697,8833,33.797,0.67,33.6167085,-86.5869509
0107393366,165827,Warrior Division,01073,Z5,6978,2719,43.715,0.093,33.8049883,-86.8642113
0107393447,165828,West Jefferson Division,01073,Z5,3233,1355,44.476,2.495,33.5753902,-87.143654
0107592151,165829,Millport Division,01075,Z5,4384,2032,196.941,0.118,33.607407,-88.0965548
0107593033,165830,Sulligent Division,01075,Z5,4471,2141,217.533,0.171,33.946122,-88.0969267
0107593294,165831,Vernon Division,01075,Z5,5074,2931,190.371,0.329,33.7654653,-88.0972218
0107790657,165832,Cloverdale Division,01077,Z5,6430,2625,83.661,0.282,34.9479156,-87.783636
0107791143,165833,Florence Division,01077,Z5,50802,25001,96.242,5.698,34.8900286,-87.6443723
0107791782,165834,Killen Division,01077,Z5,16115,7069,103.093,7.348,34.9113892,-87.5030476
0107791872,165835,Lexington Division,01077,Z5,4892,2198,53.537,2.415,34.9200559,-87.391758
0107792412,165836,Oakland Division,01077,Z5,4139,2149,97.729,9.041,34.8169523,-87.8127064
0107792772,165837,Rogersville Division,01077,Z5,8777,4254,113.991,9.087,34.8860175,-87.2866632
0107793384,165838,Waterloo Division,01077,Z5,2187,1232,119.762,17.713,34.9449142,-88.0154484
0107991548,165839,Hatton Division,01079,Z5,4511,1915,87.636,0.665,34.56763,-87.4175966
0107991629,165840,Hillsboro Division,01079,Z5,1820,889,62.826,10.702,34.6687752,-87.1842491
0107992241,165841,Morris Chapel Division,01079,Z5,10684,4824,75.778,0.57,34.5472343,-87.1847216
0107992250,165842,Moulton Division,01079,Z5,8173,3521,128.974,0.391,34.4318069,-87.2945151
0107992286,165843,Mount Hope Division,01079,Z5,1656,826,139.517,0.766,34.3991567,-87.4415512
0107992979,165844,Speake-Oakville Division,01079,Z5,2077,941,77.736,0.247,34.3807219,-87.1666773
0107993159,165845,Town Creek-Courtland Division,01079,Z5,4168,2304,118.218,13.179,34.6954938,-87.3464907
0108190162,165846,Auburn-Opelika Division,01081,Z5,101080,46322,140.263,1.536,32.6291426,-85.4122178
0108190243,165847,Beauregard-Marvyn Division,01081,Z5,13012,4683,126.919,1.162,32.5011433,-85.3496948
0108190288,165848,Beulah Division,01081,Z5,8060,3299,70.37,1.727,32.6801124,-85.2335261
0108191944,165849,Loachapoka-Roxana Division,01081,Z5,11262,4082,134.114,0.805,32.6498988,-85.5831416
0108192962,165850,Smiths Station Division,01081,Z5,38809,15171,135.879,3.076,32.5762254,-85.1453584
0108390144,161617,Athens Division,01083,Z5,77836,33073,378.236,30.681,34.8210383,-86.9765315
0108392232,165851,Mooresville Division,01083,Z5,19425,7191,92.432,9.481,34.6576305,-86.8549692
0108392817,165852,Salem Division,01083,Z5,3956,1504,92.736,3.622,34.9243504,-87.1351726
0108590270,165853,Benton-Collirene Division,01085,Z5,1969,928,113.236,0.803,32.230078,-86.7853854
0108591197,165855,Fort Deposit Division,01085,Z5,2754,1249,183.367,0.802,32.0365559,-86.5870864
0108591566,165856,Hayneville Division,01085,Z5,3353,1524,155.113,2.109,32.1904095,-86.4963892
0108591998,165857,Lowndesboro Division,01085,Z5,555,448,106.724,4.797,32.3121039,-86.6530143
0108592245,165854,Mosses Division,01085,Z5,1703,684,157.644,0.473,32.0911856,-86.7767132
0108791188,165858,Fort Davis Division,01087,Z5,531,274,77.562,0.326,32.2929968,-85.7373568
0108791917,165859,Little Texas-Society Hill Division,01087,Z5,1444,781,93.829,0.461,32.4272369,-85.5202556
0108792403,165860,Notasulga Division,01087,Z5,2698,1222,97.358,0.772,32.5193812,-85.6877063
0108792898,165861,Shorter-Hardaway Division,01087,Z5,2353,1044,104.976,1.156,32.3486932,-85.9039261
0108793230,165862,Tuskegee Division,01087,Z5,11580,5897,107.346,1.145,32.4241639,-85.7690561
0108793376,165863,Warriorstand-Creek Stand Division,01087,Z5,884,466,127.595,0.682,32.3082774,-85.5566891
0108991467,165865,Gurley Division,01089,Z5,20231,7826,65.333,0.452,34.6762273,-86.4338864
0108991575,165866,Hazel Green Division,01089,Z5,13576,5429,61.4,0.175,34.9446894,-86.55088
0108991674,161618,Huntsville Division,01089,Z5,242734,109756,236.924,1.452,34.7787525,-86.6133595
0108992052,165867,Madison Division,01089,Z5,44238,18331,22.361,0.059,34.7141756,-86.7495255
0108992061,165868,Madison Crossroads Division,01089,Z5,12329,5758,64.564,0.289,34.9342386,-86.7091582
0108992349,165869,New Hope Division,01089,Z5,15869,6549,110.459,2.422,34.5592396,-86.4403948
0108992358,165870,New Market Division,01089,Z5,16696,6738,151.151,0.732,34.8711914,-86.3992949
0108992695,165864,Redstone Arsenal Division,01089,Z5,1218,388,59.683,3.975,34.6335232,-86.6555419
0108993176,165871,Triana Division,01089,Z5,15258,7084,29.727,1.559,34.6187098,-86.7541977
0109190873,165872,Demopolis Division,01091,Z5,9276,4526,171.652,3.053,32.4256247,-87.8863955
0109190882,165873,Dixons Mill Division,01091,Z5,2525,1097,110.555,0.021,32.0593221,-87.7269421
0109191080,165874,Faunsdale Division,01091,Z5,855,415,88.869,0.22,32.4091995,-87.6152997
0109191890,161619,Linden Division,01091,Z5,3736,1991,264.331,1.35,32.2768905,-87.8095428
0109193051,165875,Sweet Water Division,01091,Z5,1936,1031,189.2,0.973,32.0801358,-87.9448251
0109193123,165876,Thomaston Division,01091,Z5,1069,790,152.291,0.155,32.242427,-87.5972644
0109390225,165877,Bear Creek Division,01093,Z5,4401,2282,103.983,0.751,34.214293,-87.7121639
0109390297,165878,Bexar Division,01093,Z5,1320,618,105.403,0.023,34.222484,-88.123043
0109390396,165879,Brilliant Division,01093,Z5,2193,1126,113.641,0.122,34.0553559,-87.7282368
0109391449,165880,Guin Division,01093,Z5,3365,1467,57.565,0.015,33.9908086,-87.899346
0109391476,165881,Hackleburg Division,01093,Z5,2646,1352,87.22,0.101,34.2575499,-87.8659361
0109391512,165882,Hamilton Division,01093,Z5,10269,4929,214.88,0.097,34.1397533,-87.9826378
0109393492,165883,Winfield Division,01093,Z5,5198,2357,59.651,0.119,33.9540996,-87.7551593
0109590054,165884,Albertville-Boaz Division,01095,Z5,39478,15415,95.056,0.285,34.2469458,-86.1984105
0109590108,165885,Arab Division,01095,Z5,15490,6616,61.419,0.445,34.3407032,-86.489213
0109590918,165886,Douglas Division,01095,Z5,6813,2408,59.49,0.186,34.1845631,-86.3212782
0109591395,165887,Grant Division,01095,Z5,11075,5626,133.565,20.225,34.4949342,-86.2792334
0109591458,165888,Guntersville Division,01095,Z5,14285,6331,67.255,17.212,34.3101864,-86.3218444
0109593150,165889,Town Creek Division,01095,Z5,3479,1488,67.079,14.632,34.4211758,-86.1555046
0109593240,165890,Union Grove Division,01095,Z5,6559,3245,81.982,4.35,34.4197668,-86.4621613
0109790216,165891,Bayou La Batre Division,01097,Z5,10244,5752,83.208,275.725,30.3075364,-88.1832339
0109790594,165892,Citronelle Division,01097,Z5,9311,3837,238.722,1.358,31.0304418,-88.2664653
0109791386,165893,Grand Bay Division,01097,Z5,34104,13381,150.383,35.289,30.4807197,-88.3185814
0109792187,161620,Mobile Division,01097,Z5,230674,104582,353.526,47.879,30.7914847,-88.0997133
0109792304,165894,Mount Vernon Division,01097,Z5,4678,2069,111.312,2.717,31.07252,-88.0572811
0109792889,165895,Semmes Division,01097,Z5,27114,10020,125.976,3.952,30.8393364,-88.3374099
0109793105,165896,Tanner Williams Division,01097,Z5,75646,34524,107.891,2.244,30.6804832,-88.3113666
0109793114,165897,Theodore Division,01097,Z5,22849,10053,58.355,45.513,30.5220355,-88.1077169
0109990234,165898,Beatrice Division,01099,Z5,1030,695,202.18,0.532,31.7485241,-87.1063351
0109991233,165899,Frisco City Division,01099,Z5,5688,2564,142.523,0.185,31.3954484,-87.4183931
0109992196,165900,Monroeville Division,01099,Z5,8975,4379,156.746,2.045,31.5119998,-87.4076748
0109992520,165901,Peterman Division,01099,Z5,1531,889,127.797,0.023,31.6042271,-87.2642564
0109993267,165902,Uriah Division,01099,Z5,1720,964,164.94,2.134,31.3280637,-87.6048556
0109993339,165903,Vredenburgh Division,01099,Z5,1171,784,231.483,3.81,31.7168947,-87.4138727
0110191665,165904,Hope Hull Division,01101,Z5,7687,3662,150.828,2.557,32.2003004,-86.3408784
0110192214,165905,Montgomery Division,01101,Z5,181008,85195,176.884,7.95,32.3786242,-86.2975192
0110192295,165906,Mount Meigs Division,01101,Z5,13518,5106,45.624,0.964,32.3654805,-86.0578199
0110192565,165907,Pike Road Division,01101,Z5,23343,9176,185.133,1.707,32.2415135,-86.1175907
0110192592,165908,Pine Level Division,01101,Z5,1471,736,124.641,0.54,32.0663154,-86.0788112
0110192673,165909,Ramer Division,01101,Z5,2045,1264,102.245,0.839,32.0475458,-86.2351001
0110390837,165910,Danville Division,01103,Z5,6632,2995,80.791,0.587,34.4132544,-87.0543677
0110390864,165911,Decatur Division,01103,Z5,62909,27732,80.637,7.132,34.5751669,-87.0325894
0110391035,165912,Eva Division,01103,Z5,5857,2268,95.534,0.356,34.3538978,-86.6996301
0110391071,165913,Falkville Division,01103,Z5,6113,2386,82.03,0.317,34.3709016,-86.9052353
0110391539,165914,Hartselle Division,01103,Z5,22264,9133,56.574,1.718,34.4664079,-86.924284
0110391809,165915,Laceys Spring Division,01103,Z5,8546,3962,94.967,3.258,34.4978335,-86.63967
0110392970,165916,Somerville Division,01103,Z5,10287,4610,89.136,6.012,34.493297,-86.8003796
0110591503,165917,Hamburg Division,01105,Z5,463,255,84.645,0.946,32.5442217,-87.3097461
0110591602,165918,Heiberger Division,01105,Z5,884,292,123.338,0.556,32.7839329,-87.3631375
0110592115,165919,Marion Division,01105,Z5,4515,1652,116.097,0.937,32.6510635,-87.3678228
0110592997,165920,Sprott Division,01105,Z5,486,415,263.235,1.389,32.6852531,-87.1394731
0110593258,165921,Uniontown Division,01105,Z5,2354,1408,132.355,0.382,32.4583929,-87.4648667
0110790072,1935003,Aliceville Division,01107,Z5,5022,2543,361.645,7.653,33.1426952,-88.1032761
0110790495,165923,Carrollton Division,01107,Z5,4662,1595,150.946,0.308,33.2739873,-88.1564385
0110791008,165924,Ethelsville Division,01107,Z5,1943,1057,135.271,0.478,33.4392643,-88.1946631
0110791359,165925,Gordo Division,01107,Z5,4218,1886,110.71,0.112,33.3982824,-87.8925865
0110792700,165927,Reform Division,01107,Z5,3395,1657,122.835,0.184,33.4223008,-88.0215183
0110990198,165928,Banks-Josie Division,01109,Z5,2340,1212,135.994,0.09,31.8414772,-85.7928264
0110990432,165929,Brundidge Division,01109,Z5,4255,2285,105.482,0.064,31.6879265,-85.8044847
0110991377,165930,Goshen-Shady Grove Division,01109,Z5,2725,1256,132.276,0.2,31.8553867,-86.1092022
0110991620,165931,Henderson-Spring Hill Division,01109,Z5,3149,1456,114.333,0.242,31.6801655,-86.0299967
0110992340,165932,Needmore Division,01109,Z5,1849,872,102.477,0.085,31.9475544,-85.952135
0110993195,165933,Troy Division,01109,Z5,18858,8877,81.505,0.221,31.7902653,-85.951756
0111191161,165934,Folsom Division,01111,Z5,2978,2256,137.787,0.801,33.4262423,-85.5277735
0111192736,165935,Roanoke Division,01111,Z5,8721,4407,117.745,0.745,33.1812437,-85.3401921
0111193348,165936,Wadley Division,01111,Z5,2158,875,91.61,0.982,33.1669411,-85.556115
0111193411,165937,Wedowee Division,01111,Z5,4485,3305,133.237,0.996,33.2854012,-85.5109213
0111193501,165938,Woodland Division,01111,Z5,3642,1513,100.172,0.059,33.371423,-85.3454327
0111390738,161621,Cottonton-Seale Division,01113,Z5,3817,1819,258.371,2.529,32.2179625,-85.1464208
0111390783,165939,Crawford Division,01113,Z5,3276,1680,84.318,0.2,32.4199329,-85.214599
0111391683,165940,Hurtsboro Division,01113,Z5,1972,1107,172.544,0.541,32.2729294,-85.3473528
0111392538,165941,Phenix City Division,01113,Z5,49630,22613,125.949,2.739,32.3652245,-85.0253063
0111590135,165942,Ashville Division,01115,Z5,7923,3801,146.719,3.318,33.8810487,-86.2410844
0111592223,165943,Moody Division,01115,Z5,28876,11390,106.527,0.747,33.5928568,-86.4442375
0111592511,165944,Pell City Division,01115,Z5,24652,11002,112.956,12.382,33.5583379,-86.287883
0111592646,165945,Ragland Division,01115,Z5,4644,2430,130.054,4.504,33.7519175,-86.2008561
0111592988,165946,Springville Division,01115,Z5,24317,9028,135.315,0.838,33.7387322,-86.4307243
0111790036,165947,Alabaster-Helena Division,01117,Z5,133952,52774,205.552,4.246,33.2705761,-86.804613
0111790450,165948,Calera Division,01117,Z5,10704,4052,58.458,0.787,33.1101976,-86.7211105
0111790558,165949,Chelsea Division,01117,Z5,43936,18074,157.327,5.177,33.4165194,-86.5624145
0111790711,165950,Columbiana Division,01117,Z5,12371,5362,140.937,7.227,33.1669894,-86.5928303
0111792205,165951,Montevallo Division,01117,Z5,10913,4201,85.032,0.72,33.1392748,-86.9033249
0111793321,165952,Vincent Division,01117,Z5,4567,2207,89.989,3.288,33.3567595,-86.4358785
0111793474,165953,Wilsonville Division,01117,Z5,4337,1810,48.145,2.604,33.2538408,-86.5117728
0111990261,165954,Belmont Division,01119,Z5,594,264,110.435,2.887,32.5299315,-87.9830387
0111990801,165955,Cuba Division,01119,Z5,1105,715,85.067,0.072,32.3794211,-88.3404164
0111991287,165956,Gainesville Division,01119,Z5,872,440,83.623,1.625,32.777759,-88.2171492
0111991935,165957,Livingston Division,01119,Z5,5384,2321,253.404,1.201,32.6282592,-88.2001814
0111992493,165958,Panola-Geiger Division,01119,Z5,840,484,123.301,2.618,32.8999779,-88.2684602
0111993510,161622,York Division,01119,Z5,3687,2116,247.997,1.109,32.4318408,-88.2055344
0112190576,165959,Childersburg Division,01121,Z5,8026,3688,44.719,1.841,33.2606522,-86.340514
0112191879,165960,Lincoln Division,01121,Z5,8753,4038,77.181,5.339,33.6126336,-86.1071148
0112192322,165961,Munford Division,01121,Z5,9963,4216,82.789,1.042,33.5381385,-85.9198465
0112192709,165962,Renfroe-Laniers Division,01121,Z5,2940,1257,68.354,2.623,33.3893007,-86.2792288
0112193060,165963,Sycamore-Winterboro Division,01121,Z5,4147,2359,115.917,1.164,33.3012074,-86.1816603
0112193069,165964,Sylacauga Division,01121,Z5,22232,10150,143.451,4.407,33.1647781,-86.3311668
0112193078,165965,Talladega Division,01121,Z5,25789,12197,204.406,7.088,33.4431724,-86.0862673
0112390063,165966,Alexander City Division,01123,Z5,19510,9406,158.069,16.498,32.9355504,-85.9433526
0112390468,165967,Camp Hill Division,01123,Z5,1997,1038,57.212,0.166,32.7766082,-85.6492811
0112390819,161623,Dadeville Division,01123,Z5,11198,8066,243.386,29.003,32.8435986,-85.7617698
0112392367,165968,New Site Division,01123,Z5,2415,1201,146.538,1.5,33.039338,-85.7405539
0112393096,165969,Tallassee Division,01123,Z5,6164,2892,111.323,2.559,32.6071804,-85.8080108
0112590018,165970,Abernant Division,01125,Z5,11101,4377,51.128,0.783,33.2706026,-87.1629125
0112590306,165971,Big Sandy-Duncanville Division,01125,Z5,12308,4574,138.598,1.554,33.0599288,-87.4683894
0112590423,165972,Brookwood Division,01125,Z5,4734,2001,158.524,3.986,33.3243217,-87.3275212
0112590666,165973,Coaling-Vance Division,01125,Z5,8644,3457,95.694,0.628,33.1742614,-87.3087371
0112590684,165974,Coker Division,01125,Z5,3653,1417,65.361,0.667,33.2039688,-87.730256
0112590981,165975,Elrod-Moores Bridge-Echola Division,01125,Z5,1417,575,90.925,0.906,33.3559677,-87.8041993
0112591224,165976,Fosters Division,01125,Z5,3438,1453,104.434,2.496,33.0819749,-87.7272426
0112592389,1934999,Northport Division,01125,Z5,37719,15693,81.474,1.304,33.2941001,-87.6487913
0112592826,165977,Samantha Division,01125,Z5,5668,2668,147.517,1.95,33.4615741,-87.669459
0112593222,161624,Tuscaloosa Division,01125,Z5,132089,61788,131.359,7.155,33.2008398,-87.548936
0112593483,165978,Windham Springs Division,01125,Z5,3174,1537,255.834,8.959,33.4642199,-87.4635007
0112790477,165979,Carbon Hill Division,01127,Z5,3207,1832,53.837,0.268,33.9293422,-87.5807573
0112790729,165980,Cordova Division,01127,Z5,2917,1436,44.224,1.156,33.7238185,-87.1873095
0112790891,165981,Dora Division,01127,Z5,8046,3785,54.604,0.819,33.7524647,-87.0880271
0112790990,165982,Empire Division,01127,Z5,2168,1142,36.62,0.39,33.8415548,-87.019377
0112791755,165984,Jasper Division,01127,Z5,22352,9687,90.886,0.861,33.837166,-87.2586645
0112792079,165985,Manchester Division,01127,Z5,5540,2361,54.652,0.611,33.9529133,-87.304295
0112792331,165986,Nauvoo Division,01127,Z5,3297,1564,59.251,0.294,33.9494017,-87.4630928
0112792421,165987,Oakman Division,01127,Z5,3715,1606,172.923,3.7,33.6707562,-87.3665911
0112792502,165988,Parrish Division,01127,Z5,3688,1760,47.347,1.009,33.712661,-87.2663241
0112792642,165983,Quinton-Wegra Division,01127,Z5,1822,865,31.14,1.691,33.6462629,-87.1409585
0112792943,165989,Sipsey Division,01127,Z5,5369,2590,71.172,2.958,33.9052516,-87.14768
0112793168,165990,Townley Division,01127,Z5,3073,1465,74.373,0.408,33.8491399,-87.4353765
0112990549,165991,Chatom Division,01129,Z5,3952,2026,250.069,0.926,31.5297536,-88.2330622
0112991242,165992,Fruitdale Division,01129,Z5,1609,1078,287.996,0.825,31.269431,-88.3184067
0112992043,165993,McIntosh Division,01129,Z5,4136,2027,154.524,1.827,31.2335597,-88.0653032
0112992160,165994,Millry Division,01129,Z5,2647,1297,153.854,0.255,31.6255536,-88.3427426
0112993357,165995,Wagarville Division,01129,Z5,3230,1365,233.813,4.478,31.4187209,-88.0535152
0113190045,165996,Alberta Division,01131,Z5,1537,714,154.937,8.147,32.1417108,-87.4162493
0113190459,165997,Camden Division,01131,Z5,4857,2273,172.105,8.315,32.0183973,-87.2819335
0113190756,165998,Coy-Fatama Division,01131,Z5,704,457,163.155,0.973,31.8891056,-87.3299142
0113192574,165999,Pine Apple Division,01131,Z5,873,512,212.619,0.232,31.9379134,-87.0096224
0113192583,166000,Pine Hill Division,01131,Z5,2715,1348,185.042,1.868,31.9740859,-87.5599647
0113390027,161625,Addison Division,01133,Z5,8110,5354,230.625,12.809,34.1694392,-87.2191326
0113390909,166001,Double Springs Division,01133,Z5,5383,2762,181.986,5.504,34.1326011,-87.3854082
0113391494,166002,Haleyville Division,01133,Z5,7844,3853,99.734,0.408,34.2189645,-87.5589448
0113392025,166003,Lynn Division,01133,Z5,2313,1114,100.654,0.149,34.061884,-87.5411762
0201301598,1939933,Aleutians East Census Subarea,02013,Z5,3409,1113,6985.234,8030.868,55.224521,-161.9472287
0201601615,1939934,Aleutians West Census Subarea,02016,Z5,5251,1456,4393.026,9723.457,52.2586699,-174.192307
0202003050,1939927,Anchorage Census Subarea,02020,Z5,292545,118055,1706.886,239.8,61.1483033,-149.1900081
0205003580,1939929,Aniak Census Subarea,02050,Z5,1419,777,19060.927,240.419,61.4770527,-156.8105568
0205045510,1939953,Lower Kuskokwim Census Subarea,02050,Z5,17095,5215,21566.213,4688.049,60.3711113,-162.7718117
0206009050,1939931,Bristol Bay Census Subarea,02060,Z5,849,922,481.981,366.707,58.7332561,-156.9810152
0206314420,1939932,Chugach Census Subarea,02063,Z5,7015,3626,9529.847,5613.504,60.6100835,-146.1305415
0206617350,1939935,Copper River Census Subarea,02066,Z5,2635,2676,24692.136,470.052,61.8834538,-143.9681046
0206818765,1939937,Denali Census Subarea,02068,Z5,2187,1415,12641.049,25.524,63.671514,-150.0116573
0207019000,1939938,Dillingham Census Subarea,02070,Z5,4899,2406,18333.994,2294.945,59.7139951,-158.3482702
0209024450,1939940,Fairbanks North Star Census Subarea,02090,Z5,97149,42870,7334.721,100.222,64.8077662,-146.5654229
0210031160,1939941,Haines Census Subarea,02100,Z5,2098,1450,2343.393,402.015,59.0758951,-135.4700922
0210533390,1939943,Hoonah-Angoon Census Subarea,02105,Z5,2256,1645,6553.869,3012.981,58.2089013,-135.5590153
0210540560,1939948,Klukwan Census Subarea,02105,Z5,71,54,1.389,0.502,59.3987031,-135.8885477
0211036450,1939945,Juneau Census Subarea,02110,Z5,32240,13987,2704.025,550.676,58.4439352,-134.2303392
0212238460,1939946,Kenai-Cook Inlet Census Subarea,02122,Z5,53707,29437,12435.038,7690.823,60.1082542,-152.185314
0212268610,1939944,Seward-Hope Census Subarea,02122,Z5,5004,2969,3582.386,1012.373,60.1682269,-149.5675467
0213039010,1939947,Ketchikan Census Subarea,02130,Z5,13939,6564,4856.932,1795.992,55.4885149,-131.0305103
0215041200,1939949,Kodiak Island Census Subarea,02150,Z5,13218,5750,6689.481,5462.287,57.6628112,-153.7575159
0215842185,1939969,Kusilvak Census Subarea,02158,Z5,8354,2335,17077.063,2581.551,62.1600127,-163.5254648
0216442780,1939952,Lake and Peninsula Census Subarea,02164,Z5,986,1398,23831.834,10034.678,58.2790732,-156.5473173
0217047440,1939955,Matanuska-Susitna Census Subarea,02170,Z5,106807,49810,24707.266,558.248,62.3042444,-149.5814755
0218054970,1939957,Nome Census Subarea,02180,Z5,10070,4092,22969.463,5320.781,64.8354505,-164.2443226
0218555970,1939958,North Slope Census Subarea,02185,Z5,10865,2622,88823.627,6004.296,69.3634118,-153.5106055
0218856270,1939959,Northwest Arctic Census Subarea,02188,Z5,7776,2728,35663.282,4956.497,67.0081724,-160.0069785
0219560360,1939961,Petersburg Census Subarea,02195,Z5,3368,1749,2900.656,921.181,57.1140131,-133.0024593
0219834575,2548100,Hyder Census Subarea,02198,Z5,13,64,201.84,10.828,55.9543105,-130.1662434
0219848873,1939956,Metlakatla Indian Community Census Subarea,02198,Z5,1445,503,132.799,128.916,55.1284056,-131.483446
0219864310,1939962,Prince of Wales Census Subarea,02198,Z5,4428,2700,4933.087,5502.043,55.7373042,-133.2972716
0222070590,1939966,Sitka Census Subarea,02220,Z5,8518,4143,2870.058,1945.085,57.1797758,-135.3049651
0223070810,1939967,Skagway Census Subarea,02230,Z5,1329,618,433.933,11.114,59.5599921,-135.3366726
0224072030,1939968,Southeast Fairbanks Census Subarea,02240,Z5,6849,3561,24831.059,289.508,63.8761551,-143.2129807
0227586420,1939970,Wrangell Census Subarea,02275,Z5,2162,1294,2555.994,920.614,56.2936265,-132.1292249
0228286498,1939972,Yakutat Census Subarea,02282,Z5,562,401,7623.272,1539.059,59.8632076,-140.3810186
0229042080,1939951,Koyukuk-Middle Yukon Census Subarea,02290,Z5,3210,2171,73814.187,1055.583,65.7246799,-153.2963169
0229046060,1939954,McGrath-Holy Cross Census Subarea,02290,Z5,1083,812,31589.655,493.92,62.9639046,-156.7036647
0229086690,1939973,Yukon Flats Census Subarea,02290,Z5,1140,1046,40171.716,745.776,66.8570251,-144.4484621
0400190612,1934929,Chinle Division,04001,Z5,18302,7351,2086.112,4.319,36.2344534,-109.5387503
0400190918,1934935,Dennehotso Division,04001,Z5,1737,593,588.903,0.184,36.7403816,-109.8543527
0400191071,1934938,Eagar-Springerville Division,04001,Z5,8529,5582,992.278,5.188,34.0145185,-109.3809399
0400191275,1934942,Fort Apache Division,04001,Z5,696,210,778.999,3.567,33.8189729,-109.7038093
0400191326,1934943,Fort Defiance Division,04001,Z5,21781,8833,2449.482,1.886,35.6106903,-109.4632583
0400192805,1934972,Puerco Division,04001,Z5,2762,942,1617.889,1.098,34.9520194,-109.4660637
0400192958,1934975,Saint Johns Division,04001,Z5,7155,3595,1530.116,3.852,34.4587367,-109.3967321
0400193315,1934983,Sweetwater Division,04001,Z5,5511,2086,1154.535,0.81,36.7526667,-109.3660797
0400390255,1934922,Benson Division,04003,Z5,11451,6350,921.285,0.456,32.1115746,-110.2713714
0400390306,1934923,Bisbee Division,04003,Z5,29234,14217,622.001,1.349,31.4579202,-110.0834894
0400390408,1934925,Bowie Division,04003,Z5,1834,1225,1373.034,0.429,32.170884,-109.3978482
0400390969,1934936,Douglas Division,04003,Z5,18348,6985,247.6,0.069,31.4196524,-109.4863177
0400391122,1934939,Elfrida Division,04003,Z5,5850,2010,1612.536,2.182,31.6615913,-109.4301511
0400393182,1934980,Sierra Vista Division,04003,Z5,49250,23165,700.446,0.415,31.7225099,-110.1582793
0400393825,1934992,Willcox Division,04003,Z5,9125,4929,732.853,1.915,32.17905,-109.8841729
0400591198,1934931,Flagstaff Division,04005,Z5,100149,49446,4722.436,17.241,35.0901791,-111.3933461
0400591530,1934947,Havasupai Division,04005,Z5,0,1,275.829,0.0,36.161,-112.6135429
0400591581,1934948,Hopi Division,04005,Z5,55,56,772.286,0.141,35.9329153,-110.8699892
0400591683,1934950,Hualapai Division,04005,Z5,8,8,904.372,1.457,35.9189454,-113.1118647
0400591838,1934953,Kaibab Plateau Division,04005,Z5,2056,1160,2791.08,11.323,36.6069023,-112.134552
0400593519,1934986,Tuba City Division,04005,Z5,32398,11851,5186.897,12.348,36.2088535,-111.2550668
0400593876,1934993,Williams Division,04005,Z5,10276,5924,3963.454,2.523,35.6298806,-112.4481493
0400791277,2582913,Fort Apache Division,04007,Z5,2415,522,823.965,1.694,33.8729788,-110.3601936
0400791495,1934946,Globe-Miami Division,04007,Z5,16402,8542,688.498,8.689,33.5326639,-110.8156435
0400792570,1934967,Payson Division,04007,Z5,24465,18589,796.68,0.316,34.2605058,-111.3562838
0400793109,2585631,San Carlos Division,04007,Z5,5938,1605,1008.891,9.219,33.486335,-110.4298469
0400793470,1934984,Tonto Basin Division,04007,Z5,2965,2651,1292.269,17.063,33.9288685,-111.0573148
0400793927,1934994,Winkelman Division,04007,Z5,1026,543,147.275,0.264,33.1466789,-110.8047342
0400990357,1934924,Bonita-Klondyke Division,04009,Z5,2820,578,1191.244,0.146,32.6380849,-110.1294434
0400992652,1934969,Pima Division,04009,Z5,4484,1905,521.809,1.81,32.9987538,-109.9656102
0400992907,1934974,Safford Division,04009,Z5,25964,9878,1224.16,4.629,32.7128399,-109.5358541
0400993111,1934978,San Carlos Division,04009,Z5,4877,1261,1684.664,11.745,33.2759827,-109.9477389
0401190663,1934930,Clifton Division,04011,Z5,6861,3142,1401.403,3.475,33.3596894,-109.2715257
0401191020,1934937,Duncan Division,04011,Z5,2681,1252,441.439,1.134,32.7542918,-109.1407425
0401292480,1934965,Parker Division,04012,Z5,16845,13797,4496.579,14.098,33.7293868,-113.9815775
0401390459,1934926,Buckeye Division,04013,Z5,97670,32148,1803.532,0.14,33.3566277,-112.9574411
0401390561,1934928,Chandler Division,04013,Z5,497774,188342,175.642,0.245,33.2736708,-111.7544522
0401390867,1934934,Deer Valley Division,04013,Z5,295918,117913,408.534,1.869,33.8221172,-112.1114014
0401391377,1934944,Gila Bend Division,04013,Z5,28044,9042,2999.255,0.21,32.8570442,-112.7029307
0401392601,1934968,Phoenix Division,04013,Z5,3307542,1370794,1083.588,3.657,33.5167207,-112.0287225
0401393009,1934976,Saint Johns Division,04013,Z5,3117,800,149.725,0.281,33.2778696,-112.1167965
0401393060,1934977,Salt River Division,04013,Z5,8000,2945,120.699,3.243,33.557561,-111.7527443
0401393472,1934985,Tonto National Forest Division,04013,Z5,11257,7502,1066.396,12.42,33.7437311,-111.5505504
0401393774,1934991,Wickenburg Division,04013,Z5,117864,64762,1394.644,1.922,33.8094691,-112.8383951
0401590470,2585633,Bullhead City Division,04015,Z5,68992,39455,742.393,9.103,34.9895821,-114.3668089
0401591885,1934954,Kingman Division,04015,Z5,72379,36459,4636.184,89.777,35.5740534,-114.0350879
0401591964,2582914,Lake Havasu City Division,04015,Z5,60848,37214,2893.397,19.639,34.644756,-113.8161016
0401592340,1934960,North Mohave Division,04015,Z5,9055,3765,5060.144,10.207,36.5224728,-113.3813555
0401791279,1934919,Fort Apache Division,04017,Z5,11743,3567,1022.307,0.723,34.0566128,-110.2769397
0401791632,1934949,Hopi Division,04017,Z5,7857,2957,1710.102,0.763,35.8903009,-110.4561711
0401791785,1934952,Indian Wells Division,04017,Z5,6535,2691,1430.343,0.535,35.3780448,-110.257518
0401791860,1934990,Kayenta Division,04017,Z5,10133,4346,1638.227,1.159,36.7133056,-110.3878349
0401792703,1934970,Pinon Division,04017,Z5,5562,2857,823.428,0.165,36.199128,-110.2196205
0401793213,1934981,Snowflake Division,04017,Z5,47594,33674,1558.719,1.719,34.4488347,-110.2391947
0401793952,1934956,Winslow-Holbrook Division,04017,Z5,17185,6178,1766.368,4.248,34.9169602,-110.3243196
0401990051,1934918,Ajo Division,04019,Z5,3104,2175,1534.54,0.0,32.2169068,-112.9777536
0401990153,1934920,Arivaca Division,04019,Z5,90199,40843,1319.201,0.29,31.8090794,-111.3048889
0401992040,1934957,Marana Division,04019,Z5,37027,14514,621.531,0.66,32.3297467,-111.3886122
0401993375,1934963,Tohono O'odham Nation Division,04019,Z5,7361,2582,3775.97,0.276,32.0832556,-112.0682231
0401993570,1934987,Tucson Division,04019,Z5,897372,407077,1937.441,0.748,32.1510857,-110.7647743
0402190510,1934927,Casa Grande Division,04021,Z5,62223,26035,199.492,0.117,32.9014096,-111.7980222
0402190816,1934933,Coolidge Division,04021,Z5,17596,6387,119.155,1.594,32.9265864,-111.5533306
0402191173,1934940,Eloy Division,04021,Z5,31560,10949,483.101,0.259,32.6449747,-111.584463
0402191224,1934941,Florence Division,04021,Z5,39221,11686,1079.651,0.786,32.7881002,-111.2139642
0402191428,1934945,Gila River Division,04021,Z5,9093,2893,435.861,0.081,33.1111118,-111.8617603
0402192091,1934958,Maricopa-Stanfield Division,04021,Z5,66452,24492,396.513,0.258,32.9046312,-112.0684736
0402192346,1934962,North Pinal Division,04021,Z5,174109,77727,1008.799,1.453,33.257959,-111.2550187
0402193162,1934979,San Manuel Division,04021,Z5,20011,11113,1226.715,3.458,32.8322987,-110.7147281
0402193377,1934964,Tohono O'odham Nation Division,04021,Z5,360,102,417.384,0.004,32.6349806,-111.9749093
0402392295,1934961,Nogales Division,04023,Z5,44145,16661,680.437,0.92,31.4938865,-111.0121771
0402392550,1934966,Patagonia Division,04023,Z5,3318,2016,555.806,0.265,31.5652333,-110.6436843
0402590204,1934921,Ash Fork Division,04025,Z5,2877,1969,1521.394,0.223,35.1558915,-112.9609162
0402590484,1934988,Camp Verde-Sedona Division,04025,Z5,37505,20330,743.969,0.067,34.6840467,-111.7774968
0402590765,1934932,Congress Division,04025,Z5,10265,6313,2064.765,1.155,34.1873816,-112.7045922
0402590840,1934951,Cordes Lakes-Mayer Division,04025,Z5,7782,3337,1027.925,1.917,34.2630563,-111.9112049
0402592193,1934959,Mingus Mountain Division,04025,Z5,40403,20025,548.103,0.147,34.7335027,-112.142358
0402592754,1934971,Prescott Division,04025,Z5,134957,67779,2216.776,0.877,34.6924696,-112.7921311
0402793264,1934982,Somerton Division,04027,Z5,57154,16687,162.447,0.198,32.5379699,-114.6695242
0402793672,1934989,Wellton Division,04027,Z5,6054,3828,5105.266,0.077,32.7792725,-113.8507225
0402793978,1934995,Yuma Division,04027,Z5,139736,71175,246.127,4.841,32.7229326,-114.5290053
0500190060,63655,Township of Arkansas,05001,Z1,61,28,51.212,5.756,34.0550958,-91.3700679
0500190138,74270,Township of Barton,05001,Z1,261,129,35.086,1.123,34.348903,-91.6490671
0500190168,63656,Township of Bayou Meto,05001,Z1,213,114,57.662,4.249,34.2147476,-91.4787521
0500190462,63657,Township of Brewer,05001,Z1,0,27,44.945,2.805,34.2657755,-91.6296954
0500190774,63658,Township of Chester,05001,Z1,182,238,106.67,9.668,34.049762,-91.2351796
0500190963,63659,Township of Crockett,05001,Z1,88,72,39.43,1.244,34.4201211,-91.2281966
0500191425,63660,Township of Garland,05001,Z1,15,31,54.584,2.488,34.3270642,-91.5102437
0500191563,63661,Township of Gum Pond,05001,Z1,8447,3962,36.3,1.078,34.5230399,-91.541195
0500191668,63662,Township of Henton,05001,Z1,326,164,30.71,0.544,34.4328709,-91.6677082
0500192010,63663,Township of Keaton,05001,Z1,835,539,89.516,1.911,34.4540778,-91.3285025
0500192085,63664,Township of La Grue,05001,Z1,4428,2102,78.229,1.015,34.2823487,-91.3434629
0500192307,63665,Township of McFall,05001,Z1,52,29,35.092,2.32,34.5205138,-91.4330235
0500192466,63666,Township of Mill Bayou,05001,Z1,509,223,59.141,3.502,34.4176357,-91.454111
0500192574,63667,Township of Morris,05001,Z1,578,335,37.291,0.918,34.429321,-91.5715557
0500192937,63668,Township of Point Deluce,05001,Z1,346,153,53.88,1.395,34.1872512,-91.2818824
0500192973,63669,Township of Prairie,05001,Z1,485,326,150.284,4.152,34.2722851,-91.1592429
0500193483,63670,Township of Stanley,05001,Z1,447,304,32.11,2.434,34.1572631,-91.3924797
0500390102,63671,Township of Banner,05003,Z1,148,74,16.383,0.29,33.282573,-91.6008138
0500390162,63672,Township of Bayou,05003,Z1,37,12,29.117,0.078,33.3472825,-91.5890353
0500390183,78861,Township of Bearhouse,05003,Z1,0,0,43.56,0.672,33.3535201,-91.7030869
0500390210,63673,Township of Beech Creek,05003,Z1,101,43,33.167,0.0,33.1461865,-91.6440664
0500390687,63674,Township of Carter,05003,Z1,4298,1842,82.85,0.219,33.2187807,-91.7998799
0500391044,78862,Township of De Bastrop,05003,Z1,167,175,32.132,0.0,33.1135003,-91.5294624
0500391212,63675,Township of Egypt,05003,Z1,9732,4906,84.006,3.776,33.1369246,-91.9983571
0500391239,63676,Township of Elon,05003,Z1,305,200,62.024,0.027,33.0501886,-91.8850303
0500391263,63677,Township of Extra,05003,Z1,124,72,76.591,0.011,33.087015,-91.7635003
0500392277,63678,Township of Longview,05003,Z1,911,389,58.811,0.414,33.3267812,-91.9317333
0500392365,63679,Township of Marais Saline,05003,Z1,170,82,42.361,2.923,33.0551048,-92.044968
0500392469,63680,Township of Mill Creek,05003,Z1,1131,502,73.932,3.263,33.2204788,-91.9861022
0500392541,63681,Township of Montrose,05003,Z1,323,173,21.875,1.198,33.3035171,-91.5097043
0500392964,63682,Township of Portland,05003,Z1,457,235,68.477,0.707,33.2056447,-91.5273478
0500392976,63683,Township of Prairie,05003,Z1,135,104,63.644,0.097,33.2423851,-91.6779707
0500393666,63684,Township of Union,05003,Z1,12,13,19.204,0.211,33.3594766,-91.4997176
0500393987,63685,Township of White,05003,Z1,828,341,42.104,0.006,33.344291,-91.820965
0500394077,63686,Township of Wilmot,05003,Z1,483,303,75.252,1.035,33.0487054,-91.5789137
0500590165,69555,Township of Bayou,05005,Z1,406,262,25.765,1.089,36.4671952,-92.2081901
0500590288,69556,Township of Big Flat,05005,Z1,420,162,47.771,0.021,36.0327783,-92.3591739
0500590525,69557,Township of Buckhorn,05005,Z1,712,531,16.493,0.75,36.2428945,-92.2969075
0500590540,69558,Township of Buford,05005,Z1,1315,636,39.319,0.659,36.2271612,-92.4150576
0500591524,69559,Township of Greenwood,05005,Z1,174,186,37.945,0.304,36.1071939,-92.2525926
0500591548,69560,Township of Grover,05005,Z1,2553,1460,13.081,2.088,36.3797581,-92.5304456
0500591818,69561,Township of Independence,05005,Z1,1991,969,22.611,0.076,36.352399,-92.4722574
0500592247,69562,Township of Logan,05005,Z1,1544,702,40.895,0.092,36.4480562,-92.4721892
0500592265,69563,Township of Lone Rock,05005,Z1,237,250,27.563,0.493,36.1617698,-92.3273768
0500592424,69564,Township of Matney,05005,Z1,35,35,24.247,0.239,36.1415983,-92.3828434
0500592460,69565,Township of Mill,05005,Z1,2797,2043,42.238,9.259,36.392833,-92.2298228
0500592616,69566,Township of Mountain Home,05005,Z1,20052,10292,52.2,0.09,36.3346503,-92.3687518
0500592709,69567,Township of North Fork,05005,Z1,1288,697,41.766,1.266,36.2068086,-92.2210372
0500592877,69568,Township of Pigeon,05005,Z1,1669,748,51.507,3.546,36.4509546,-92.3490009
0500593669,69569,Township of Union,05005,Z1,1356,1287,42.002,12.181,36.3071115,-92.2377369
0500594035,69570,Township of Whiteville,05005,Z1,4927,2429,28.528,0.634,36.2968457,-92.4858277
0500793622,1989186,Township 1,05007,Z1,,,116.316,14.774,36.4117821,-93.9813923
0500793625,1989194,Township 2,05007,Z1,,,94.933,17.09,36.2811034,-93.9857229
0500793628,1989187,Township 3,05007,Z1,14165,5813,10.543,0.035,36.2721926,-94.1261163
0500793631,1989188,Township 4,05007,Z1,,,49.38,0.313,36.2695477,-94.1940415
0500793634,1989189,Township 5,05007,Z1,14451,5653,4.455,0.005,36.335865,-94.1427172
0500793636,1989190,Township 6,05007,Z1,15714,6082,20.904,0.025,36.3837151,-94.1289599
0500793638,1989191,Township 7,05007,Z1,24869,9612,61.229,0.364,36.4552875,-94.1550297
0500793640,1989192,Township 8,05007,Z1,12509,5950,8.022,0.006,36.3798029,-94.1994936
0500793642,1989193,Township 9,05007,Z1,55268,21156,49.153,0.324,36.3535829,-94.2679642
0500793644,1989195,Township 10,05007,Z1,17784,8849,42.584,1.263,36.4539307,-94.3063765
0500793645,1989196,Township 11,05007,Z1,14165,5477,207.663,0.244,36.3913372,-94.4714445
0500793646,1989197,Township 12,05007,Z1,15847,6149,41.927,1.11,36.2391588,-94.5236824
0500793647,1989198,Township 13,05007,Z1,14669,5799,140.624,1.078,36.1980751,-94.408371
0500990144,69604,Township of Batavia,05009,Z1,1014,457,10.658,0.027,36.2643638,-93.2308524
0500990219,69605,Township of Bellefonte,05009,Z1,2323,829,25.329,0.053,36.1986006,-93.0321123
0500990375,69606,Township of Blythe,05009,Z1,390,166,11.807,0.054,36.225076,-92.9259849
0500990507,69607,Township of Bryan,05009,Z1,1286,605,17.62,0.018,36.2201353,-93.2038117
0500990678,69608,Township of Carrollton,05009,Z1,861,434,25.928,0.214,36.298638,-93.270864
0500991224,69609,Township of Elixir,05009,Z1,3495,1405,52.0,0.053,36.319438,-93.0074103
0500991260,69610,Township of Ewing,05009,Z1,394,210,12.206,0.006,36.1373287,-93.0586804
0500991404,69611,Township of Gaither,05009,Z1,542,314,20.932,0.014,36.1424644,-93.1557647
0500991848,69612,Township of Jackson,05009,Z1,1877,650,21.739,0.006,36.2998486,-93.1862692
0500991914,69613,Township of Jefferson,05009,Z1,1680,714,15.568,0.002,36.1442253,-92.9808593
0500992133,69614,Township of Lee,05009,Z1,1402,816,45.825,0.007,36.3352534,-93.1012035
0500992268,69615,Township of Long Creek,05009,Z1,774,271,39.665,0.07,36.3799165,-93.2208429
0500992715,69616,Township of North Harrison,05009,Z1,8404,3933,16.938,0.058,36.2495305,-93.1020717
0500992757,69617,Township of Olvey,05009,Z1,312,140,11.802,0.018,36.2000432,-92.9637266
0500992760,69618,Township of Omaha,05009,Z1,2038,1112,77.942,1.137,36.4560482,-93.1722558
0500992979,69619,Township of Prairie,05009,Z1,323,177,16.241,0.007,36.1550376,-92.9147703
0500993435,69620,Township of South Harrison,05009,Z1,7251,3453,27.101,0.074,36.1962702,-93.130389
0500993522,69621,Township of Sugar Loaf,05009,Z1,2444,1318,83.576,10.329,36.427055,-92.9646447
0500993552,69622,Township of Summit,05009,Z1,346,155,32.272,0.076,36.1686757,-93.2592977
0500994134,69623,Township of Zinc,05009,Z1,289,152,24.574,0.055,36.2799015,-92.9326613
0501190819,63687,Township of Clay,05011,Z1,596,411,62.105,0.0,33.5450683,-92.266576
0501191185,63688,Township of Eagle,05011,Z1,111,131,76.023,1.053,33.2764651,-92.143441
0501192379,63689,Township of Marion,05011,Z1,203,141,30.01,0.15,33.464068,-92.0419943
0501192568,63690,Township of Moro,05011,Z1,32,29,47.337,0.0,33.6637614,-92.2559162
0501192778,63691,Township of Ouachita,05011,Z1,134,45,23.136,0.0,33.415992,-92.2263254
0501192817,63692,Township of Palestine,05011,Z1,252,170,55.747,0.471,33.3417827,-92.0329827
0501192844,63693,Township of Pennington,05011,Z1,8046,3530,173.176,0.884,33.6040958,-92.0952997
0501193186,63694,Township of River,05011,Z1,45,59,68.078,1.091,33.3086464,-92.2771494
0501193558,63695,Township of Sumpter,05011,Z1,1,22,41.335,0.015,33.4112151,-92.3006171
0501193903,63696,Township of Washington,05011,Z1,1177,634,72.222,0.007,33.43553,-92.1347141
0501393623,1934781,Township 1,05013,Z1,,,18.504,0.019,33.7795943,-92.5340279
0501393626,1934782,Township 2,05013,Z1,,,70.188,0.485,33.7453579,-92.4491898
0501393629,1934783,Township 3,05013,Z1,676,284,77.191,0.0,33.6355965,-92.3811685
0501393632,1934784,Township 4,05013,Z1,,,63.709,0.103,33.4816637,-92.3774293
0501393635,1934785,Township 5,05013,Z1,317,345,182.24,2.061,33.425736,-92.4984443
0501393637,1934786,Township 6,05013,Z1,635,291,65.572,0.929,33.4975238,-92.6822557
0501393639,1934787,Township 7,05013,Z1,520,274,148.605,0.221,33.6247964,-92.5680213
0501393641,1934788,Township 8,05013,Z1,765,346,1.559,0.0,33.5383166,-92.4724661
0501393643,1934789,Township 9,05013,Z1,383,163,1.034,0.0,33.5307396,-92.4614859
0501790432,68717,Township of Bowie,05017,Z1,2855,1266,99.765,3.639,33.4886003,-91.352464
0501790666,68718,Township of Carlton,05017,Z1,4467,2303,240.031,27.836,33.3406825,-91.2946239
0501792913,68719,Township of Planters,05017,Z1,3083,1571,297.182,22.739,33.1332609,-91.2738011
0501990591,66430,Township of Caddo,05019,Z1,21569,10031,865.971,16.975,34.050926,-93.1763506
0502190232,2063355,Township of Bennett-Lemmons,05021,Z1,263,256,79.116,0.128,36.4276965,-90.403576
0502190448,2063356,Township of Bradshaw-Haywood,05021,Z1,511,285,37.484,0.049,36.3460151,-90.2745291
0502190496,2063357,Township of Brown-Carpenter,05021,Z1,202,130,46.269,0.299,36.4629945,-90.6950273
0502190589,2063358,Township of Cache-Wilson,05021,Z1,268,211,62.126,0.408,36.3169205,-90.5756162
0502190757,2063359,Township of Chalk Bluff-Liddell,05021,Z1,473,256,30.708,0.224,36.4565504,-90.1949644
0502190801,63717,Township of Clark,05021,Z1,116,128,22.599,0.0,36.2856587,-90.6983318
0502190874,2063360,Township of Cleveland-North Kilgore,05021,Z1,2431,1303,55.838,0.117,36.4489678,-90.5562053
0502191201,2063361,Township of East Oak Bluff-Blue Cane,05021,Z1,1476,663,56.34,0.053,36.2546806,-90.2260995
0502191474,2063362,Township of Gleghorn-South Kilgore,05021,Z1,1918,957,44.177,0.382,36.381702,-90.59688
0502191971,63721,Township of Johnson,05021,Z1,283,96,24.693,0.032,36.3229221,-90.3907423
0502192058,63723,Township of Knob,05021,Z1,446,143,26.493,0.0,36.2853846,-90.4360378
0502192667,63726,Township of Nelson,05021,Z1,171,97,22.273,0.0,36.3566564,-90.7258422
0502192719,2063363,Township of North Saint Francis,05021,Z1,2522,1190,22.964,0.15,36.3976156,-90.1859271
0502192836,2063364,Township of Payne-Swain,05021,Z1,372,162,35.681,0.092,36.3131055,-90.1220695
0502192952,63729,Township of Pollard,05021,Z1,414,232,28.924,0.07,36.4453978,-90.283116
0502193439,2063365,Township of South Saint Francis,05021,Z1,1452,801,23.37,0.063,36.3670027,-90.1761915
0502193971,2063366,Township of West Oak Bluff,05021,Z1,1343,626,20.167,0.056,36.2707499,-90.3138531
0502390597,66913,Township of Cadron,05023,Z1,1652,779,29.412,0.015,35.3934484,-92.1953474
0502390615,66914,Township of California,05023,Z1,360,146,33.337,0.225,35.6665832,-92.0532839
0502390750,66915,Township of Center Post,05023,Z1,388,500,30.549,0.554,35.4846836,-92.2012233
0502390828,66916,Township of Clayton,05023,Z1,905,585,24.536,0.035,35.4325151,-92.1361733
0502391329,66917,Township of Francis,05023,Z1,528,892,31.279,7.141,35.5758459,-92.0567656
0502391458,66918,Township of Giles,05023,Z1,1392,1382,19.473,5.249,35.5660295,-92.1456084
0502391493,66919,Township of Grassey,05023,Z1,1005,537,42.044,0.021,35.6437993,-91.8319314
0502391653,66920,Township of Healing Springs,05023,Z1,748,497,37.537,0.0,35.6661726,-91.9400043
0502391656,66921,Township of Heber,05023,Z1,10460,4755,42.257,2.508,35.4835752,-92.0170737
0502392319,66922,Township of McJester,05023,Z1,360,238,13.543,0.0,35.4872002,-91.8128185
0502392556,66923,Township of Morgan,05023,Z1,487,470,11.235,3.547,35.6105518,-92.207699
0502392583,66924,Township of Mountain,05023,Z1,414,302,30.128,0.0,35.4122706,-91.9656838
0502392853,66925,Township of Peter Creek,05023,Z1,1449,1074,48.631,1.173,35.5802068,-91.9370062
0502392874,66926,Township of Pickens,05023,Z1,734,383,27.493,0.0,35.4006073,-91.8920524
0502392886,66927,Township of Pine,05023,Z1,168,129,7.919,0.0,35.4760453,-91.8727189
0502392901,66928,Township of Piney,05023,Z1,1136,505,24.809,0.015,35.3927616,-92.0569694
0502392931,66929,Township of Poff,05023,Z1,257,118,27.578,0.509,35.6722737,-92.1935432
0502393294,66930,Township of Saline,05023,Z1,440,733,8.623,5.554,35.5492109,-92.2123685
0502393510,66931,Township of Sugar Camp,05023,Z1,365,244,18.163,0.363,35.6558122,-92.1291787
0502393525,66932,Township of Sugar Loaf,05023,Z1,725,522,15.04,0.183,35.4898555,-91.9299286
0502393750,66933,Township of Valley,05023,Z1,567,632,3.846,11.088,35.4959224,-92.1103167
0502394053,66934,Township of Wilburn,05023,Z1,308,179,26.526,0.0,35.5318842,-91.8518747
0502590438,63733,Township of Bowman,05025,Z1,315,95,25.776,0.109,34.0194326,-92.1103203
0502591611,63734,Township of Harper,05025,Z1,180,203,24.26,0.077,33.8211584,-92.0286829
0502591785,63735,Township of Hudgin,05025,Z1,343,100,25.858,0.006,34.006747,-91.98455
0502591802,63736,Township of Hurricane,05025,Z1,688,278,27.464,0.133,33.7512091,-92.0162813
0502592049,63738,Township of Kingsland,05025,Z1,1071,501,100.02,0.061,33.8943757,-92.3154485
0502592136,63739,Township of Lee,05025,Z1,630,261,41.547,0.154,33.7443765,-92.1156988
0502592493,63740,Township of Miller,05025,Z1,612,244,25.3,0.0,33.9498047,-92.0632326
0502592691,63741,Township of Niven,05025,Z1,246,166,33.039,0.01,34.0182879,-92.1938625
0502593069,63742,Township of Redland,05025,Z1,245,152,88.502,0.205,33.7756321,-92.2268585
0502593183,63743,Township of Rison,05025,Z1,1225,725,27.225,0.023,33.9394694,-92.2083649
0502593243,63744,Township of Rowell,05025,Z1,558,203,34.569,0.014,33.88955,-92.0370784
0502593297,63745,Township of Saline,05025,Z1,27,31,57.179,0.06,34.0132536,-92.3886224
0502593405,63746,Township of Smith,05025,Z1,243,177,40.565,0.097,33.8861148,-92.1407094
0502594002,63747,Township of White Oak,05025,Z1,459,155,25.099,0.006,34.0178185,-92.2735177
0502594038,63748,Township of Whiteville,05025,Z1,790,341,21.506,0.033,34.0141027,-92.0438176
0502791245,63749,Township of Emerson,05027,Z1,2052,867,205.925,0.165,33.0879145,-93.1686582
0502792328,63750,Township of McNeil,05027,Z1,986,633,81.01,0.124,33.3814639,-93.1702165
0502792355,63751,Township of Magnolia,05027,Z1,15510,7109,222.965,0.353,33.2341793,-93.2651414
0502793579,63752,Township of Taylor,05027,Z1,1243,660,98.525,0.005,33.1328891,-93.4338582
0502793801,63753,Township of Village,05027,Z1,883,514,92.493,0.014,33.2689132,-93.0355052
0502793822,63754,Township of Waldo,05027,Z1,2273,1292,65.148,0.105,33.3815718,-93.3145667
0502990081,66433,Township of Austin,05029,Z1,204,103,21.607,0.104,35.4345503,-92.5447323
0502990237,66434,Township of Bentley,05029,Z1,1338,564,18.077,1.541,35.1019159,-92.7672406
0502990312,66435,Township of Bird,05029,Z1,651,275,24.516,0.05,35.3079264,-92.6141625
0502990696,66436,Township of Catholic Point,05029,Z1,812,325,22.541,0.037,35.341703,-92.5293608
0502990723,66437,Township of Cedar Falls,05029,Z1,179,179,18.865,0.719,35.1389845,-92.9070582
0502991530,66438,Township of Gregory,05029,Z1,666,278,22.175,0.831,35.277456,-92.7988031
0502991533,66439,Township of Griffin,05029,Z1,384,203,41.378,0.407,35.4076958,-92.8048561
0502991713,66440,Township of Higgins,05029,Z1,109,49,8.434,0.027,35.0976613,-92.8830096
0502991779,66441,Township of Howard,05029,Z1,1587,868,53.805,1.74,35.1454873,-92.5928884
0502992199,66442,Township of Lick Mountain,05029,Z1,738,335,37.948,0.35,35.38465,-92.5862175
0502992325,66443,Township of McLaren,05029,Z1,382,164,13.756,0.257,35.3221426,-92.6748506
0502992412,66444,Township of Martin,05029,Z1,200,98,11.885,1.685,35.1162701,-92.8419188
0502992688,66445,Township of Nichols,05029,Z1,743,305,49.196,0.59,35.4080796,-92.7012034
0502992745,66446,Township of Old Hickory,05029,Z1,214,107,11.758,0.187,35.3286082,-92.8108486
0502992856,66447,Township of Petit Jean,05029,Z1,30,13,7.984,0.087,35.0958609,-93.0064334
0502993282,66448,Township of Saint Vincent,05029,Z1,630,342,18.013,0.159,35.3082183,-92.7272311
0502993492,66449,Township of Steele,05029,Z1,501,232,17.949,0.021,35.2242648,-92.6045505
0502993672,66450,Township of Union,05029,Z1,393,217,30.428,0.016,35.2645859,-92.5367085
0502993906,66451,Township of Washington,05029,Z1,1190,715,35.526,1.409,35.2375521,-92.7026458
0502993960,66452,Township of Welborn,05029,Z1,9717,4237,74.063,4.347,35.169994,-92.7592413
0502993999,66453,Township of White Eagle,05029,Z1,19,49,12.014,0.015,35.0967056,-92.9445037
0503190255,66454,Township of Big Creek,05031,Z1,4904,2099,42.249,0.163,35.9208501,-90.8033473
0503190330,66455,Township of Black Oak,05031,Z1,2274,965,84.864,1.37,35.7765234,-90.3576009
0503190489,66456,Township of Brookland,05031,Z1,4967,2025,36.042,0.112,35.9218,-90.5500093
0503190534,66457,Township of Buffalo,05031,Z1,1811,850,68.409,1.022,35.9206375,-90.3568221
0503191461,66458,Township of Gilkerson,05031,Z1,8474,3032,75.126,0.224,35.7690047,-90.8036754
0503191512,66459,Township of Greenfield,05031,Z1,3138,1370,27.829,0.041,35.7391731,-90.6582598
0503191674,66460,Township of Herndon,05031,Z1,1384,511,14.099,0.203,35.932414,-90.7181665
0503192004,66461,Township of Jonesboro,05031,Z1,62474,26159,86.925,0.435,35.8480598,-90.6877574
0503192097,66462,Township of Lake City,05031,Z1,2487,1134,17.014,0.354,35.8207227,-90.4517905
0503192154,66463,Township of Lester,05031,Z1,213,152,31.263,0.308,35.9094987,-90.4634373
0503192232,66464,Township of Little Texas,05031,Z1,69,21,54.065,0.3,35.7508942,-90.9562014
0503192433,66465,Township of Maumelle,05031,Z1,2679,1045,36.416,0.059,35.74965,-90.554147
0503192670,66466,Township of Nettleton,05031,Z1,10150,5133,33.299,0.131,35.8113211,-90.5940403
0503192970,66467,Township of Powell,05031,Z1,3851,1361,23.713,0.291,35.9309471,-90.6471677
0503192985,66468,Township of Prairie,05031,Z1,195,47,10.289,0.181,35.7610248,-90.4451973
0503193036,66469,Township of Promised Land,05031,Z1,208,66,32.205,0.142,35.8506355,-90.974654
0503193582,66470,Township of Taylor,05031,Z1,313,146,11.332,0.082,35.7499454,-90.4831648
0503193597,66471,Township of Texas,05031,Z1,284,169,22.024,0.109,35.8217826,-90.9241721
0503390024,68720,Township of Alma,05033,Z1,7200,2627,23.326,0.612,35.475841,-94.2176323
0503390248,2406942,Township of Bidville,05033,Z1,9,5,29.043,0.0,35.725797,-93.9843002
0503390717,68721,Township of Cedar Creek,05033,Z1,322,181,26.391,0.008,35.6271419,-94.2960242
0503390726,68722,Township of Cedarville,05033,Z1,2002,854,22.535,0.0,35.5874309,-94.3633237
0503390777,68723,Township of Chester,05033,Z1,625,304,25.964,0.746,35.6791198,-94.1824028
0503390942,68724,Township of Cove City,05033,Z1,429,188,27.395,0.0,35.70447,-94.3303521
0503391043,2406946,Township of Dean Springs,05033,Z1,2218,1126,15.325,0.016,35.5426529,-94.1838783
0503391124,68725,Township of Dora,05033,Z1,1689,687,11.245,0.952,35.4634666,-94.4211659
0503391176,68726,Township of Dyer,05033,Z1,1932,807,14.53,0.672,35.4938159,-94.1487054
0503391905,68727,Township of Jasper,05033,Z1,2862,1054,22.16,0.057,35.5237967,-94.3959377
0503392039,2406955,Township of Kibler,05033,Z1,971,407,27.206,2.021,35.4034746,-94.1973968
0503392112,68729,Township of Lancaster,05033,Z1,628,344,15.342,0.0,35.5770517,-94.2341763
0503392145,68730,Township of Lees Creek,05033,Z1,151,209,60.571,0.047,35.6954575,-94.4220122
0503392240,2406957,Township of Locke,05033,Z1,207,112,22.73,0.354,35.6742207,-94.0785515
0503392614,2406961,Township of Mountainburg,05033,Z1,1770,913,25.997,0.0,35.6211403,-94.1887884
0503392648,2406962,Township of Mulberry,05033,Z1,1691,828,18.527,1.234,35.5175196,-94.0573181
0503392754,68733,Township of Oliver Springs,05033,Z1,1504,755,20.845,0.002,35.5332075,-94.3066767
0503392961,68734,Township of Porter,05033,Z1,100,58,18.937,0.0,35.7310089,-94.1582998
0503393252,68736,Township of Rudy,05033,Z1,817,317,9.064,0.004,35.5290835,-94.2478596
0503393733,2407400,Township of Uniontown,05033,Z1,1339,320,19.284,0.0,35.5878118,-94.4353098
0503393738,68740,Township of Upper,05033,Z1,240,112,22.713,0.0,35.712605,-94.2589405
0503393771,68741,Township of Van Buren,05033,Z1,29836,12355,59.014,2.936,35.4277775,-94.3073296
0503393810,68742,Township of Vine Prairie,05033,Z1,342,254,14.253,0.558,35.4899667,-94.1009678
0503394044,68743,Township of Whitley,05033,Z1,1599,571,27.052,0.113,35.5818864,-94.110945
0503394098,68744,Township of Winfrey,05033,Z1,0,56,15.823,0.061,35.7347933,-94.0719815
0503590333,68745,Township of Black Oak,05035,Z1,432,189,64.027,0.726,35.3889286,-90.4217217
0503590384,68746,Township of Bob Ward,05035,Z1,657,347,66.726,0.2,35.0672778,-90.3513013
0503591314,68747,Township of Fogleman,05035,Z1,907,392,72.022,2.526,35.3905446,-90.2264109
0503591857,68748,Township of Jackson,05035,Z1,1592,605,57.59,0.0,35.20616,-90.3344801
0503591908,68749,Township of Jasper,05035,Z1,15423,6096,28.706,0.033,35.2189596,-90.2239242
0503592298,68750,Township of Lucas,05035,Z1,912,783,58.527,16.701,34.9166324,-90.3377116
0503592508,68751,Township of Mississippi,05035,Z1,24509,11081,42.877,5.283,35.1401935,-90.1815936
0503592580,68752,Township of Mound City,05035,Z1,489,186,25.992,1.721,35.2226801,-90.1390664
0503593033,68753,Township of Proctor,05035,Z1,671,299,33.256,1.813,35.0823448,-90.2465025
0503593655,68754,Township of Tyronza,05035,Z1,2237,1151,79.681,0.236,35.2429782,-90.4516764
0503593873,68755,Township of Wappanocca,05035,Z1,509,227,83.461,2.302,35.3080203,-90.2592635
0503790204,66472,Township of Bedford,05037,Z1,549,202,30.684,0.105,35.2135488,-90.8620573
0503790504,66473,Township of Brushy Lake,05037,Z1,453,192,54.534,0.133,35.3121236,-90.9597233
0503790894,79316,Township of Coldwater,05037,Z1,502,211,60.934,0.622,35.4014373,-90.6298546
0503791227,66474,Township of Ellis,05037,Z1,214,142,34.653,0.158,35.2021823,-90.9314171
0503791266,66475,Township of Fair Oaks,05037,Z1,106,39,32.736,0.121,35.2069649,-91.0057715
0503791701,66476,Township of Hickory Ridge,05037,Z1,605,286,55.358,0.009,35.3985182,-90.9592991
0503792526,66477,Township of Mitchell,05037,Z1,957,458,37.17,0.019,35.3990279,-90.7728091
0503793339,66478,Township of Searcy,05037,Z1,1328,681,103.727,0.494,35.3301601,-90.769635
0503793408,66479,Township of Smith,05037,Z1,2047,851,73.737,1.903,35.2137254,-90.683415
0503793652,66480,Township of Twist,05037,Z1,5,5,13.351,0.389,35.3955587,-90.5278824
0503793657,66481,Township of Tyronza,05037,Z1,807,545,86.375,1.664,35.2491097,-90.5581218
0503794125,66482,Township of Wynne,05037,Z1,9362,4025,33.059,0.324,35.2080759,-90.7926185
0503990546,66483,Township of Bunn,05039,Z1,0,0,35.743,0.006,34.0161381,-92.5258228
0503990780,66484,Township of Chester,05039,Z1,256,200,58.436,0.005,34.0955288,-92.4834268
0503991146,66485,Township of Dry Run,05039,Z1,433,172,11.845,0.019,33.822618,-92.3681949
0503991317,66486,Township of Fordyce,05039,Z1,3579,1685,31.463,0.027,33.843047,-92.4325489
0503991752,66487,Township of Holly Springs,05039,Z1,283,143,60.067,0.0,33.8453553,-92.6733057
0503991860,66488,Township of Jackson,05039,Z1,83,71,35.798,0.005,33.8440468,-92.5321433
0503992166,66489,Township of Liberty,05039,Z1,47,70,35.427,0.0,33.9299938,-92.5294534
0503992364,66490,Township of Manchester,05039,Z1,540,168,56.868,0.177,34.019756,-92.8604302
0503992697,66491,Township of Nix,05039,Z1,16,51,39.037,0.0,33.9916782,-92.7731572
0503992790,66492,Township of Owen,05039,Z1,871,489,80.932,0.419,33.8834591,-92.8257245
0503993030,66493,Township of Princeton,05039,Z1,90,99,75.935,0.0,33.9540051,-92.6552837
0503993411,66494,Township of Smith,05039,Z1,100,141,75.966,0.01,34.0785366,-92.6533511
0503993423,66495,Township of Southall,05039,Z1,274,216,20.313,0.0,33.9194333,-92.444443
0503994071,66496,Township of Willow,05039,Z1,73,61,49.492,0.0,34.1191338,-92.7872486
0504190435,66497,Township of Bowie,05041,Z1,3995,1936,35.188,0.239,33.612603,-91.4079826
0504190831,66498,Township of Clayton,05041,Z1,649,281,55.116,0.775,33.6927785,-91.3665567
0504191341,66499,Township of Franklin,05041,Z1,451,275,154.761,38.787,33.7363721,-91.1559026
0504191587,66500,Township of Halley,05041,Z1,326,106,34.011,0.451,33.5792205,-91.3173488
0504191920,66501,Township of Jefferson,05041,Z1,109,137,53.29,3.07,33.8034192,-91.3954044
0504192511,66502,Township of Mississippi,05041,Z1,55,59,125.642,13.677,34.0492542,-91.0450714
0504193051,66503,Township of Randolph,05041,Z1,4668,2259,33.793,0.054,33.914089,-91.5082112
0504193063,66504,Township of Red Fork,05041,Z1,556,424,130.058,10.845,33.8909815,-91.2576869
0504193132,66505,Township of Richland,05041,Z1,245,126,42.947,0.285,33.7787965,-91.2780867
0504193381,66506,Township of Silver Lake,05041,Z1,328,134,40.212,2.141,33.9403163,-91.4327186
0504193870,66507,Township of Walnut Lake,05041,Z1,148,122,36.208,1.175,33.8251101,-91.5032748
0504390132,66508,Township of Bartholomew,05043,Z1,64,35,74.627,0.658,33.4988878,-91.4983853
0504390186,66509,Township of Bearhouse,05043,Z1,44,18,59.204,0.004,33.4553288,-91.6932952
0504390834,66510,Township of Clear Creek,05043,Z1,373,250,58.755,0.037,33.7438862,-91.8977916
0504390906,66511,Township of Collins,05043,Z1,159,77,57.778,1.51,33.4822504,-91.579972
0504390915,66512,Township of Cominto,05043,Z1,240,144,49.116,1.665,33.5599931,-91.6513379
0504390969,66513,Township of Crook,05043,Z1,319,156,64.275,0.259,33.4699137,-91.9458806
0504391344,66514,Township of Franklin,05043,Z1,640,320,79.294,1.792,33.6621305,-91.5387426
0504392238,66515,Township of Live Oak,05043,Z1,660,264,62.507,0.583,33.7439287,-91.5777352
0504392382,66516,Township of Marion,05043,Z1,11469,5554,115.301,0.459,33.6213607,-91.7746539
0504393300,66517,Township of Saline,05043,Z1,1508,696,62.618,0.022,33.6203341,-91.9245973
0504393471,66518,Township of Spring Hill,05043,Z1,935,367,63.97,0.262,33.7404158,-91.74082
0504393786,66519,Township of Veasey,05043,Z1,1100,401,81.223,0.004,33.4681602,-91.8207213
0504590225,66520,Township of Benedict,05045,Z1,825,363,30.066,2.341,34.9927586,-92.5349631
0504590240,66521,Township of Benton,05045,Z1,1295,561,29.274,0.0,35.3204667,-92.2282607
0504590483,66522,Township of Bristol,05045,Z1,60,28,15.569,0.066,35.1588056,-92.1425028
0504590600,66523,Township of Cadron,05045,Z1,74138,31649,91.518,6.999,35.0889422,-92.4339623
0504590618,66524,Township of California,05045,Z1,1666,753,36.33,0.068,35.3179271,-92.3268798
0504590876,66525,Township of Clifton,05045,Z1,3225,1207,24.846,0.023,35.1934712,-92.4665842
0504591002,66526,Township of Cypress,05045,Z1,4769,1943,39.927,0.085,35.0619709,-92.1704083
0504591014,66527,Township of Danley,05045,Z1,5385,2264,43.478,6.321,34.9575088,-92.3959666
0504591188,66528,Township of Eagle,05045,Z1,3064,1048,20.857,0.081,35.1059837,-92.2814441
0504591199,66529,Township of East Fork,05045,Z1,3042,905,16.264,0.012,35.1765815,-92.3789332
0504591251,66530,Township of Enola,05045,Z1,729,367,27.458,0.0,35.2186655,-92.2123022
0504591599,66531,Township of Hardin,05045,Z1,7726,3139,35.414,0.038,35.2294588,-92.3541484
0504591635,66532,Township of Harve,05045,Z1,1414,479,21.541,0.0,35.1593073,-92.2787878
0504592427,66533,Township of Matthews,05045,Z1,518,287,21.777,0.0,35.2434791,-92.2705544
0504592589,66534,Township of Mountain,05045,Z1,299,173,24.142,0.0,35.3185678,-92.1480068
0504592637,66535,Township of Mount Vernon,05045,Z1,406,188,17.894,0.0,35.2392367,-92.1449947
0504592685,66536,Township of Newton,05045,Z1,586,304,17.859,0.006,35.140536,-92.1987356
0504592814,66537,Township of Palarm,05045,Z1,4567,1914,28.106,0.086,35.0464357,-92.2795453
0504592892,66538,Township of Pine Mountain,05045,Z1,3567,1752,17.313,0.662,35.0167885,-92.4446732
0504593678,66539,Township of Union,05045,Z1,2469,796,28.159,0.0,35.2601052,-92.4519414
0504593825,66540,Township of Walker,05045,Z1,1419,526,29.387,0.016,35.3350981,-92.4291499
0504594083,66541,Township of Wilson,05045,Z1,2022,764,30.064,0.034,34.9717762,-92.2726363
0504790021,66542,Township of Alix,05047,Z1,384,153,14.455,0.733,35.4243105,-93.726424
0504790111,66543,Township of Barham,05047,Z1,290,162,9.66,0.001,35.3978072,-93.888465
0504790336,66544,Township of Black Oak,05047,Z1,84,80,20.07,0.053,35.6227705,-94.0142058
0504790411,66545,Township of Boston,05047,Z1,141,101,31.443,0.009,35.6761372,-93.8497039
0504790885,66546,Township of Cobb,05047,Z1,0,0,16.052,0.0,35.7388085,-93.728069
0504790954,66547,Township of Cravens,05047,Z1,142,61,14.072,0.0,35.5476073,-93.9019971
0504791123,66548,Township of Donald,05047,Z1,627,291,14.52,0.07,35.3090562,-93.9429112
0504791551,66549,Township of Grover,05047,Z1,193,183,22.297,0.9,35.4311004,-93.9448161
0504791740,66550,Township of Hogan,05047,Z1,1492,601,17.74,1.226,35.4261554,-93.7693755
0504791803,66551,Township of Hurricane,05047,Z1,117,73,16.311,0.087,35.3660146,-93.9593418
0504791845,66552,Township of Ivy,05047,Z1,341,107,14.628,2.374,35.4894198,-94.0019399
0504792205,66553,Township of Limestone,05047,Z1,2,2,6.025,0.0,35.6749246,-93.7169926
0504792316,66554,Township of McIlroy,05047,Z1,26,13,29.702,0.002,35.6762413,-93.7727402
0504792454,66555,Township of Middle,05047,Z1,1236,516,23.002,1.309,35.4360047,-93.8423206
0504792472,66556,Township of Mill Creek,05047,Z1,178,45,21.457,0.736,35.4267128,-94.027318
0504792496,66557,Township of Miller,05047,Z1,62,23,8.952,0.0,35.6095849,-94.0601114
0504792559,66558,Township of Morgan,05047,Z1,8,8,28.25,0.002,35.7448312,-93.8458236
0504792592,66559,Township of Mountain,05047,Z1,356,140,23.763,0.027,35.6031196,-93.741513
0504792649,66560,Township of Mulberry,05047,Z1,196,123,22.876,0.042,35.5426184,-93.9814609
0504792988,66561,Township of Prairie,05047,Z1,3206,1359,48.154,0.392,35.2772208,-94.0286256
0504793369,66562,Township of Shores,05047,Z1,0,0,26.743,0.059,35.6761173,-93.9520467
0504793387,66563,Township of Six Mile,05047,Z1,88,81,9.094,0.001,35.2517601,-93.9460192
0504793828,66564,Township of Walker,05047,Z1,713,254,22.974,0.003,35.6161641,-93.8966938
0504793840,66565,Township of Wallace,05047,Z1,217,88,13.735,1.317,35.4856721,-93.9184696
0504793936,66566,Township of Watalula,05047,Z1,557,263,18.111,0.0,35.588045,-93.8264094
0504793954,66567,Township of Weaver,05047,Z1,432,168,18.994,0.008,35.3655079,-94.0381145
0504794005,66568,Township of White Oak,05047,Z1,5500,2562,58.664,1.691,35.5160283,-93.7909508
0504794032,66569,Township of White Rock,05047,Z1,12,6,9.942,0.001,35.590652,-93.9672512
0504794107,66570,Township of Wittich,05047,Z1,559,283,27.276,0.099,35.348924,-93.8593615
0504990006,66571,Township of Afton,05049,Z1,376,435,37.213,0.344,36.3803252,-91.5098429
0504990243,66573,Township of Benton,05049,Z1,2445,1312,59.493,0.059,36.3752355,-91.8499313
0504990258,66574,Township of Big Creek,05049,Z1,304,321,33.104,1.039,36.3327295,-92.0994111
0504990855,66575,Township of Cleveland,05049,Z1,818,227,54.406,0.263,36.293726,-92.0150159
0504991392,66576,Township of Fulton,05049,Z1,1228,456,45.968,0.147,36.3871089,-91.9936638
0504992361,66577,Township of Mammoth Spring,05049,Z1,2052,1114,50.43,0.153,36.460236,-91.5411655
0504992619,66578,Township of Mount Calm,05049,Z1,19,46,26.618,0.016,36.465833,-91.990299
0504992658,66579,Township of Myatt,05049,Z1,243,156,35.766,0.026,36.3836345,-91.6193916
0504992922,66580,Township of Pleasant Ridge,05049,Z1,2001,874,54.39,0.34,36.2963897,-91.646442
0504993429,66581,Township of South Fork,05049,Z1,366,330,42.805,0.014,36.3922136,-91.7276556
0504993498,66582,Township of Strawberry,05049,Z1,471,291,30.648,0.041,36.2922695,-91.7764455
0504993681,66583,Township of Union,05049,Z1,66,64,23.158,0.0,36.2904247,-91.8820176
0504993798,66584,Township of Vidette,05049,Z1,877,315,48.137,0.0,36.4412721,-92.0977852
0504993909,66585,Township of Washington,05049,Z1,522,239,40.458,0.014,36.4650192,-91.8589179
0504994086,66587,Township of Wilson,05049,Z1,284,80,35.398,0.0,36.4711782,-91.6994954
0505191581,66591,Township of Hale,05051,Z1,15575,9321,384.202,44.603,34.6217277,-93.235354
0505191773,66592,Township of Hot Springs,05051,Z1,41136,22848,51.671,2.41,34.493721,-93.0472704
0505192100,66594,Township of Lake Hamilton,05051,Z1,23430,10941,78.982,7.876,34.4313011,-93.0866375
0505194047,66602,Township of Whittington,05051,Z1,19553,9005,162.759,2.042,34.5632408,-92.9965746
0505390624,66603,Township of Calvert,05053,Z1,1009,484,59.574,0.115,34.198761,-92.4296888
0505391023,66604,Township of Darysaw,05053,Z1,863,299,64.985,0.022,34.2337934,-92.2947341
0505391032,66605,Township of Davis,05053,Z1,427,138,47.795,0.057,34.2476479,-92.5079655
0505391050,66606,Township of Dekalb,05053,Z1,747,328,58.302,0.126,34.402607,-92.5325497
0505391287,66607,Township of Fenter,05053,Z1,854,377,37.331,0.063,34.339308,-92.6325203
0505391347,66608,Township of Franklin,05053,Z1,767,261,33.065,0.035,34.4216426,-92.4087737
0505392334,66609,Township of Madison,05053,Z1,1028,484,67.281,0.013,34.1201131,-92.3068419
0505392451,66610,Township of Merry Green,05053,Z1,7635,3403,53.851,0.09,34.3223913,-92.4022108
0505393192,66611,Township of River,05053,Z1,987,458,23.461,0.057,34.3295955,-92.552339
0505393384,66612,Township of Simpson,05053,Z1,1601,908,76.948,0.061,34.4343814,-92.2934665
0505393591,66613,Township of Tennessee,05053,Z1,856,271,68.885,0.401,34.206582,-92.6073172
0505393912,66614,Township of Washington,05053,Z1,1138,435,40.41,0.078,34.3322705,-92.2653931
0505590082,2805589,Township of Bagwell Lake,05055,Z1,4190,1833,128.585,0.67,36.1294173,-90.3674079
0505590541,2805590,Township of Bula,05055,Z1,25695,10517,32.923,0.077,36.0555977,-90.5394159
0505590631,2805591,Township of Campground,05055,Z1,4033,1731,34.67,0.105,36.1390113,-90.5311562
0505590985,2805592,Township of Crowley's Ridge,05055,Z1,4290,1898,87.961,0.715,36.0146254,-90.6995429
0505591012,2805593,Township of Dalton,05055,Z1,3114,1475,241.019,0.152,36.1797646,-90.634951
0505593256,2805594,Township of Rush Island,05055,Z1,4343,1614,52.181,0.318,36.0018905,-90.4757714
0505790387,66639,Township of Bodcaw,05057,Z1,480,282,52.328,0.03,33.5337956,-93.5462623
0505790396,66640,Township of Bois d'Arc,05057,Z1,560,355,93.764,4.185,33.630998,-93.8152044
0505791077,66641,Township of De Roan,05057,Z1,11650,5376,89.701,0.464,33.6609616,-93.5637855
0505791431,66642,Township of Garland,05057,Z1,834,264,29.335,0.102,33.7901381,-93.5574596
0505792499,66643,Township of Mine Creek,05057,Z1,1351,644,71.824,0.27,33.9195146,-93.7734373
0505792700,66644,Township of Noland,05057,Z1,106,109,27.95,0.083,33.7738221,-93.498043
0505792802,66645,Township of Ozan,05057,Z1,1543,693,106.731,0.175,33.7846106,-93.6806839
0505793072,66646,Township of Redland,05057,Z1,354,306,62.647,0.141,33.9300313,-93.639569
0505793303,66647,Township of Saline,05057,Z1,676,474,51.769,6.449,33.7264644,-93.8598855
0505793474,66648,Township of Springhill,05057,Z1,1670,649,63.949,1.576,33.5474783,-93.6619245
0505793849,66649,Township of Wallaceburg,05057,Z1,623,262,50.738,0.243,33.8871373,-93.521634
0505793942,66650,Township of Water Creek,05057,Z1,505,301,26.464,0.08,33.6460899,-93.6935435
0505990039,66651,Township of Antioch,05059,Z1,450,227,14.31,0.0,34.3087166,-92.9925478
0505990261,66652,Township of Big Creek,05059,Z1,558,167,24.331,0.02,34.3184158,-92.7089359
0505990318,66653,Township of Bismarck,05059,Z1,2097,813,50.457,1.262,34.3357307,-93.1924586
0505990498,66654,Township of Brown Springs,05059,Z1,67,57,34.501,0.166,34.1811421,-92.9469858
0505990567,66655,Township of Butterfield,05059,Z1,1703,595,14.432,0.044,34.4218559,-92.7998658
0505990837,66656,Township of Clear Creek,05059,Z1,338,172,31.437,0.006,34.2082824,-92.7099917
0505991080,66657,Township of De Roche,05059,Z1,1647,752,51.266,0.0,34.3431761,-93.0679733
0505991131,66658,Township of Dover,05059,Z1,641,286,19.912,0.005,34.2841454,-92.7686275
0505991290,66659,Township of Fenter,05059,Z1,13877,5484,55.037,1.103,34.3767597,-92.845522
0505991455,66660,Township of Gifford,05059,Z1,999,426,17.645,0.019,34.382914,-92.7118501
0505991617,66661,Township of Harrison,05059,Z1,264,140,43.712,0.003,34.2033294,-92.7989581
0505991662,66662,Township of Henderson,05059,Z1,817,514,31.808,0.0,34.371691,-93.3327577
0505992259,66663,Township of Lone Hill,05059,Z1,637,304,30.042,0.277,34.3441029,-92.9354374
0505992352,66664,Township of Magnet,05059,Z1,2148,1107,37.677,0.845,34.4687467,-92.849499
0505992457,66665,Township of Midway,05059,Z1,1429,666,30.206,0.3,34.2913376,-92.8652311
0505992535,66666,Township of Montgomery,05059,Z1,994,562,28.773,1.679,34.2645194,-93.1005518
0505992781,66667,Township of Ouachita,05059,Z1,647,319,23.564,0.08,34.2289909,-92.9066671
0505992991,66668,Township of Prairie,05059,Z1,1168,483,22.351,0.151,34.2504504,-92.9892505
0505993306,66669,Township of Saline,05059,Z1,1844,772,25.578,0.009,34.4498188,-92.7317207
0505993756,66670,Township of Valley,05059,Z1,771,381,27.905,1.259,34.317092,-93.3011071
0506190327,66671,Township of Blackland,05061,Z1,81,25,15.09,0.067,33.8135837,-93.8753828
0506190354,66672,Township of Blue Bayou,05061,Z1,0,0,11.183,0.009,33.8779369,-94.0044076
0506190369,66673,Township of Blue Ridge,05061,Z1,344,107,28.956,0.817,34.1787422,-94.0325924
0506190465,66674,Township of Brewer,05061,Z1,683,236,22.445,0.189,34.0429462,-93.8666536
0506190531,66675,Township of Buck Range,05061,Z1,600,167,16.816,0.041,33.8611933,-93.8655363
0506190552,66676,Township of Burg,05061,Z1,59,16,13.32,0.105,34.2252004,-94.0677863
0506190747,66677,Township of Center Point,05061,Z1,615,321,53.429,0.03,34.0123196,-93.9890636
0506190822,66678,Township of Clay,05061,Z1,223,79,27.661,0.028,34.2357125,-93.967966
0506190933,66679,Township of County Line,05061,Z1,607,287,15.261,0.009,33.9524724,-93.9318451
0506191104,66680,Township of Dillard,05061,Z1,188,70,12.999,0.02,33.9039916,-93.9365417
0506191152,66681,Township of Duckett,05061,Z1,92,26,20.313,1.02,34.2771446,-94.2232644
0506191350,66682,Township of Franklin,05061,Z1,182,148,15.892,1.398,33.8240527,-93.9577696
0506191749,66683,Township of Holly Creek,05061,Z1,158,139,38.248,0.001,34.1237768,-93.9513574
0506192337,66684,Township of Madison,05061,Z1,1054,615,38.923,0.09,34.0912295,-94.0462011
0506192505,66685,Township of Mineral Springs,05061,Z1,1137,579,8.087,0.038,33.8688294,-93.9342275
0506192595,66686,Township of Mountain,05061,Z1,187,194,25.683,0.021,34.3189181,-93.9835659
0506192643,66687,Township of Muddy Fork,05061,Z1,71,39,37.717,0.063,34.1304167,-93.865739
0506192661,66688,Township of Nashville,05061,Z1,6000,2780,38.497,0.173,33.9547674,-93.8674448
0506193309,66689,Township of Saline,05061,Z1,200,67,21.943,0.0,33.9287269,-94.0175361
0506193324,66690,Township of Saratoga,05061,Z1,96,48,18.553,2.897,33.7700836,-93.8934969
0506193615,66935,Township of Tollette,05061,Z1,213,169,0.963,0.0,33.8180958,-93.8968988
0506193663,66691,Township of Umpire,05061,Z1,104,57,105.351,1.232,34.2807484,-94.1300345
0506390069,68756,Township of Ashley,05063,Z1,995,696,34.001,0.0,35.8480529,-91.6278157
0506390123,68757,Township of Barren,05063,Z1,1921,860,40.443,0.092,35.9041481,-91.5377636
0506390250,1954004,Township of Big Bottom-Wycough-Logan,05063,Z1,1923,1005,68.501,1.987,35.7082498,-91.4010799
0506390343,1954005,Township of Black River-Marshell,05063,Z1,323,240,54.248,0.931,35.8382303,-91.2955821
0506390994,1954008,Township of Cushman-Union,05063,Z1,1313,684,50.404,0.152,35.8671859,-91.7595085
0506391074,68762,Township of Departee,05063,Z1,137,40,23.017,0.044,35.5562095,-91.4178549
0506391128,68763,Township of Dota,05063,Z1,1129,439,49.742,0.0,35.8322811,-91.4128477
0506391272,68764,Township of Fairview,05063,Z1,966,495,42.135,0.0,35.5748271,-91.6448863
0506391401,68765,Township of Gainsboro,05063,Z1,926,430,29.734,0.038,35.8249971,-91.5140718
0506391509,68766,Township of Greenbrier,05063,Z1,1562,764,38.868,0.628,35.720232,-91.7418549
0506391725,68767,Township of Hill,05063,Z1,462,189,22.05,0.0,35.5548168,-91.518807
0506391794,68768,Township of Huff,05063,Z1,505,154,17.273,0.0,35.6467505,-91.6175714
0506391923,68769,Township of Jefferson,05063,Z1,208,67,24.086,0.026,35.9084406,-91.6785837
0506392169,68770,Township of Liberty,05063,Z1,929,570,29.975,0.0,35.5794992,-91.7509184
0506392313,68772,Township of McHue,05063,Z1,4248,1624,16.929,0.228,35.7076649,-91.6504988
0506392346,68773,Township of Magness,05063,Z1,442,221,14.045,0.577,35.6925838,-91.4931372
0506392550,68775,Township of Moorefield,05063,Z1,3316,1457,21.556,0.113,35.774194,-91.569132
0506392739,68776,Township of Oil Trough,05063,Z1,734,434,39.199,0.651,35.6083338,-91.4724462
0506393111,68777,Township of Relief,05063,Z1,493,134,29.066,0.016,35.6502753,-91.722979
0506393234,68778,Township of Rosie,05063,Z1,432,208,22.012,0.419,35.6565254,-91.5373399
0506393249,68779,Township of Ruddell,05063,Z1,11239,4379,26.818,0.683,35.7818902,-91.6721563
0506393285,68780,Township of Salado,05063,Z1,1403,575,14.171,0.246,35.7021522,-91.5903189
0506393915,68783,Township of Washington,05063,Z1,823,378,39.724,0.805,35.7906862,-91.8051149
0506394011,68784,Township of White River,05063,Z1,1367,591,15.713,0.184,35.7429751,-91.5187218
0506590072,66692,Township of Athens,05065,Z1,395,155,24.501,0.222,36.0551511,-92.0123798
0506590087,66693,Township of Baker,05065,Z1,85,108,20.053,0.0,36.225813,-91.8281164
0506590129,66694,Township of Barren Fork,05065,Z1,326,149,11.159,0.0,35.9633421,-91.742133
0506590306,66695,Township of Big Spring,05065,Z1,193,140,15.144,0.0,36.010666,-91.7370528
0506590513,66696,Township of Bryan,05065,Z1,467,314,25.901,0.0,36.2284874,-92.1061439
0506590798,66697,Township of Claiborne,05065,Z1,87,152,23.235,0.342,36.0956192,-92.0775126
0506591149,66698,Township of Drytown,05065,Z1,321,158,15.198,0.014,35.9716703,-91.7968916
0506591353,66699,Township of Franklin,05065,Z1,369,173,23.888,0.001,36.1569606,-91.7779846
0506591452,66700,Township of Gid,05065,Z1,111,131,20.793,0.0,35.9842673,-91.8563652
0506591557,66701,Township of Guion,05065,Z1,100,58,21.375,0.457,35.9435673,-91.9417884
0506591572,66702,Township of Guthrie,05065,Z1,54,56,30.173,0.0,36.2138852,-92.0067208
0506591926,66703,Township of Jefferson,05065,Z1,2526,1216,30.159,1.285,36.2084351,-91.7262753
0506592061,66704,Township of Lacrosse,05065,Z1,474,137,16.698,0.0,36.0981986,-91.8449979
0506592079,66705,Township of Lafferty,05065,Z1,168,67,23.706,0.211,35.9134178,-91.8490983
0506592301,66706,Township of Lunenburg,05065,Z1,59,76,26.816,0.0,36.0026524,-91.9416775
0506592475,66707,Township of Mill Creek,05065,Z1,2204,1131,25.489,0.0,36.0616861,-91.9112042
0506592622,66708,Township of Mount Olive,05065,Z1,189,97,10.274,0.114,36.0039273,-92.0504604
0506592673,66709,Township of Newburg,05065,Z1,373,270,42.05,0.0,36.1315431,-91.9628733
0506592679,66710,Township of New Hope,05065,Z1,872,388,28.122,0.011,36.2145587,-91.9198643
0506592916,66711,Township of Pleasant Hill,05065,Z1,354,232,23.581,0.027,36.0631333,-91.7516467
0506593264,66712,Township of Sage,05065,Z1,501,169,11.741,0.0,36.0414556,-91.820171
0506593501,66713,Township of Strawberry,05065,Z1,114,65,23.941,0.012,36.10821,-91.7188108
0506593693,66714,Township of Union,05065,Z1,2838,968,45.689,0.383,36.1543252,-92.1250085
0506593816,66715,Township of Violet Hill,05065,Z1,168,88,19.617,0.0,36.1613288,-91.8520974
0506594014,66716,Township of White River,05065,Z1,305,297,20.9,0.618,35.9566318,-92.0500791
0506790126,66717,Township of Barren,05067,Z1,1038,403,35.374,0.019,35.4849541,-91.5312489
0506790147,66718,Township of Bateman,05067,Z1,37,19,25.537,1.165,35.5872326,-91.3350559
0506790315,66719,Township of Bird,05067,Z1,1875,869,89.739,1.081,35.7548511,-91.182583
0506790459,66720,Township of Breckenridge,05067,Z1,302,154,49.309,0.019,35.4339517,-91.2127822
0506790516,66721,Township of Bryan,05067,Z1,14,7,31.295,1.19,35.4894746,-91.3003754
0506790579,66722,Township of Cache,05067,Z1,229,84,44.906,0.24,35.522539,-91.1654068
0506790948,66723,Township of Cow Lake,05067,Z1,200,116,58.092,0.232,35.416672,-91.0970012
0506791467,66724,Township of Glaize,05067,Z1,651,355,45.143,0.923,35.4844659,-91.4104146
0506791470,66725,Township of Glass,05067,Z1,1284,426,68.335,0.469,35.8372506,-91.1192855
0506791554,66726,Township of Grubbs,05067,Z1,493,270,40.566,0.08,35.6570988,-91.092291
0506791929,66727,Township of Jefferson,05067,Z1,1194,470,33.67,0.764,35.6822435,-91.2812781
0506793165,66728,Township of Richwoods,05067,Z1,122,99,39.148,0.631,35.5532508,-91.0796391
0506793696,66729,Township of Union,05067,Z1,7171,3651,36.688,0.749,35.5900164,-91.2590119
0506793804,66730,Township of Village,05067,Z1,2268,226,35.808,0.268,35.6483751,-91.1809174
0506990120,66731,Township of Barraque,05069,Z1,2329,1000,30.781,1.716,34.4464166,-92.160556
0506990390,66732,Township of Bogy,05069,Z1,38,62,50.176,2.361,34.2452856,-91.7619196
0506990399,66733,Township of Bolivar,05069,Z1,253,220,42.924,4.186,34.4478564,-92.0462055
0506991155,66734,Township of Dudley Lake,05069,Z1,2003,163,58.779,0.28,34.4394911,-91.8914151
0506991161,66735,Township of Dunnington,05069,Z1,426,180,39.391,0.551,34.3537791,-91.7667543
0506991932,66736,Township of Jefferson,05069,Z1,2610,1083,43.837,1.002,34.363587,-92.1383809
0506992448,66737,Township of Melton,05069,Z1,252,290,24.901,0.111,34.1217817,-91.9046328
0506992694,66738,Township of Niven,05069,Z1,1658,764,12.144,0.061,34.181871,-92.0889689
0506992748,66739,Township of Old River,05069,Z1,0,0,33.968,3.054,34.1886889,-91.6501521
0506992832,66740,Township of Pastoria,05069,Z1,173,130,30.719,1.852,34.3561629,-92.0195279
0506992925,66741,Township of Plum Bayou,05069,Z1,1130,634,85.913,6.718,34.3167334,-91.8986849
0506993135,66742,Township of Richland,05069,Z1,199,210,48.227,2.437,34.1433344,-91.793117
0506993210,66743,Township of Roberts,05069,Z1,241,192,32.325,4.946,34.4397405,-91.7603253
0506993450,66744,Township of Spring,05069,Z1,3315,1347,42.197,0.081,34.1713181,-92.1746827
0506993570,66745,Township of Talladega,05069,Z1,971,452,47.403,0.064,34.0986302,-92.1414177
0506993783,66746,Township of Vaugine,05069,Z1,42284,19651,67.363,6.097,34.2239946,-92.0078651
0506993795,66747,Township of Victoria,05069,Z1,186,125,30.804,2.138,34.1969929,-91.901595
0506993807,66748,Township of Villemont,05069,Z1,12,64,53.606,4.953,34.1389306,-91.5350312
0506993918,66749,Township of Washington,05069,Z1,8099,3584,62.19,0.738,34.272494,-92.1385763
0506994041,66750,Township of Whiteville,05069,Z1,2020,770,34.698,0.313,34.1068924,-92.0089059
0507190150,66751,Township of Batson,05071,Z1,89,93,200.896,0.733,35.6092483,-93.6520883
0507191491,66753,Township of Grant,05071,Z1,989,580,41.342,3.445,35.424967,-93.6753507
0507191782,66757,Township of Howell,05071,Z1,884,481,31.551,10.694,35.365638,-93.3765339
0507192046,66758,Township of King,05071,Z1,1061,461,23.852,0.179,35.5450041,-93.4968717
0507192847,66763,Township of Perry,05071,Z1,635,420,282.754,0.836,35.6242585,-93.2905026
0507192910,66766,Township of Pittsburg,05071,Z1,2331,987,19.404,0.737,35.4339037,-93.3761017
0507193876,66772,Township of Ward,05071,Z1,952,417,23.084,4.445,35.4362447,-93.6109861
0507390090,66773,Township of Baker,05073,Z1,1748,1030,34.557,0.208,33.3913273,-93.5084491
0507391386,66774,Township of French,05073,Z1,334,289,31.713,4.466,33.0728389,-93.5689178
0507391578,66775,Township of Hadley,05073,Z1,899,374,54.416,0.131,33.3692946,-93.4433621
0507392082,66776,Township of La Grange,05073,Z1,493,224,41.094,0.257,33.4286579,-93.5882532
0507392409,66777,Township of Mars Hill,05073,Z1,182,100,53.484,0.196,33.2620042,-93.5591579
0507393201,66778,Township of Roane,05073,Z1,1112,637,162.009,3.96,33.1128902,-93.708764
0507393258,66779,Township of Russell,05073,Z1,12,57,26.595,1.5,33.4418825,-93.6857128
0507393489,66780,Township of Steel,05073,Z1,1255,718,74.392,3.038,33.3204371,-93.6368111
0507393834,66781,Township of Walker Creek,05073,Z1,338,548,51.213,2.858,33.1426745,-93.5274933
0507590033,66782,Township of Annieville,05075,Z1,150,50,14.129,0.09,36.1505891,-91.2493211
0507590066,66783,Township of Ashland,05075,Z1,141,55,26.317,0.03,35.9657519,-91.0208447
0507590342,66784,Township of Black River,05075,Z1,306,230,21.642,1.323,36.0544933,-91.1487648
0507590345,66785,Township of Black Rock,05075,Z1,1330,538,23.015,0.266,36.123335,-91.1351723
0507590381,66786,Township of Boas,05075,Z1,2684,1289,32.433,0.036,36.0251546,-90.98003
0507590582,66787,Township of Cache,05075,Z1,12,21,33.365,0.016,36.108699,-90.8332767
0507590627,66788,Township of Campbell,05075,Z1,5458,2505,41.306,0.08,36.0966639,-90.9374816
0507591065,66789,Township of Dent,05075,Z1,1052,441,22.871,0.028,36.1823684,-91.1949436
0507591137,66790,Township of Dowell,05075,Z1,180,95,31.251,0.0,35.9223384,-90.9284594
0507591173,66791,Township of Duty,05075,Z1,537,256,21.8,0.522,36.074445,-91.0715275
0507591206,66792,Township of Eaton,05075,Z1,259,109,15.547,0.046,36.0381609,-91.21593
0507591299,66793,Township of Flat Creek,05075,Z1,218,36,13.576,0.132,36.098357,-91.2160533
0507591959,66794,Township of Jesup,05075,Z1,136,54,14.049,0.011,36.02768,-91.3214624
0507592127,66795,Township of Lawrence,05075,Z1,257,86,27.166,0.664,35.9904829,-91.1128307
0507592385,66796,Township of Marion,05075,Z1,228,143,49.456,0.295,35.9190019,-91.0961149
0507592562,66797,Township of Morgan,05075,Z1,663,297,43.531,0.822,35.9744371,-91.2328754
0507593039,66798,Township of Promised Land,05075,Z1,317,172,32.282,0.0,35.9986104,-90.883428
0507593108,66799,Township of Reeds Creek,05075,Z1,853,439,37.583,0.0,35.9363762,-91.3067948
0507593168,66800,Township of Richwoods,05075,Z1,256,143,17.488,0.104,36.1290266,-91.0069032
0507593477,66801,Township of Spring River,05075,Z1,433,252,34.652,0.095,36.193442,-91.3032347
0507593504,66802,Township of Strawberry,05075,Z1,516,178,31.084,0.146,36.0945717,-91.3003547
0507593603,66803,Township of Thacker,05075,Z1,306,151,2.985,0.079,36.2409661,-91.2557015
0507790264,66805,Township of Big Creek,05077,Z1,56,63,38.829,1.12,34.680847,-90.9870872
0507790930,66806,Township of Council,05077,Z1,56,46,34.877,7.395,34.824741,-90.473542
0507791302,66807,Township of Fleener,05077,Z1,441,153,54.064,0.174,34.8658882,-91.0217256
0507791593,66808,Township of Hampton,05077,Z1,667,300,55.362,0.029,34.7774849,-91.0217579
0507791602,66809,Township of Hardy,05077,Z1,0,0,18.162,3.414,34.6764535,-90.6093686
0507791821,66810,Township of Independence,05077,Z1,4387,2142,123.36,3.874,34.7651103,-90.7053158
0507792733,66812,Township of Oak Forest,05077,Z1,334,222,35.364,0.0,34.7829803,-90.8895901
0507793138,66813,Township of Richland,05077,Z1,400,277,40.516,0.013,34.6772224,-90.7667417
0507793273,66814,Township of Saint Francis,05077,Z1,1467,68,71.55,5.785,34.7918458,-90.5566412
0507793459,66815,Township of Spring Creek,05077,Z1,339,255,36.709,0.022,34.7007283,-90.8953684
0507793600,66816,Township of Texas,05077,Z1,295,75,43.143,0.053,34.861746,-90.8718605
0507793699,66817,Township of Union,05077,Z1,390,173,47.87,0.46,34.8719988,-90.7301585
0507990075,66819,Township of Auburn,05079,Z1,4720,76,50.796,4.487,34.0508445,-91.5238078
0507990135,66820,Township of Bartholomew,05079,Z1,594,246,58.198,0.566,34.029002,-91.7785528
0507990639,66821,Township of Cane Creek,05079,Z1,3544,1778,66.356,0.69,33.9371986,-91.8102298
0507990786,66822,Township of Choctaw,05079,Z1,293,232,49.385,0.697,34.0423897,-91.6649852
0507991488,66823,Township of Gould,05079,Z1,755,489,28.561,0.178,33.9911675,-91.5662562
0507992043,66824,Township of Kimbrough,05079,Z1,2,26,20.518,2.44,34.131365,-91.6763776
0507992262,66825,Township of Lone Pine,05079,Z1,482,244,36.243,0.0,33.8355845,-91.8213341
0507992478,66826,Township of Mill Creek,05079,Z1,150,104,35.448,0.01,33.8353898,-91.9247338
