GEOID,GNIS ID,Name,County GEOID,FIPS Class,Population,Housing Units,Land Area,Water Area,Latitude,Longitude
0100190171,161593,Autaugaville Division,01001,Z5,3985,1728,184.615,5.366,32.4560218,-86.7322067
0100190315,165647,Billingsley Division,01001,Z5,2902,1410,149.37,0.608,32.6089354,-86.7563119
0100192106,165648,Marbury Division,01001,Z5,6815,2770,113.034,0.199,32.6429572,-86.5237702
0100192628,165649,Prattville Division,01001,Z5,45059,18549,147.436,3.741,32.4794472,-86.5068128
0100390207,161594,Bay Minette Division,01003,Z5,26464,10624,516.725,10.624,30.7891942,-87.6981651
0100390846,165650,Daphne Division,01003,Z5,56980,22085,114.81,54.98,30.6681314,-87.9091085
0100390963,165651,Elberta Division,01003,Z5,12369,6903,122.041,18.285,30.4102392,-87.5253896
0100391053,165652,Fairhope Division,01003,Z5,32505,15640,65.768,75.65,30.4645517,-87.9114905
0100391152,161595,Foley Division,01003,Z5,67074,54174,174.285,261.455,30.2969467,-87.7888774
0100392754,161596,Robertsdale Division,01003,Z5,28878,11375,170.738,1.64,30.566334,-87.6403482
0100393024,161597,Stockton Division,01003,Z5,3628,1989,375.109,14.499,31.1127694,-87.7862163
0100393042,165653,Summerdale Division,01003,Z5,5522,2323,50.388,0.278,30.4907504,-87.680929
0100590189,165654,Bakerhill Division,01005,Z5,2821,1957,128.848,3.854,31.7736328,-85.2855747
0100590630,165655,Clayton Division,01005,Z5,3634,1199,199.617,0.38,31.9204029,-85.453759
0100590648,165656,Clio Division,01005,Z5,4009,1543,132.556,0.154,31.6731224,-85.5681143
0100591017,161598,Eufaula Division,01005,Z5,12934,6090,287.771,14.927,31.995114,-85.2431998
0100591989,165657,Louisville Division,01005,Z5,1479,884,136.216,0.193,31.8001677,-85.5725552
0100790531,161599,Centreville-Brent Division,01007,Z5,12246,5044,388.054,1.674,32.9331656,-87.1461983
0100792601,165658,Piper-Coleanor Division,01007,Z5,1069,544,74.919,0.779,33.0671551,-86.9953602
0100793438,165659,West Blocton Division,01007,Z5,8936,3458,159.496,1.243,33.1248166,-87.1403254
0100990333,165660,Blountsville Division,01009,Z5,7494,3197,96.224,0.577,34.0327756,-86.6356784
0100990414,165661,Brooksville Division,01009,Z5,4177,1890,94.651,0.485,34.165243,-86.4881144
0100990612,165662,Clarence Division,01009,Z5,5582,2495,73.32,0.191,34.0758336,-86.3910085
0100990639,165663,Cleveland Division,01009,Z5,4097,1604,44.994,0.212,33.9988916,-86.5440621
0100991557,165664,Hayden Division,01009,Z5,13876,5267,102.601,0.603,33.8949809,-86.8112195
0100991953,165665,Locust Fork Division,01009,Z5,8291,3657,78.652,0.382,33.8480979,-86.6435392
0100992439,165666,Oneonta Division,01009,Z5,15560,6567,154.449,3.287,33.9105829,-86.4647174
0101191098,165667,Fitzpatrick Division,01011,Z5,574,384,134.459,0.784,32.1615282,-85.9192712
0101191701,165668,Inverness Division,01011,Z5,1477,833,169.147,0.557,31.9936017,-85.7512191
0101192133,165669,Midway Division,01011,Z5,1707,731,165.331,0.19,32.1096678,-85.5220483
0101193249,165670,Union Springs Division,01011,Z5,6570,2593,153.877,0.797,32.1546308,-85.7059072
0101390540,165671,Chapman Division,01013,Z5,1589,882,136.009,0.068,31.7186621,-86.7474627
0101391170,165672,Forest Home Division,01013,Z5,1141,691,170.457,0.105,31.8761917,-86.7944197
0101391314,165673,Georgiana-McKenzie Division,01013,Z5,4152,2274,197.941,0.142,31.5914941,-86.7085343
0101391422,165674,Greenville Division,01013,Z5,12099,5988,272.432,0.727,31.8083503,-86.5551076
0101590066,165679,Alexandria-Webster Chapel Division,01015,Z5,11567,4672,100.936,0.693,33.8470716,-85.8932033
0101590099,161600,Anniston Division,01015,Z5,66155,31462,204.726,1.264,33.6733194,-85.8701645
0101590585,165675,Choccolocco Division,01015,Z5,7172,2970,92.402,0.911,33.7368502,-85.6777487
0101591746,165676,Jacksonville Division,01015,Z5,19261,8421,71.108,0.214,33.8565577,-85.7669255
0101592430,165677,Ohatchee Division,01015,Z5,4629,2073,68.607,2.907,33.7668853,-86.0355301
0101592556,165678,Piedmont Division,01015,Z5,7378,3569,68.112,0.394,33.9166876,-85.6388567
0101791107,165680,Five Points Division,01017,Z5,2687,1478,119.012,3.618,33.0377219,-85.3234455
0101791818,165681,La Fayette Division,01017,Z5,4769,2363,181.06,0.789,32.8970024,-85.4440691
0101791827,165682,Lanett Division,01017,Z5,10739,4381,64.99,0.933,32.8860534,-85.2536224
0101792169,165684,Milltown Division,01017,Z5,1009,450,80.099,0.827,33.0400692,-85.5149223
0101793272,165683,Valley Division,01017,Z5,14027,7001,71.397,0.171,32.7805646,-85.249187
0101793393,165685,Waverly Division,01017,Z5,1381,754,79.995,0.221,32.7801996,-85.4961336
0101990513,165686,Cedar Bluff-Gaylesville Division,01019,Z5,7092,4230,176.44,15.428,34.3221423,-85.5584891
0101990522,165687,Centre Division,01019,Z5,8788,4357,142.864,6.649,34.0732708,-85.6653181
0101991854,165688,Leesburg Division,01019,Z5,5091,3274,90.188,12.893,34.2042719,-85.7526472
0101992983,165689,Spring Garden Division,01019,Z5,4098,2826,144.032,11.482,34.0750016,-85.501887
0102190603,165690,Clanton Division,01021,Z5,14485,6085,84.536,1.441,32.8513951,-86.6024472
0102191710,165691,Isabella-Pletcher Division,01021,Z5,3625,1585,100.673,0.153,32.7724372,-86.7382548
0102191764,165692,Jemison Division,01021,Z5,14331,5900,129.411,0.618,32.9752004,-86.7827187
0102192097,165693,Maplesville Division,01021,Z5,3733,1493,174.171,0.536,32.7630929,-86.8988487
0102192178,165694,Mineral Springs Division,01021,Z5,3710,1822,105.075,3.524,32.9800633,-86.6057393
0102193285,165695,Verbena Division,01021,Z5,5256,2661,98.971,1.678,32.7595695,-86.5258532
0102390441,161601,Butler Division,01023,Z5,4520,2327,290.625,2.818,32.0663272,-88.2124534
0102391332,165696,Gilbertown-Toxey Division,01023,Z5,3075,1996,223.37,0.729,31.9395048,-88.3485594
0102391908,165697,Lisman Division,01023,Z5,2910,1660,222.889,1.613,32.24277,-88.2134558
0102392925,165698,Silas Division,01023,Z5,2164,1155,176.595,2.221,31.7616598,-88.3023521
0102590675,165699,Coffeeville Division,01025,Z5,1277,870,142.919,2.941,31.8338828,-88.0609605
0102591260,165700,Fulton Division,01025,Z5,1667,751,96.143,0.028,31.798006,-87.6610296
0102591440,161602,Grove Hill Division,01025,Z5,4655,2491,321.513,1.892,31.6348287,-87.6996709
0102591726,165701,Jackson Division,01025,Z5,6882,3297,186.776,2.22,31.6049635,-87.9454419
0102593132,161604,Thomasville Division,01025,Z5,5092,2683,263.699,0.1,31.8915235,-87.8522448
0102593362,161603,Walker Springs Division,01025,Z5,3485,1641,227.371,6.972,31.4010372,-87.821392
0102790126,165702,Ashland Division,01027,Z5,6114,2969,217.253,0.736,33.2234429,-85.8015251
0102791899,165703,Lineville Division,01027,Z5,5601,3011,198.088,0.735,33.3941759,-85.7729166
0102792142,165704,Millerville-Hollins Division,01027,Z5,2494,1060,188.621,0.568,33.189935,-86.0208837
0102991251,165705,Fruithurst Division,01029,Z5,2865,1262,189.761,0.178,33.8244794,-85.4700638
0102991593,161605,Heflin Division,01029,Z5,7583,3364,255.918,0.597,33.6059049,-85.6088407
0102992682,165706,Ranburne Division,01029,Z5,4696,2192,114.427,0.133,33.5790617,-85.3979992
0103190954,165707,Elba Division,01031,Z5,6463,3277,158.245,0.605,31.4143511,-86.0805553
0103190999,165708,Enterprise Division,01031,Z5,39075,17027,214.144,0.247,31.3587384,-85.8687277
0103191341,165709,Goodman Division,01031,Z5,2397,1058,82.458,0.312,31.2532595,-86.0285777
0103191719,165710,Jack Division,01031,Z5,2170,1086,94.272,0.042,31.5584173,-86.0568728
0103191800,165711,Kinston Division,01031,Z5,1646,678,49.435,0.234,31.2757464,-86.1529505
0103193303,165712,Victoria Division,01031,Z5,1808,1029,80.432,0.069,31.5448136,-85.9006035
0103390567,161606,Cherokee Division,01033,Z5,3815,2076,243.145,15.254,34.7226229,-88.0131553
0103391863,165713,Leighton Division,01033,Z5,7664,4111,129.044,8.437,34.6996333,-87.5244006
0103391926,165714,Littleville Division,01033,Z5,7889,3316,151.413,3.116,34.6504141,-87.7805362
0103393186,165715,Tri-Cities Division,01033,Z5,37902,18206,69.351,3.757,34.7291461,-87.6483565
0103590504,165716,Castleberry Division,01035,Z5,2495,1572,185.439,1.154,31.3492489,-87.0411512
0103591044,165717,Evergreen Division,01035,Z5,4918,2688,209.274,0.697,31.3804315,-86.858547
0103592016,161607,Lyeffion Division,01035,Z5,1665,871,217.81,0.235,31.596975,-87.0069263
0103592718,165718,Repton Division,01035,Z5,1862,937,151.168,0.3,31.3536159,-87.2468026
0103592916,165719,Shreve Division,01035,Z5,636,383,86.588,0.096,31.4291349,-86.7433555
0103791350,165720,Goodwater-Kellyton Division,01037,Z5,3157,1732,97.066,0.615,32.9944114,-86.0753871
0103792763,165721,Rockford Division,01037,Z5,3508,2315,250.916,5.687,32.8339149,-86.2059768
0103793429,161608,Weogufka-Marble Valley Division,01037,Z5,3664,1998,302.927,9.139,33.0019873,-86.3357887
0103990090,161609,Andalusia Division,01039,Z5,17380,8474,360.485,3.155,31.3292048,-86.5244697
0103991062,165722,Falco Division,01039,Z5,2020,931,204.821,2.601,31.1220604,-86.5861567
0103991134,165723,Florala Division,01039,Z5,3325,1766,155.666,1.482,31.0518361,-86.3485963
0103992448,165724,Opp Division,01039,Z5,9834,4785,170.646,1.819,31.2505224,-86.2666647
0103992781,165725,Rose Hill-Gantt Division,01039,Z5,4983,2688,138.953,4.146,31.4389385,-86.4047496
0104190360,161610,Brantley Division,01041,Z5,2956,1714,185.239,0.814,31.5580293,-86.3207434
0104192007,165726,Luverne Division,01041,Z5,6067,2946,243.969,0.638,31.7255311,-86.3108958
0104192529,165727,Petrey-Highland Home Division,01041,Z5,4182,1893,179.657,0.629,31.9179213,-86.309711
0104390180,165728,Baileyton-Joppa Division,01043,Z5,6542,2755,56.793,0.483,34.2655212,-86.5732357
0104390369,165729,Bremen Division,01043,Z5,8566,4108,147.739,6.521,33.9749585,-86.9723152
0104390774,165730,Crane Hill Division,01043,Z5,2820,1927,43.839,8.117,34.0562608,-87.0540483
0104390810,165731,Cullman Division,01043,Z5,29607,13246,79.327,1.609,34.158554,-86.8436261
0104391521,165732,Hanceville Division,01043,Z5,8052,3539,72.941,0.498,34.0279799,-86.7987611
0104391647,165733,Holly Pond Division,01043,Z5,4887,1964,54.105,0.479,34.1617836,-86.6357421
0104391773,165734,Jones Chapel Division,01043,Z5,4694,1892,83.365,0.744,34.2183247,-87.0576576
0104391962,165735,Logan Division,01043,Z5,3999,1675,51.284,0.324,34.1562267,-86.9687602
0104392934,165736,Simcoe Division,01043,Z5,7659,3173,59.549,0.498,34.2402073,-86.7258866
0104393330,165737,Vinemont Division,01043,Z5,9152,3780,64.289,0.626,34.2728905,-86.8841952
0104393420,165738,Welti Division,01043,Z5,2306,1123,21.509,0.384,34.135545,-86.729005
0104590828,165739,Daleville Division,01045,Z5,11140,5813,60.842,0.0,31.2674784,-85.73936
0104590936,165740,Echo Division,01045,Z5,2032,1091,95.44,0.12,31.493178,-85.471693
0104591215,165741,Fort Rucker Division,01045,Z5,5422,1550,66.595,1.082,31.3886187,-85.7229816
0104592376,165742,Newton-Midland City Division,01045,Z5,10141,4540,100.294,0.04,31.3187425,-85.5301297
0104592466,165743,Ozark Division,01045,Z5,20720,9835,237.941,0.322,31.5088712,-85.6364741
0104790486,165744,Carlowville Division,01047,Z5,592,412,195.563,1.979,32.1316423,-87.049221
0104792457,165746,Orrville Division,01047,Z5,2263,1140,208.935,2.612,32.3282549,-87.2123292
0104792808,165747,Safford Division,01047,Z5,355,185,152.464,2.009,32.3138029,-87.3548774
0104792844,165748,Sardis Division,01047,Z5,1483,889,79.177,1.332,32.2728637,-87.021388
0104792880,161611,Selma Division,01047,Z5,28739,13998,262.517,4.724,32.4884439,-87.0061258
0104792883,165745,Selmont-Tyler Division,01047,Z5,4894,2368,80.082,2.451,32.3318291,-86.9155157
0104990693,165749,Collinsville Division,01049,Z5,4455,1832,79.879,0.393,34.2665991,-85.8773309
0104990792,165750,Crossville Division,01049,Z5,8450,3196,58.442,0.094,34.2570496,-86.028038
0104991206,165751,Fort Payne Division,01049,Z5,20466,8813,161.289,0.559,34.4139039,-85.7189247
0104991269,165752,Fyffe Division,01049,Z5,6236,2544,82.722,0.009,34.4367461,-85.9718555
0104991323,165753,Geraldine Division,01049,Z5,5887,2615,82.77,0.039,34.3518473,-86.0013465
0104991611,165754,Henagar Division,01049,Z5,3575,1497,44.238,0.038,34.6122909,-85.7218208
0104991692,165755,Ider Division,01049,Z5,5497,2287,78.335,0.0,34.729368,-85.6366785
0104992655,165756,Rainsville-Sylvania Division,01049,Z5,13452,5586,94.744,0.199,34.5182877,-85.8237575
0104993276,165757,Valley Head-Mentone Division,01049,Z5,3662,2346,94.659,0.255,34.5864851,-85.5897022
0105190855,165758,Deatsville Division,01051,Z5,10327,3158,63.56,4.746,32.6429785,-86.3568274
0105190945,165759,Eclectic Division,01051,Z5,7612,5106,110.122,18.184,32.6703187,-86.0024314
0105190972,165760,Elmore Division,01051,Z5,30335,12456,66.109,4.259,32.5044309,-86.3534343
0105193087,165761,Tallassee Division,01051,Z5,8018,3511,122.34,2.642,32.5160346,-85.9795277
0105193141,165762,Titus Division,01051,Z5,5223,2102,108.429,3.66,32.7050312,-86.2177696
0105193456,165763,Wetumpka Division,01051,Z5,26179,10454,147.957,5.034,32.542755,-86.1737719
0105390153,165764,Atmore Division,01053,Z5,11608,5933,113.605,0.935,31.056917,-87.4604571
0105390378,165765,Brewton Division,01053,Z5,10174,4879,163.531,1.829,31.1527372,-87.1311978
0105390927,161612,East Escambia Division,01053,Z5,6003,2642,364.597,3.623,31.1152402,-86.8905058
0105391125,165766,Flomaton Division,01053,Z5,3537,1820,128.086,0.678,31.1086563,-87.2802646
0105392034,165767,McCullough-Huxford Division,01053,Z5,5433,1441,175.589,0.667,31.1815454,-87.4755945
0105590081,165768,Altoona Division,01055,Z5,4784,2490,79.323,0.259,34.0558387,-86.2619841
0105591278,165769,Gadsden Division,01055,Z5,70311,32756,186.003,10.124,33.9753009,-86.0575077
0105591638,165770,Hokes Bluff Division,01055,Z5,9903,4480,79.204,1.766,34.016726,-85.8274198
0105591980,165771,Lookout Mountain Division,01055,Z5,2726,1228,50.549,0.026,34.131515,-85.9242982
0105592268,165772,Mountainboro Division,01055,Z5,9876,4089,69.358,0.198,34.1378315,-86.1202122
0105593213,165773,Turkeytown Division,01055,Z5,3665,1599,33.746,1.13,34.0643418,-85.863656
0105593465,165774,Wills Valley Division,01055,Z5,2083,770,36.923,0.019,34.1444937,-86.0030279
0105790279,165775,Berry Division,01057,Z5,3519,1373,165.135,0.213,33.6474473,-87.6070653
0105791089,165776,Fayette Division,01057,Z5,8284,4298,200.039,1.293,33.643481,-87.8397688
0105792380,165777,Northeast Fayette Division,01057,Z5,1361,648,120.232,0.028,33.808499,-87.6367739
0105793495,165778,Winfield-Glen Allen Division,01057,Z5,3133,1497,142.278,0.138,33.8425961,-87.8353847
0105992547,165779,Phil Campbell Division,01059,Z5,6147,2614,135.549,1.033,34.3579105,-87.6989614
0105992691,165780,Red Bay Division,01059,Z5,5178,2619,130.148,2.607,34.4879602,-88.0591784
0105992799,165781,Russellville Division,01059,Z5,19247,7908,263.094,7.177,34.4911926,-87.7444009
0105993312,165782,Vina Division,01059,Z5,1439,799,105.168,1.746,34.3657313,-88.0127095
0106190252,165783,Bellwood-Coffee Springs Division,01061,Z5,1938,1150,84.412,0.417,31.1551768,-85.8859688
0106191305,165784,Geneva Division,01061,Z5,5691,2522,56.195,0.604,31.0507978,-85.9113163
0106191530,165785,Hartford Division,01061,Z5,5564,2655,131.443,1.115,31.0725916,-85.7358628
0106192835,165786,Samson Division,01061,Z5,4391,2394,166.772,1.972,31.0882555,-86.0871566
0106192952,165787,Slocomb Division,01061,Z5,9063,3773,135.663,0.358,31.1061661,-85.572125
0106390342,165788,Boligee Division,01063,Z5,616,482,71.292,1.206,32.7629838,-88.0276767
0106391026,161613,Eutaw Division,01063,Z5,3778,1857,193.992,3.914,32.8968647,-87.8766488
0106391179,165789,Forkland-Tishabee Division,01063,Z5,1618,972,149.105,5.667,32.652901,-87.8972139
0106392088,161614,Mantua-West Greene Division,01063,Z5,1694,960,232.634,2.115,32.975634,-88.0287934
0106591413,165790,Greensboro Division,01065,Z5,3503,1909,19.005,0.284,32.6937782,-87.5971421
0106591414,165792,Greensboro Northeast Division,01065,Z5,1275,690,111.086,0.771,32.784204,-87.5278527
0106591415,165794,Greensboro South Division,01065,Z5,847,375,69.107,2.326,32.6373104,-87.660903
0106592259,165791,Moundville Division,01065,Z5,4096,1597,132.941,1.097,32.9462573,-87.5556261
0106592345,165793,Newbern Division,01065,Z5,1466,801,113.147,2.027,32.5441876,-87.641357
0106592853,165795,Sawyerville Division,01065,Z5,2247,1105,102.71,3.277,32.7460809,-87.7332693
0106593015,165796,Stewart-Akron Division,01065,Z5,1308,987,95.994,2.729,32.8644631,-87.7010217
0106790009,165797,Abbeville Division,01067,Z5,4168,2320,172.799,0.233,31.598084,-85.3148341
0106791485,165798,Haleburg Division,01067,Z5,1902,808,120.686,0.066,31.4099231,-85.1497125
0106791584,165799,Headland-Newville Division,01067,Z5,8283,3414,137.87,0.049,31.4023519,-85.3236024
0106792907,165800,Shorterville Division,01067,Z5,2929,2568,130.537,6.069,31.6146703,-85.1464918
0106990702,165801,Columbia Division,01069,Z5,1223,577,43.565,0.131,31.2475988,-85.147746
0106990747,165802,Cottonwood Division,01069,Z5,5338,2732,78.825,0.366,31.0702411,-85.2999826
0106990900,161615,Dothan Division,01069,Z5,90420,41755,265.293,0.77,31.2183663,-85.3764208
0106991368,165803,Gordon Division,01069,Z5,2039,1046,118.269,0.233,31.0771088,-85.1158906
0106992070,165804,Madrid Division,01069,Z5,8020,3229,73.873,0.351,31.0734843,-85.4292385
0107190387,165805,Bridgeport Division,01071,Z5,3342,1748,35.89,1.096,34.9499947,-85.7585109
0107191971,165806,Long Island Division,01071,Z5,5779,2810,134.598,5.258,34.852143,-85.7005517
0107192475,165807,Paint Rock Division,01071,Z5,3808,1640,99.863,0.364,34.6775928,-86.2564796
0107192610,165808,Pisgah Division,01071,Z5,4199,2136,76.334,2.874,34.6992769,-85.8080392
0107192637,165809,Princeton Division,01071,Z5,2100,1112,213.17,0.648,34.8669037,-86.2181979
0107192862,165810,Scottsboro Division,01071,Z5,20816,9381,194.088,19.31,34.7008819,-86.057374
0107192871,165811,Section Division,01071,Z5,6666,3115,109.578,12.089,34.5687297,-85.970662
0107193006,165812,Stevenson Division,01071,Z5,5908,2764,214.494,7.139,34.8858352,-85.9288552
0107390324,161616,Birmingham Division,01073,Z5,448048,215650,317.988,1.437,33.5142415,-86.8261328
0107390405,165813,Brookside Division,01073,Z5,3798,1558,40.834,0.185,33.6828839,-86.9198936
0107390621,165814,Clay Division,01073,Z5,14282,5601,37.384,0.472,33.704332,-86.5837001
0107390722,165815,Concord-Rock Creek Division,01073,Z5,7511,2954,32.535,0.217,33.4435853,-87.0526748
0107391296,165816,Gardendale Division,01073,Z5,24160,10247,77.105,0.083,33.6975444,-86.8063047
0107391404,165817,Graysville-Adamsville Division,01073,Z5,11407,4981,45.247,0.494,33.618305,-86.9792286
0107391431,165818,Greenwood Division,01073,Z5,26437,10743,49.255,0.561,33.3018369,-86.9740121
0107391656,165819,Hoover Division,01073,Z5,54056,23121,44.648,0.318,33.3953351,-86.8643108
0107391791,165820,Kimberly-Morris Division,01073,Z5,10909,4516,44.028,0.034,33.7706931,-86.7449662
0107391845,165821,Leeds Division,01073,Z5,17206,7330,41.801,1.016,33.5092739,-86.6141544
0107392124,165822,Maytown-Sylvan Springs Division,01073,Z5,4458,1607,65.222,0.491,33.5394886,-87.0641695
0107392385,165823,North Johns Division,01073,Z5,5491,2441,137.445,3.262,33.4118793,-87.172964
0107392484,165824,Palmerdale Division,01073,Z5,5963,2224,20.544,0.408,33.7427792,-86.6492327
0107392745,165825,Robbins Crossroads Division,01073,Z5,5707,2395,35.516,0.374,33.7316359,-86.9944509
0107393204,165826,Trussville Division,01073,Z5,22550,8986,33.797,0.67,33.6167077,-86.5869513
0107393366,165827,Warrior Division,01073,Z5,6986,2732,43.715,0.093,33.8049883,-86.8642113
0107393447,165828,West Jefferson Division,01073,Z5,3296,1342,44.476,2.495,33.5753902,-87.143654
0107592151,165829,Millport Division,01075,Z5,4371,2087,196.941,0.118,33.607407,-88.0965548
0107593033,165830,Sulligent Division,01075,Z5,4400,2031,217.533,0.171,33.946122,-88.0969267
0107593294,165831,Vernon Division,01075,Z5,5114,2986,190.371,0.329,33.7654653,-88.0972218
0107790657,165832,Cloverdale Division,01077,Z5,6386,2560,83.661,0.282,34.9479156,-87.783636
0107791143,165833,Florence Division,01077,Z5,51948,25153,96.245,5.695,34.8900286,-87.6443723
0107791782,165834,Killen Division,01077,Z5,16435,7225,103.093,7.348,34.9113892,-87.5030476
0107791872,165835,Lexington Division,01077,Z5,4925,2193,53.537,2.415,34.9200559,-87.391758
0107792412,165836,Oakland Division,01077,Z5,3910,2085,97.729,9.041,34.8169523,-87.8127064
0107792772,165837,Rogersville Division,01077,Z5,8688,4310,113.991,9.087,34.8860175,-87.2866632
0107793384,165838,Waterloo Division,01077,Z5,2037,1179,119.762,17.713,34.9449142,-88.0154484
0107991548,165839,Hatton Division,01079,Z5,4104,1824,87.636,0.665,34.56763,-87.4175966
0107991629,165840,Hillsboro Division,01079,Z5,1699,858,62.826,10.702,34.6687752,-87.1842491
0107992241,165841,Morris Chapel Division,01079,Z5,11016,4844,75.778,0.57,34.5472343,-87.1847216
0107992250,165842,Moulton Division,01079,Z5,8377,3626,128.974,0.391,34.4318069,-87.2945151
0107992286,165843,Mount Hope Division,01079,Z5,1668,850,139.517,0.766,34.3991567,-87.4415512
0107992979,165844,Speake-Oakville Division,01079,Z5,2079,952,77.736,0.247,34.3807219,-87.1666773
0107993159,165845,Town Creek-Courtland Division,01079,Z5,4173,2316,118.218,13.179,34.6954938,-87.3464907
0108190162,165846,Auburn-Opelika Division,01081,Z5,103094,47055,140.263,1.536,32.6291426,-85.4122185
0108190243,165847,Beauregard-Marvyn Division,01081,Z5,13447,5003,126.919,1.162,32.5011433,-85.3496948
0108190288,165848,Beulah Division,01081,Z5,7231,3417,70.37,1.727,32.6801124,-85.2335261
0108191944,165849,Loachapoka-Roxana Division,01081,Z5,11897,4303,134.114,0.805,32.649899,-85.5831419
0108192962,165850,Smiths Station Division,01081,Z5,39457,15695,135.879,3.076,32.5762254,-85.1453584
0108390144,161617,Athens Division,01083,Z5,79843,33463,378.236,30.681,34.8210383,-86.9765315
0108392232,165851,Mooresville Division,01083,Z5,20609,7680,92.432,9.481,34.6576305,-86.8549692
0108392817,165852,Salem Division,01083,Z5,3747,1473,92.736,3.622,34.9243504,-87.1351726
0108590270,165853,Benton-Collirene Division,01085,Z5,2063,1007,113.236,0.803,32.230078,-86.7853854
0108591197,165855,Fort Deposit Division,01085,Z5,2694,1208,183.367,0.802,32.0365559,-86.5870864
0108591566,165856,Hayneville Division,01085,Z5,3280,1517,155.113,2.109,32.1904095,-86.4963892
0108591998,165857,Lowndesboro Division,01085,Z5,553,429,106.724,4.797,32.3121039,-86.6530143
0108592245,165854,Mosses Division,01085,Z5,1563,662,157.644,0.473,32.0911856,-86.7767132
0108791188,165858,Fort Davis Division,01087,Z5,497,268,77.562,0.326,32.2929968,-85.7373568
0108791917,165859,Little Texas-Society Hill Division,01087,Z5,1224,780,93.829,0.461,32.4272369,-85.5202556
0108792403,165860,Notasulga Division,01087,Z5,2780,1172,97.358,0.772,32.5193812,-85.6877063
0108792898,165861,Shorter-Hardaway Division,01087,Z5,2038,945,104.976,1.156,32.3486932,-85.9039261
0108793230,165862,Tuskegee Division,01087,Z5,11816,6062,107.346,1.145,32.4241639,-85.7690561
0108793376,165863,Warriorstand-Creek Stand Division,01087,Z5,843,435,127.595,0.682,32.3082774,-85.5566891
0108991467,165865,Gurley Division,01089,Z5,20506,8174,65.333,0.452,34.6762263,-86.4338884
0108991575,165866,Hazel Green Division,01089,Z5,13986,5588,61.4,0.175,34.9446894,-86.55088
0108991674,161618,Huntsville Division,01089,Z5,246953,111484,236.924,1.452,34.7787598,-86.6133609
0108992052,165867,Madison Division,01089,Z5,45085,18784,22.361,0.059,34.7141756,-86.7495254
0108992061,165868,Madison Crossroads Division,01089,Z5,12875,5761,64.564,0.289,34.9342386,-86.7091582
0108992349,165869,New Hope Division,01089,Z5,16183,6615,110.459,2.421,34.5592396,-86.4403948
0108992358,165870,New Market Division,01089,Z5,16682,6854,151.151,0.732,34.8711914,-86.3992949
0108992695,165864,Redstone Arsenal Division,01089,Z5,1112,395,59.683,3.975,34.633523,-86.6555323
0108993176,165871,Triana Division,01089,Z5,16399,7658,29.727,1.559,34.6187098,-86.7541977
0109190873,165872,Demopolis Division,01091,Z5,9660,4674,171.652,3.053,32.4256247,-87.8863955
0109190882,165873,Dixons Mill Division,01091,Z5,2222,984,110.555,0.021,32.0593221,-87.7269421
0109191080,165874,Faunsdale Division,01091,Z5,680,343,88.869,0.22,32.4091995,-87.6152997
0109191890,161619,Linden Division,01091,Z5,3707,2009,264.328,1.35,32.2768905,-87.8095428
0109193051,165875,Sweet Water Division,01091,Z5,1914,1041,189.2,0.973,32.0801358,-87.9448251
0109193123,165876,Thomaston Division,01091,Z5,997,783,152.294,0.155,32.242427,-87.5972644
0109390225,165877,Bear Creek Division,01093,Z5,4550,2303,103.981,0.752,34.214293,-87.7121639
0109390297,165878,Bexar Division,01093,Z5,1345,568,105.403,0.023,34.222484,-88.123043
0109390396,165879,Brilliant Division,01093,Z5,2106,1106,113.641,0.122,34.0553559,-87.7282368
0109391449,165880,Guin Division,01093,Z5,3173,1425,57.565,0.015,33.9908086,-87.899346
0109391476,165881,Hackleburg Division,01093,Z5,2562,1280,87.22,0.101,34.2575499,-87.8659361
0109391512,165882,Hamilton Division,01093,Z5,10116,4938,214.88,0.097,34.1397533,-87.9826378
0109393492,165883,Winfield Division,01093,Z5,5351,2523,59.651,0.119,33.9540996,-87.7551593
0109590054,165884,Albertville-Boaz Division,01095,Z5,39980,15501,95.056,0.285,34.2469458,-86.1984105
0109590108,165885,Arab Division,01095,Z5,15956,6777,61.419,0.445,34.3407032,-86.489213
0109590918,165886,Douglas Division,01095,Z5,6976,2414,59.49,0.186,34.1845631,-86.3212782
0109591395,165887,Grant Division,01095,Z5,10841,5606,133.565,20.225,34.4949342,-86.2792334
0109591458,165888,Guntersville Division,01095,Z5,14183,6414,67.255,17.212,34.3101864,-86.3218444
0109593150,165889,Town Creek Division,01095,Z5,3449,1462,67.079,14.632,34.4211758,-86.1555046
0109593240,165890,Union Grove Division,01095,Z5,6538,3154,81.982,4.35,34.419768,-86.4621622
0109790216,165891,Bayou La Batre Division,01097,Z5,10424,5899,83.208,275.725,30.3075364,-88.1832339
0109790594,165892,Citronelle Division,01097,Z5,9591,3891,238.722,1.358,31.0304418,-88.2664655
0109791386,165893,Grand Bay Division,01097,Z5,34526,13588,150.383,35.289,30.4807197,-88.3185814
0109792187,161620,Mobile Division,01097,Z5,229660,104718,353.526,47.879,30.7914847,-88.0997133
0109792304,165894,Mount Vernon Division,01097,Z5,4903,2047,111.312,2.717,31.07252,-88.0572811
0109792889,165895,Semmes Division,01097,Z5,27668,10136,125.976,3.952,30.839336,-88.3374097
0109793105,165896,Tanner Williams Division,01097,Z5,75360,34600,107.891,2.244,30.6804832,-88.3113666
0109793114,165897,Theodore Division,01097,Z5,21746,9966,58.355,45.513,30.5220355,-88.1077169
0109990234,165898,Beatrice Division,01099,Z5,924,731,202.18,0.532,31.7485241,-87.1063351
0109991233,165899,Frisco City Division,01099,Z5,5658,2514,142.523,0.185,31.3954484,-87.4183931
0109992196,165900,Monroeville Division,01099,Z5,8793,4302,156.746,2.045,31.5119998,-87.4076748
0109992520,165901,Peterman Division,01099,Z5,1508,911,127.813,0.023,31.6042271,-87.2642564
0109993267,165902,Uriah Division,01099,Z5,1818,980,164.94,2.134,31.3280637,-87.6048556
0109993339,165903,Vredenburgh Division,01099,Z5,1115,776,231.467,3.81,31.7168947,-87.4138727
0110191665,165904,Hope Hull Division,01101,Z5,7779,3557,150.828,2.557,32.2003004,-86.3408784
0110192214,165905,Montgomery Division,01101,Z5,179358,85614,176.884,7.95,32.3786242,-86.2975192
0110192295,165906,Mount Meigs Division,01101,Z5,14575,5284,45.624,0.964,32.3654805,-86.0578199
0110192565,165907,Pike Road Division,01101,Z5,23013,9031,185.133,1.707,32.2415135,-86.1175907
0110192592,165908,Pine Level Division,01101,Z5,1412,717,124.641,0.54,32.0663154,-86.0788112
0110192673,165909,Ramer Division,01101,Z5,1995,1285,102.245,0.839,32.0475458,-86.2351001
0110390837,165910,Danville Division,01103,Z5,6544,2945,80.791,0.587,34.4132544,-87.0543677
0110390864,165911,Decatur Division,01103,Z5,62713,27672,80.637,7.132,34.5751669,-87.0325894
0110391035,165912,Eva Division,01103,Z5,5956,2290,95.534,0.356,34.3538978,-86.6996301
0110391071,165913,Falkville Division,01103,Z5,5654,2327,82.03,0.317,34.3709016,-86.9052353
0110391539,165914,Hartselle Division,01103,Z5,22785,9410,56.574,1.718,34.4664079,-86.924284
0110391809,165915,Laceys Spring Division,01103,Z5,8483,3973,94.967,3.258,34.4978331,-86.6396708
0110392970,165916,Somerville Division,01103,Z5,10967,4707,89.136,6.012,34.493297,-86.8003796
0110591503,165917,Hamburg Division,01105,Z5,515,241,84.645,0.946,32.5442217,-87.3097461
0110591602,165918,Heiberger Division,01105,Z5,769,305,123.338,0.556,32.7839329,-87.3631375
0110592115,165919,Marion Division,01105,Z5,4567,1663,116.097,0.937,32.6510635,-87.3678228
0110592997,165920,Sprott Division,01105,Z5,438,413,263.235,1.389,32.6852531,-87.1394731
0110593258,165921,Uniontown Division,01105,Z5,2190,1363,132.355,0.382,32.4583929,-87.4648667
0110790072,1935003,Aliceville Division,01107,Z5,4785,2435,361.645,7.653,33.1426956,-88.103277
0110790495,165923,Carrollton Division,01107,Z5,4383,1667,150.946,0.308,33.273988,-88.156437
0110791008,165924,Ethelsville Division,01107,Z5,2008,1048,135.271,0.478,33.4392643,-88.1946631
0110791359,165925,Gordo Division,01107,Z5,4493,1918,110.71,0.112,33.3982824,-87.8925865
0110792700,165927,Reform Division,01107,Z5,3256,1646,122.835,0.184,33.4223008,-88.0215183
0110990198,165928,Banks-Josie Division,01109,Z5,2524,1275,135.994,0.09,31.8414772,-85.7928264
0110990432,165929,Brundidge Division,01109,Z5,4325,2511,105.482,0.064,31.6879265,-85.8044847
0110991377,165930,Goshen-Shady Grove Division,01109,Z5,2331,1289,132.276,0.2,31.8553867,-86.1092022
0110991620,165931,Henderson-Spring Hill Division,01109,Z5,3090,1494,114.333,0.242,31.6801655,-86.0299967
0110992340,165932,Needmore Division,01109,Z5,1820,864,102.477,0.085,31.9475544,-85.952135
0110993195,165933,Troy Division,01109,Z5,18907,8616,81.505,0.221,31.7902653,-85.951756
0111191161,165934,Folsom Division,01111,Z5,2857,2246,137.787,0.801,33.4262423,-85.5277735
0111192736,165935,Roanoke Division,01111,Z5,8954,4525,117.745,0.745,33.1812437,-85.3401921
0111193348,165936,Wadley Division,01111,Z5,2268,821,91.61,0.982,33.1669411,-85.556115
0111193411,165937,Wedowee Division,01111,Z5,4345,3261,133.238,0.996,33.2854012,-85.5109213
0111193501,165938,Woodland Division,01111,Z5,3755,1559,100.172,0.059,33.371423,-85.3454327
0111390738,161621,Cottonton-Seale Division,01113,Z5,3873,1838,258.371,2.529,32.2179625,-85.1464208
0111390783,165939,Crawford Division,01113,Z5,3093,1637,84.318,0.2,32.4199329,-85.214599
0111391683,165940,Hurtsboro Division,01113,Z5,1860,1067,172.544,0.541,32.2729294,-85.3473528
0111392538,165941,Phenix City Division,01113,Z5,50023,22840,125.949,2.739,32.3652245,-85.0253063
0111590135,165942,Ashville Division,01115,Z5,7754,3812,146.719,3.318,33.8810487,-86.2410844
0111592223,165943,Moody Division,01115,Z5,30239,11834,106.527,0.747,33.5928568,-86.4442375
0111592511,165944,Pell City Division,01115,Z5,24482,11019,112.956,12.382,33.5583379,-86.287883
0111592646,165945,Ragland Division,01115,Z5,4578,2447,130.052,4.504,33.7519175,-86.2008561
0111592988,165946,Springville Division,01115,Z5,24666,9021,135.316,0.838,33.7387322,-86.4307243
0111790036,165947,Alabaster-Helena Division,01117,Z5,135111,53242,205.552,4.246,33.2705761,-86.804613
0111790450,165948,Calera Division,01117,Z5,10817,4249,58.458,0.786,33.1101976,-86.7211105
0111790558,165949,Chelsea Division,01117,Z5,44311,18461,157.327,5.177,33.4165194,-86.5624145
0111790711,165950,Columbiana Division,01117,Z5,13309,5578,140.937,7.227,33.1669894,-86.5928303
0111792205,165951,Montevallo Division,01117,Z5,11174,4087,85.032,0.72,33.1392748,-86.9033249
0111793321,165952,Vincent Division,01117,Z5,4770,2236,89.989,3.288,33.3567595,-86.4358785
0111793474,165953,Wilsonville Division,01117,Z5,4424,1759,48.145,2.604,33.2538408,-86.5117728
0111990261,165954,Belmont Division,01119,Z5,621,274,110.435,2.887,32.5299315,-87.9830387
0111990801,165955,Cuba Division,01119,Z5,1072,739,85.067,0.072,32.3794211,-88.3404164
0111991287,165956,Gainesville Division,01119,Z5,844,473,83.623,1.625,32.777759,-88.2171492
0111991935,165957,Livingston Division,01119,Z5,5298,2180,253.404,1.201,32.6282592,-88.2001814
0111992493,165958,Panola-Geiger Division,01119,Z5,698,476,123.301,2.618,32.8999779,-88.2684602
0111993510,161622,York Division,01119,Z5,3663,2187,247.997,1.109,32.4318408,-88.2055344
0112190576,165959,Childersburg Division,01121,Z5,8117,3900,44.719,1.841,33.2606522,-86.340514
0112191879,165960,Lincoln Division,01121,Z5,8533,3960,77.181,5.339,33.6126336,-86.1071148
0112192322,165961,Munford Division,01121,Z5,10646,4354,82.789,1.042,33.5381385,-85.9198465
0112192709,165962,Renfroe-Laniers Division,01121,Z5,2540,1198,68.354,2.623,33.3893007,-86.2792288
0112193060,165963,Sycamore-Winterboro Division,01121,Z5,4191,2401,115.917,1.164,33.3012074,-86.1816603
0112193069,165964,Sylacauga Division,01121,Z5,21751,10207,143.451,4.407,33.1647781,-86.3311668
0112193078,165965,Talladega Division,01121,Z5,25327,12068,204.406,7.088,33.4431724,-86.0862673
0112390063,165966,Alexander City Division,01123,Z5,19228,9343,158.069,16.498,32.9355504,-85.9433526
0112390468,165967,Camp Hill Division,01123,Z5,2110,1085,57.212,0.166,32.7766082,-85.6492811
0112390819,161623,Dadeville Division,01123,Z5,11385,8298,243.386,29.003,32.8435986,-85.7617698
0112392367,165968,New Site Division,01123,Z5,2242,1176,146.538,1.5,33.039338,-85.7405539
0112393096,165969,Tallassee Division,01123,Z5,6286,2875,111.323,2.559,32.6071804,-85.8080108
0112590018,165970,Abernant Division,01125,Z5,12487,4658,51.128,0.783,33.2706026,-87.1629125
0112590306,165971,Big Sandy-Duncanville Division,01125,Z5,12578,4619,138.598,1.554,33.0599288,-87.4683894
0112590423,165972,Brookwood Division,01125,Z5,4732,2139,158.524,3.986,33.3243217,-87.3275212
0112590666,165973,Coaling-Vance Division,01125,Z5,8563,3273,95.694,0.628,33.1742614,-87.3087371
0112590684,165974,Coker Division,01125,Z5,3445,1386,65.361,0.667,33.2039688,-87.730256
0112590981,165975,Elrod-Moores Bridge-Echola Division,01125,Z5,1615,576,90.925,0.906,33.3559677,-87.8041993
0112591224,165976,Fosters Division,01125,Z5,3450,1410,104.434,2.496,33.0819749,-87.7272426
0112592389,1934999,Northport Division,01125,Z5,38673,15734,81.474,1.304,33.2941001,-87.6487913
0112592826,165977,Samantha Division,01125,Z5,5864,2565,147.517,1.95,33.4615741,-87.669459
0112593222,161624,Tuscaloosa Division,01125,Z5,137093,63524,131.359,7.155,33.2008398,-87.548936
0112593483,165978,Windham Springs Division,01125,Z5,3058,1446,255.834,8.959,33.4642199,-87.4635007
0112790477,165979,Carbon Hill Division,01127,Z5,3138,1805,53.837,0.268,33.9293422,-87.5807573
0112790729,165980,Cordova Division,01127,Z5,2996,1483,44.224,1.156,33.7238185,-87.1873095
0112790891,165981,Dora Division,01127,Z5,7999,3786,54.604,0.819,33.7524647,-87.0880271
0112790990,165982,Empire Division,01127,Z5,2206,1150,36.62,0.39,33.8415548,-87.019377
0112791755,165984,Jasper Division,01127,Z5,22770,9578,90.886,0.861,33.837166,-87.2586645
0112792079,165985,Manchester Division,01127,Z5,5600,2523,54.652,0.611,33.9529133,-87.304295
0112792331,165986,Nauvoo Division,01127,Z5,3009,1550,59.251,0.294,33.9494017,-87.4630928
0112792421,165987,Oakman Division,01127,Z5,3430,1557,172.923,3.7,33.6707562,-87.3665911
0112792502,165988,Parrish Division,01127,Z5,3672,1784,47.347,1.009,33.712661,-87.2663241
0112792642,165983,Quinton-Wegra Division,01127,Z5,1799,866,31.14,1.691,33.6462629,-87.1409585
0112792943,165989,Sipsey Division,01127,Z5,5071,2598,71.172,2.958,33.9052516,-87.14768
0112793168,165990,Townley Division,01127,Z5,3288,1447,74.373,0.408,33.8491399,-87.4353765
0112990549,165991,Chatom Division,01129,Z5,3803,2079,250.069,0.926,31.5297536,-88.2330622
0112991242,165992,Fruitdale Division,01129,Z5,1727,1161,287.996,0.825,31.269431,-88.3184067
0112992043,165993,McIntosh Division,01129,Z5,4106,1805,154.524,1.827,31.2335597,-88.0653032
0112992160,165994,Millry Division,01129,Z5,2618,1285,153.854,0.255,31.6255536,-88.3427426
0112993357,165995,Wagarville Division,01129,Z5,3180,1449,233.813,4.478,31.4187209,-88.0535152
0113190045,165996,Alberta Division,01131,Z5,1560,780,154.937,8.147,32.1417108,-87.4162493
0113190459,165997,Camden Division,01131,Z5,4861,2246,172.105,8.315,32.0183973,-87.2819335
0113190756,165998,Coy-Fatama Division,01131,Z5,668,426,163.155,0.973,31.8891056,-87.3299142
0113192574,165999,Pine Apple Division,01131,Z5,893,514,212.619,0.232,31.9379134,-87.0096224
0113192583,166000,Pine Hill Division,01131,Z5,2459,1348,185.042,1.868,31.9740859,-87.5599647
0113390027,161625,Addison Division,01133,Z5,8421,5420,230.625,12.809,34.1694392,-87.2191326
0113390909,166001,Double Springs Division,01133,Z5,5411,2762,181.986,5.504,34.1326011,-87.3854082
0113391494,166002,Haleyville Division,01133,Z5,7565,3771,99.734,0.408,34.2189645,-87.5589448
0113392025,166003,Lynn Division,01133,Z5,2258,1138,100.654,0.149,34.061884,-87.5411762
0201301598,1939933,Aleutians East Census Subarea,02013,Z5,3407,1089,6986.254,8029.848,55.224521,-161.9472287
0201601615,1939934,Aleutians West Census Subarea,02016,Z5,5219,1403,4393.026,9723.457,52.2586699,-174.192307
0202003050,1939927,Anchorage Census Subarea,02020,Z5,290674,118938,1707.004,239.682,61.1483033,-149.1900081
0205003580,1939929,Aniak Census Subarea,02050,Z5,1359,764,19063.467,237.879,61.4770527,-156.8105568
0205045510,1939953,Lower Kuskokwim Census Subarea,02050,Z5,17179,5239,21575.112,4679.151,60.3711113,-162.7718117
0206009050,1939931,Bristol Bay Census Subarea,02060,Z5,854,875,481.952,366.736,58.7332561,-156.9810152
0206314420,1939932,Chugach Census Subarea,02063,Z5,7000,3760,9530.193,5613.158,60.6100835,-146.1305415
0206617350,1939935,Copper River Census Subarea,02066,Z5,2614,2564,24692.42,470.616,61.8834538,-143.9681046
0206818765,1939937,Denali Census Subarea,02068,Z5,2101,1385,12641.049,25.524,63.671514,-150.0116573
0207019000,1939938,Dillingham Census Subarea,02070,Z5,4854,2417,18333.994,2294.945,59.7139951,-158.3482702
0209024450,1939940,Fairbanks North Star Census Subarea,02090,Z5,96299,42772,7334.752,100.19,64.8077662,-146.5654229
0210031160,1939941,Haines Census Subarea,02100,Z5,2079,1410,2343.605,402.476,59.0758951,-135.4700922
0210533390,1939943,Hoonah-Angoon Census Subarea,02105,Z5,2262,1654,6558.449,3012.981,58.2089013,-135.5590153
0210540560,1939948,Klukwan Census Subarea,02105,Z5,67,54,1.262,0.021,59.3987031,-135.8885477
0211036450,1939945,Juneau Census Subarea,02110,Z5,32108,14073,2704.203,550.678,58.4439352,-134.2303392
0212238460,1939946,Kenai-Cook Inlet Census Subarea,02122,Z5,54451,29662,12435.054,7690.717,60.1082542,-152.185314
0212268610,1939944,Seward-Hope Census Subarea,02122,Z5,4784,2905,3582.476,1012.373,60.1682269,-149.5675467
0213039010,1939947,Ketchikan Census Subarea,02130,Z5,13910,6615,4857.02,1795.992,55.4885149,-131.0305103
0215041200,1939949,Kodiak Island Census Subarea,02150,Z5,13065,5798,6689.481,5462.287,57.6628112,-153.7575159
0215842185,1939969,Kusilvak Census Subarea,02158,Z5,8372,2335,17077.09,2581.524,62.1600127,-163.5254648
0216442780,1939952,Lake and Peninsula Census Subarea,02164,Z5,999,1380,23831.86,10034.652,58.2790732,-156.5473173
0217047440,1939955,Matanuska-Susitna Census Subarea,02170,Z5,108661,50491,24707.306,558.208,62.3042444,-149.5814755
0218054970,1939957,Nome Census Subarea,02180,Z5,10018,4116,22969.508,5320.736,64.8354505,-164.2443226
0218555970,1939958,North Slope Census Subarea,02185,Z5,10924,2625,88823.624,6004.299,69.3634118,-153.5106055
0218856270,1939959,Northwest Arctic Census Subarea,02188,Z5,7682,2726,35663.282,4956.497,67.0081724,-160.0069785
0219560360,1939961,Petersburg Census Subarea,02195,Z5,3374,1792,2900.828,921.181,57.1140131,-133.0024593
0219834575,2548100,Hyder Census Subarea,02198,Z5,25,68,201.932,10.827,55.9543105,-130.1662434
0219848873,1939956,Metlakatla Indian Community Census Subarea,02198,Z5,1465,490,132.799,128.916,55.1284056,-131.483446
0219864310,1939962,Prince of Wales Census Subarea,02198,Z5,4309,2694,4933.087,5502.043,55.7373042,-133.2972716
0222070590,1939966,Sitka Census Subarea,02220,Z5,8462,4138,2870.063,1945.081,57.1797758,-135.3049651
0223070810,1939967,Skagway Census Subarea,02230,Z5,1303,631,433.971,11.114,59.5599921,-135.3366726
0224072030,1939968,Southeast Fairbanks Census Subarea,02240,Z5,6888,3537,24832.27,289.304,63.8761551,-143.2129807
0227586420,1939970,Wrangell Census Subarea,02275,Z5,2134,1350,2556.131,920.615,56.2936265,-132.1292249
0228286498,1939972,Yakutat Census Subarea,02282,Z5,564,420,7625.25,1539.059,59.8632076,-140.3810186
0229042080,1939951,Koyukuk-Middle Yukon Census Subarea,02290,Z5,3207,2167,73814.174,1055.596,65.7246799,-153.2963169
0229046060,1939954,McGrath-Holy Cross Census Subarea,02290,Z5,1029,813,31588.755,494.82,62.9639046,-156.7036647
0229086690,1939973,Yukon Flats Census Subarea,02290,Z5,1119,1038,40178.94,745.867,66.8570251,-144.4484621
0400190612,1934929,Chinle Division,04001,Z5,19011,7307,2086.112,4.319,36.2344534,-109.5387503
0400190918,1934935,Dennehotso Division,04001,Z5,1549,565,588.903,0.184,36.7403816,-109.8543527
0400191071,1934938,Eagar-Springerville Division,04001,Z5,8447,5691,992.278,5.188,34.0145185,-109.3809399
0400191275,1934942,Fort Apache Division,04001,Z5,724,205,778.999,3.567,33.8189729,-109.7038093
0400191326,1934943,Fort Defiance Division,04001,Z5,21049,8663,2449.482,1.886,35.6106896,-109.4632581
0400192805,1934972,Puerco Division,04001,Z5,2944,963,1617.889,1.098,34.9520187,-109.466064
0400192958,1934975,Saint Johns Division,04001,Z5,7022,3578,1530.116,3.852,34.4587367,-109.3967321
0400193315,1934983,Sweetwater Division,04001,Z5,5308,2060,1154.535,0.81,36.7526667,-109.3660797
0400390255,1934922,Benson Division,04003,Z5,11907,6522,921.285,0.456,32.1115746,-110.2713714
0400390306,1934923,Bisbee Division,04003,Z5,29767,14368,622.024,1.349,31.4579213,-110.0834923
0400390408,1934925,Bowie Division,04003,Z5,1892,1216,1373.034,0.429,32.170884,-109.3978482
0400390969,1934936,Douglas Division,04003,Z5,17580,6965,247.685,0.068,31.4196524,-109.4863177
0400391122,1934939,Elfrida Division,04003,Z5,5731,2010,1612.536,2.182,31.6615913,-109.4301511
0400393182,1934980,Sierra Vista Division,04003,Z5,49027,23172,700.446,0.415,31.7225136,-110.158278
0400393825,1934992,Willcox Division,04003,Z5,9600,4803,732.853,1.915,32.17905,-109.8841729
0400591198,1934931,Flagstaff Division,04005,Z5,100939,50339,4722.435,17.242,35.0901791,-111.3933461
0400591530,1934947,Havasupai Division,04005,Z5,0,0,275.829,0.0,36.161,-112.6135429
0400591581,1934948,Hopi Division,04005,Z5,9,51,772.286,0.141,35.9329153,-110.8699892
0400591683,1934950,Hualapai Division,04005,Z5,6,6,904.372,1.457,35.9189455,-113.1118647
0400591838,1934953,Kaibab Plateau Division,04005,Z5,1922,1126,2791.08,11.323,36.6069023,-112.134552
0400593519,1934986,Tuba City Division,04005,Z5,30913,11628,5186.897,12.348,36.2088535,-111.2550668
0400593876,1934993,Williams Division,04005,Z5,10916,6083,3963.454,2.523,35.6298808,-112.4481493
0400791277,2582913,Fort Apache Division,04007,Z5,2302,521,823.965,1.694,33.8729788,-110.3601936
0400791495,1934946,Globe-Miami Division,04007,Z5,16535,8665,688.498,8.689,33.532687,-110.8156595
0400792570,1934967,Payson Division,04007,Z5,24596,18537,796.68,0.316,34.2605058,-111.3562838
0400793109,2585631,San Carlos Division,04007,Z5,5871,1645,1008.891,9.219,33.4863243,-110.4298778
0400793470,1934984,Tonto Basin Division,04007,Z5,2960,2558,1292.269,17.063,33.9288685,-111.0573148
0400793927,1934994,Winkelman Division,04007,Z5,1155,593,147.275,0.264,33.1466789,-110.8047342
0400990357,1934924,Bonita-Klondyke Division,04009,Z5,2822,613,1191.244,0.146,32.6380849,-110.1294434
0400992652,1934969,Pima Division,04009,Z5,4778,1920,521.809,1.81,32.9987538,-109.9656102
0400992907,1934974,Safford Division,04009,Z5,26520,10019,1224.16,4.629,32.7128399,-109.5358541
0400993111,1934978,San Carlos Division,04009,Z5,4333,1203,1684.664,11.745,33.2759827,-109.9477389
0401190663,1934930,Clifton Division,04011,Z5,6706,3104,1401.403,3.475,33.3596869,-109.2715255
0401191020,1934937,Duncan Division,04011,Z5,2777,1305,441.435,1.138,32.7542883,-109.1407407
0401292480,1934965,Parker Division,04012,Z5,16681,13692,4496.579,14.098,33.7293868,-113.9815775
0401390459,1934926,Buckeye Division,04013,Z5,103211,34096,1803.532,0.14,33.3566277,-112.9574411
0401390561,1934928,Chandler Division,04013,Z5,509841,192179,175.642,0.245,33.2736711,-111.7544518
0401390867,1934934,Deer Valley Division,04013,Z5,300141,120125,408.538,1.869,33.8221172,-112.1114014
0401391377,1934944,Gila Bend Division,04013,Z5,29316,9445,2999.255,0.21,32.8570442,-112.7029307
0401392601,1934968,Phoenix Division,04013,Z5,3344296,1388438,1083.584,3.657,33.5167209,-112.0287227
0401393009,1934976,Saint Johns Division,04013,Z5,3016,748,149.725,0.281,33.2778696,-112.1167965
0401393060,1934977,Salt River Division,04013,Z5,6955,2649,120.699,3.243,33.55756,-111.7527427
0401393472,1934985,Tonto National Forest Division,04013,Z5,12236,7575,1066.396,12.42,33.7437312,-111.5505504
0401393774,1934991,Wickenburg Division,04013,Z5,121859,66208,1394.644,1.922,33.8094691,-112.8383951
0401590470,2585633,Bullhead City Division,04015,Z5,70384,39535,742.392,9.104,34.9895821,-114.3668089
0401591885,1934954,Kingman Division,04015,Z5,73635,37170,4636.184,89.777,35.5740534,-114.0350879
0401591964,2582914,Lake Havasu City Division,04015,Z5,61544,37568,2893.397,19.639,34.644756,-113.8161016
0401592340,1934960,North Mohave Division,04015,Z5,8666,3800,5060.144,10.207,36.5224728,-113.3813556
0401791279,1934919,Fort Apache Division,04017,Z5,11594,3692,1022.307,0.723,34.056615,-110.2769215
0401791632,1934949,Hopi Division,04017,Z5,7317,2987,1710.102,0.763,35.8903009,-110.4561711
0401791785,1934952,Indian Wells Division,04017,Z5,6636,2772,1430.343,0.535,35.3780448,-110.257518
0401791860,1934990,Kayenta Division,04017,Z5,9995,4239,1638.227,1.159,36.7133056,-110.3878349
0401792703,1934970,Pinon Division,04017,Z5,5723,2904,823.428,0.165,36.199128,-110.2196205
0401793213,1934981,Snowflake Division,04017,Z5,48367,33822,1558.717,1.721,34.4488452,-110.2392055
0401793952,1934956,Winslow-Holbrook Division,04017,Z5,17478,6140,1766.368,4.248,34.9169602,-110.3243196
0401990051,1934918,Ajo Division,04019,Z5,3105,2259,1534.54,0.0,32.2169068,-112.9777536
0401990153,1934920,Arivaca Division,04019,Z5,91587,40934,1319.201,0.29,31.8090793,-111.3048897
0401992040,1934957,Marana Division,04019,Z5,37975,14941,621.531,0.66,32.3297467,-111.3886123
0401993375,1934963,Tohono O'odham Nation Division,04019,Z5,6973,2385,3775.97,0.276,32.0832556,-112.0682231
0401993570,1934987,Tucson Division,04019,Z5,902753,410539,1937.441,0.748,32.151084,-110.7647731
0402190510,1934927,Casa Grande Division,04021,Z5,64268,26893,199.492,0.117,32.9014096,-111.7980222
0402190816,1934933,Coolidge Division,04021,Z5,18341,6838,119.155,1.594,32.926586,-111.5533318
0402191173,1934940,Eloy Division,04021,Z5,31615,11555,483.229,0.259,32.6449753,-111.5844631
0402191224,1934941,Florence Division,04021,Z5,38903,12171,1079.526,0.786,32.7880983,-111.213964
0402191428,1934945,Gila River Division,04021,Z5,9390,2773,435.861,0.081,33.1111152,-111.8617584
0402192091,1934958,Maricopa-Stanfield Division,04021,Z5,69146,24883,396.513,0.258,32.9046383,-112.0684657
0402192346,1934962,North Pinal Division,04021,Z5,181269,79214,1008.796,1.453,33.2579589,-111.2550188
0402193162,1934979,San Manuel Division,04021,Z5,20047,11048,1226.715,3.458,32.8322987,-110.7147281
0402193377,1934964,Tohono O'odham Nation Division,04021,Z5,359,99,417.384,0.004,32.6349806,-111.9749093
0402392295,1934961,Nogales Division,04023,Z5,44474,16785,680.443,0.92,31.4938865,-111.0121771
0402392550,1934966,Patagonia Division,04023,Z5,3364,2026,555.817,0.265,31.5652333,-110.6436843
0402590204,1934921,Ash Fork Division,04025,Z5,2863,1892,1521.394,0.223,35.1558911,-112.9609154
0402590484,1934988,Camp Verde-Sedona Division,04025,Z5,37322,20924,743.969,0.067,34.6840467,-111.7774968
0402590765,1934932,Congress Division,04025,Z5,10495,6297,2064.765,1.155,34.1873816,-112.7045922
0402590840,1934951,Cordes Lakes-Mayer Division,04025,Z5,7682,3437,1027.924,1.917,34.2630563,-111.9112049
0402592193,1934959,Mingus Mountain Division,04025,Z5,41134,20307,548.103,0.147,34.7335027,-112.142358
0402592754,1934971,Prescott Division,04025,Z5,138334,68972,2216.776,0.877,34.6924693,-112.7921315
0402793264,1934982,Somerton Division,04027,Z5,57631,16725,162.424,0.198,32.5379699,-114.6695242
0402793672,1934989,Wellton Division,04027,Z5,5733,3695,5105.269,0.077,32.7792725,-113.8507225
0402793978,1934995,Yuma Division,04027,Z5,141010,72388,246.127,4.838,32.7229326,-114.5290053
0500190113,63655,Township of Arkansas,05001,Z1,,,51.212,5.756,34.0550958,-91.3700679
0500190248,74270,Township of Barton,05001,Z1,,,35.086,1.123,34.348903,-91.6490671
0500190298,63656,Township of Bayou Meto,05001,Z1,,,57.662,4.249,34.2147476,-91.4787521
0500190938,63657,Township of Brewer,05001,Z1,,,44.945,2.805,34.2657755,-91.6296954
0500191578,63658,Township of Chester,05001,Z1,,,106.67,9.668,34.049762,-91.2351796
0500191948,63659,Township of Crockett,05001,Z1,,,39.43,1.244,34.4201211,-91.2281966
0500193021,63660,Township of Garland,05001,Z1,,,54.584,2.488,34.3270642,-91.5102437
0500193261,63661,Township of Gum Pond,05001,Z1,,,36.3,1.078,34.5230399,-91.541195
0500193436,63662,Township of Henton,05001,Z1,,,30.71,0.544,34.4328709,-91.6677082
0500194221,63663,Township of Keaton,05001,Z1,,,89.516,1.911,34.4540778,-91.3285025
0500194356,63664,Township of La Grue,05001,Z1,,,78.229,1.015,34.2823487,-91.3434629
0500194806,63665,Township of McFall,05001,Z1,,,35.092,2.32,34.5205134,-91.4330239
0500195126,63666,Township of Mill Bayou,05001,Z1,,,59.141,3.502,34.4176357,-91.454111
0500195361,63667,Township of Morris,05001,Z1,,,37.291,0.918,34.429321,-91.5715557
0500196111,63668,Township of Point Deluce,05001,Z1,,,53.88,1.395,34.1872512,-91.2818824
0500196177,63669,Township of Prairie,05001,Z1,,,150.284,4.152,34.2722851,-91.1592429
0500197244,63670,Township of Stanley,05001,Z1,,,32.11,2.434,34.1572631,-91.3924797
0500390188,63671,Township of Banner,05003,Z1,,,16.383,0.29,33.282573,-91.6008138
0500390288,63672,Township of Bayou,05003,Z1,,,29.117,0.078,33.3472825,-91.5890353
0500390373,78861,Township of Bearhouse,05003,Z1,,,43.56,0.672,33.3535201,-91.7030869
0500390418,63673,Township of Beech Creek,05003,Z1,,,33.167,0.0,33.1461865,-91.6440664
0500391383,63674,Township of Carter,05003,Z1,,,82.85,0.219,33.2187807,-91.7998799
0500392108,78862,Township of De Bastrop,05003,Z1,,,32.132,0.0,33.1135003,-91.5294624
0500392581,63675,Township of Egypt,05003,Z1,,,84.006,3.776,33.1369246,-91.9983571
0500392631,63676,Township of Elon,05003,Z1,,,62.024,0.027,33.0501886,-91.8850303
0500392671,63677,Township of Extra,05003,Z1,,,76.591,0.011,33.087015,-91.7635003
0500394751,63678,Township of Longview,05003,Z1,,,58.811,0.414,33.3267812,-91.9317333
0500394906,63679,Township of Marais Saline,05003,Z1,,,42.361,2.923,33.0551048,-92.044968
0500395136,63680,Township of Mill Creek,05003,Z1,,,73.932,3.263,33.2204788,-91.9861022
0500395306,63681,Township of Montrose,05003,Z1,,,21.875,1.198,33.3035171,-91.5097043
0500396156,63682,Township of Portland,05003,Z1,,,68.477,0.707,33.2056447,-91.5273478
0500396188,63683,Township of Prairie,05003,Z1,,,63.644,0.097,33.2423851,-91.6779707
0500397878,63684,Township of Union,05003,Z1,,,19.204,0.211,33.3594766,-91.4997176
0500398658,63685,Township of White,05003,Z1,,,42.104,0.006,33.344291,-91.820965
0500398813,63686,Township of Wilmot,05003,Z1,,,75.252,1.035,33.0487054,-91.5789137
0500797506,1989186,Township 1,05007,Z1,,,125.519,17.022,36.4117792,-93.9813867
0500797542,1989194,Township 2,05007,Z1,,,53.441,0.53,36.2810964,-93.9857251
0500797578,1989187,Township 3,05007,Z1,,,175.134,15.079,36.2721926,-94.1261163
0500797614,1989188,Township 4,05007,Z1,,,273.323,2.285,36.2695481,-94.1940421
0500797650,1989189,Township 5,05007,Z1,,,220.315,1.715,36.335865,-94.1427172
0501191653,63687,Township of Clay,05011,Z1,,,62.105,0.0,33.5450683,-92.266576
0501192516,63688,Township of Eagle,05011,Z1,,,76.023,1.053,33.2764651,-92.143441
0501194941,63689,Township of Marion,05011,Z1,,,30.01,0.15,33.464068,-92.0419943
0501195351,63690,Township of Moro,05011,Z1,,,47.337,0.0,33.6637614,-92.2559162
0501195836,63691,Township of Ouachita,05011,Z1,,,23.136,0.0,33.415992,-92.2263254
0501195906,63692,Township of Palestine,05011,Z1,,,55.747,0.471,33.3417827,-92.0329827
0501195956,63693,Township of Pennington,05011,Z1,,,173.176,0.884,33.6040958,-92.0952997
0501196694,63694,Township of River,05011,Z1,,,68.078,1.091,33.3086464,-92.2771494
0501197374,63695,Township of Sumpter,05011,Z1,,,41.335,0.015,33.4112151,-92.3006171
0501198423,63696,Township of Washington,05011,Z1,,,72.222,0.007,33.43553,-92.1347141
0501397518,1934781,Township 1,05013,Z1,,,18.504,0.019,33.7795943,-92.5340279
0501397554,1934782,Township 2,05013,Z1,,,70.188,0.485,33.7453579,-92.4491898
0501397590,1934783,Township 3,05013,Z1,,,77.191,0.0,33.6355965,-92.3811685
0501397626,1934784,Township 4,05013,Z1,,,63.709,0.103,33.4816637,-92.3774293
0501397662,1934785,Township 5,05013,Z1,,,182.24,2.061,33.425736,-92.4984443
0501397686,1934786,Township 6,05013,Z1,,,65.572,0.929,33.4975224,-92.6822549
0501397710,1934787,Township 7,05013,Z1,,,148.605,0.221,33.6247964,-92.5680213
0501397734,1934788,Township 8,05013,Z1,,,1.559,0.0,33.5383166,-92.4724661
0501397758,1934789,Township 9,05013,Z1,,,1.034,0.0,33.5307396,-92.4614859
0501591538,2830590,Township of Central,05015,Z1,,,166.247,0.204,36.3877473,-93.6086306
0501595691,2830593,Township of Northesast,05015,Z1,,,141.908,0.958,36.4126315,-93.3977419
0501597114,2830592,Township of Southeast,05015,Z1,,,216.274,0.044,36.2226737,-93.4459351
0501598633,2830591,Township of Western,05015,Z1,,,105.499,7.564,36.4079365,-93.7879227
0501790883,68717,Township of Bowie,05017,Z1,,,99.765,3.639,33.4886003,-91.3524641
0501791343,68718,Township of Carlton,05017,Z1,,,240.031,27.836,33.3406825,-91.2946239
0501796071,68719,Township of Planters,05017,Z1,,,297.182,22.739,33.1332609,-91.2738011
0501991208,66430,Township of Caddo,05019,Z1,,,865.971,16.975,34.050926,-93.1763506
0502190463,2063355,Township of Bennett-Lemmons,05021,Z1,,,79.116,0.128,36.4276965,-90.403576
0502190913,2063356,Township of Bradshaw-Haywood,05021,Z1,,,37.484,0.049,36.3460151,-90.2745291
0502190998,2063357,Township of Brown-Carpenter,05021,Z1,,,46.269,0.299,36.4629945,-90.6950273
0502191198,2063358,Township of Cache-Wilson,05021,Z1,,,62.126,0.408,36.3169205,-90.5756162
0502191548,2063359,Township of Chalk Bluff-Liddell,05021,Z1,,,30.708,0.224,36.4565504,-90.1949644
0502191623,63717,Township of Clark,05021,Z1,,,22.599,0.0,36.2856587,-90.6983318
0502191793,2063360,Township of Cleveland-North Kilgore,05021,Z1,,,55.838,0.117,36.4489678,-90.5562053
0502192551,2063361,Township of East Oak Bluff-Blue Cane,05021,Z1,,,56.34,0.053,36.2546806,-90.2260995
0502193106,2063362,Township of Gleghorn-South Kilgore,05021,Z1,,,44.177,0.382,36.381702,-90.59688
0502194156,63721,Township of Johnson,05021,Z1,,,24.693,0.032,36.3229236,-90.3907423
0502194311,63723,Township of Knob,05021,Z1,,,26.493,0.0,36.2853852,-90.4360355
0502195611,63726,Township of Nelson,05021,Z1,,,22.273,0.0,36.3566564,-90.7258422
0502195721,2063363,Township of North Saint Francis,05021,Z1,,,22.964,0.15,36.3976156,-90.1859271
0502195941,2063364,Township of Payne-Swain,05021,Z1,,,35.681,0.092,36.3131055,-90.1220695
0502196136,63729,Township of Pollard,05021,Z1,,,28.924,0.07,36.4453978,-90.283116
0502197144,2063365,Township of South Saint Francis,05021,Z1,,,23.37,0.063,36.3670027,-90.1761915
0502198603,2063366,Township of West Oak Bluff,05021,Z1,,,20.167,0.056,36.2707499,-90.3138531
0502397521,2830714,Township 1,05023,Z1,,,339.149,26.404,35.601288,-92.004388
0502397557,2830715,Township 2,05023,Z1,,,214.81,11.776,35.436161,-92.062809
0502590893,63733,Township of Bowman,05025,Z1,,,25.776,0.109,34.0194326,-92.1103203
0502593341,63734,Township of Harper,05025,Z1,,,24.26,0.077,33.8211584,-92.028674
0502593646,63735,Township of Hudgin,05025,Z1,,,25.858,0.006,34.006738,-91.9845589
0502593691,63736,Township of Hurricane,05025,Z1,,,27.464,0.133,33.7512091,-92.0162813
0502594296,63738,Township of Kingsland,05025,Z1,,,100.02,0.061,33.8943757,-92.3154485
0502594446,63739,Township of Lee,05025,Z1,,,41.547,0.154,33.7443765,-92.1156988
0502595221,63740,Township of Miller,05025,Z1,,,25.3,0.0,33.9498047,-92.0632326
0502595651,63741,Township of Niven,05025,Z1,,,33.039,0.01,34.0182879,-92.1938625
0502596439,63742,Township of Redland,05025,Z1,,,88.502,0.205,33.7756321,-92.2268585
0502596689,63743,Township of Rison,05025,Z1,,,27.225,0.023,33.9394694,-92.2083649
0502596789,63744,Township of Rowell,05025,Z1,,,34.569,0.014,33.88955,-92.0370784
0502596884,63745,Township of Saline,05025,Z1,,,57.179,0.06,34.0132536,-92.3886224
0502597069,63746,Township of Smith,05025,Z1,,,40.565,0.097,33.8861147,-92.1407093
0502598683,63747,Township of White Oak,05025,Z1,,,25.099,0.006,34.0178185,-92.2735177
0502598748,63748,Township of Whiteville,05025,Z1,,,21.506,0.033,34.0141027,-92.0438176
0502990148,66433,Township of Austin,05029,Z1,,,21.607,0.104,35.4345503,-92.5447323
0502990468,66434,Township of Bentley,05029,Z1,,,18.077,1.541,35.1019159,-92.7672406
0502990673,66435,Township of Bird,05029,Z1,,,24.516,0.05,35.3079264,-92.6141625
0502991398,66436,Township of Catholic Point,05029,Z1,,,22.541,0.037,35.341703,-92.5293608
0502991443,66437,Township of Cedar Falls,05029,Z1,,,18.865,0.719,35.1389845,-92.9070582
0502993206,66438,Township of Gregory,05029,Z1,,,22.175,0.831,35.277456,-92.7988031
0502993211,66439,Township of Griffin,05029,Z1,,,41.378,0.407,35.4076958,-92.8048561
0502993511,66440,Township of Higgins,05029,Z1,,,8.434,0.027,35.0976613,-92.8830096
0502993636,66441,Township of Howard,05029,Z1,,,53.805,1.74,35.1454873,-92.5928884
0502994611,66442,Township of Lick Mountain,05029,Z1,,,37.948,0.35,35.38465,-92.5862175
0502994836,66443,Township of McLaren,05029,Z1,,,13.756,0.257,35.3221426,-92.6748506
0502995036,66444,Township of Martin,05029,Z1,,,11.885,1.685,35.1162701,-92.8419188
0502995646,66445,Township of Nichols,05029,Z1,,,49.196,0.59,35.4080796,-92.7012034
0502995776,66446,Township of Old Hickory,05029,Z1,,,11.758,0.187,35.3286082,-92.8108486
0502995976,66447,Township of Petit Jean,05029,Z1,,,7.984,0.087,35.0958609,-93.0064334
0502996859,66448,Township of Saint Vincent,05029,Z1,,,18.013,0.159,35.3082183,-92.7272311
0502997259,66449,Township of Steele,05029,Z1,,,17.949,0.021,35.2242648,-92.6045505
0502997898,66450,Township of Union,05029,Z1,,,30.428,0.016,35.2645859,-92.5367085
0502998433,66451,Township of Washington,05029,Z1,,,35.526,1.409,35.2375521,-92.7026458
0502998578,66452,Township of Welborn,05029,Z1,,,74.063,4.347,35.169994,-92.7592413
0502998678,66453,Township of White Eagle,05029,Z1,,,12.014,0.015,35.0967056,-92.9445037
0503190523,66454,Township of Big Creek,05031,Z1,,,42.249,0.163,35.9208501,-90.8033473
0503190703,66455,Township of Black Oak,05031,Z1,,,84.864,1.37,35.7765234,-90.3576009
0503190983,66456,Township of Brookland,05031,Z1,,,36.042,0.112,35.9218,-90.5500093
0503191063,66457,Township of Buffalo,05031,Z1,,,68.409,1.022,35.9206375,-90.3568221
0503193081,66458,Township of Gilkerson,05031,Z1,,,75.126,0.224,35.7690047,-90.8036754
0503193176,66459,Township of Greenfield,05031,Z1,,,27.829,0.041,35.7391731,-90.6582598
0503193446,66460,Township of Herndon,05031,Z1,,,14.099,0.203,35.932414,-90.7181665
0503194211,66461,Township of Jonesboro,05031,Z1,,,86.925,0.435,35.8480598,-90.6877574
0503194376,66462,Township of Lake City,05031,Z1,,,17.014,0.354,35.8207227,-90.4517905
0503194476,66463,Township of Lester,05031,Z1,,,31.263,0.308,35.9094987,-90.4634373
0503194671,66464,Township of Little Texas,05031,Z1,,,54.065,0.3,35.7508942,-90.9562014
0503195071,66465,Township of Maumelle,05031,Z1,,,36.416,0.059,35.74965,-90.554147
0503195616,66466,Township of Nettleton,05031,Z1,,,33.299,0.131,35.8113211,-90.5940403
0503196166,66467,Township of Powell,05031,Z1,,,23.713,0.291,35.9309471,-90.6471677
0503196221,66468,Township of Prairie,05031,Z1,,,10.289,0.181,35.7610248,-90.4451973
0503196384,66469,Township of Promised Land,05031,Z1,,,32.205,0.142,35.8506355,-90.974654
0503197414,66470,Township of Taylor,05031,Z1,,,11.332,0.082,35.7499454,-90.4831648
0503197439,66471,Township of Texas,05031,Z1,,,22.024,0.109,35.8217826,-90.9241721
0503397524,2830698,Township 1,05033,Z1,,,191.282,0.055,35.656399,-94.359092
0503397560,2830699,Township 2,05033,Z1,,,32.859,0.272,35.507958,-94.396171
0503397593,2830700,Township 3,05033,Z1,,,3.565,0.014,35.48034,-94.370912
0503397665,2830702,Township 5,05033,Z1,,,2.202,0.015,35.451554,-94.346849
0503397689,2830704,Township 6,05033,Z1,,,2.427,0.048,35.438277,-94.336468
0503397713,2830705,Township 7,05033,Z1,,,27.851,2.292,35.392927,-94.291411
0503397737,2830706,Township 8,05033,Z1,,,43.52,2.458,35.423575,-94.200928
0503397761,2830707,Township 9,05033,Z1,,,15.56,0.0,35.464744,-94.291094
0503397773,2830708,Township 10,05033,Z1,,,42.086,0.01,35.546535,-94.244325
0503397785,2830709,Township 11,05033,Z1,,,10.548,0.187,35.502449,-94.222203
0503397797,2830710,Township 12,05033,Z1,,,47.317,2.464,35.502417,-94.098529
0503397809,2830711,Township 13,05033,Z1,,,169.012,1.274,35.670559,-94.110673
0503590708,68745,Township of Black Oak,05035,Z1,,,64.027,0.726,35.3889286,-90.4217217
0503590803,68746,Township of Bob Ward,05035,Z1,,,66.726,0.2,35.0672778,-90.3513013
0503592771,68747,Township of Fogleman,05035,Z1,,,72.022,2.526,35.3905446,-90.2264109
0503593810,68748,Township of Jackson,05035,Z1,,,57.59,0.0,35.20616,-90.3344801
0503593961,68749,Township of Jasper,05035,Z1,,,28.706,0.033,35.2189596,-90.2239242
0503594791,68750,Township of Lucas,05035,Z1,,,58.527,16.701,34.9166324,-90.3377116
0503595246,68751,Township of Mississippi,05035,Z1,,,42.877,5.283,35.1401935,-90.1815936
0503595371,68752,Township of Mound City,05035,Z1,,,25.992,1.721,35.2226801,-90.1390664
0503596379,68753,Township of Proctor,05035,Z1,,,33.256,1.813,35.0823448,-90.2465025
0503597853,68754,Township of Tyronza,05035,Z1,,,79.681,0.236,35.2429782,-90.4516764
0503598353,68755,Township of Wappanocca,05035,Z1,,,83.461,2.302,35.3080203,-90.2592635
0503991088,66483,Township of Bunn,05039,Z1,,,35.743,0.006,34.0161381,-92.5258228
0503991588,66484,Township of Chester,05039,Z1,,,58.436,0.005,34.0955288,-92.4834268
0503992451,66485,Township of Dry Run,05039,Z1,,,11.845,0.019,33.822618,-92.3681949
0503992776,66486,Township of Fordyce,05039,Z1,,,31.463,0.027,33.843047,-92.4325489
0503993586,66487,Township of Holly Springs,05039,Z1,,,60.067,0.0,33.8453553,-92.6733057
0503993821,66488,Township of Jackson,05039,Z1,,,35.798,0.005,33.8440468,-92.5321433
0503994506,66489,Township of Liberty,05039,Z1,,,35.427,0.0,33.9299938,-92.5294534
0503994901,66490,Township of Manchester,05039,Z1,,,56.868,0.177,34.019756,-92.8604302
0503995661,66491,Township of Nix,05039,Z1,,,39.037,0.0,33.9916782,-92.7731572
0503995856,66492,Township of Owen,05039,Z1,,,80.932,0.419,33.8834591,-92.8257245
0503996374,66493,Township of Princeton,05039,Z1,,,75.935,0.0,33.9540051,-92.6552837
0503997079,66494,Township of Smith,05039,Z1,,,75.966,0.01,34.0785366,-92.6533511
0503997099,66495,Township of Southall,05039,Z1,,,20.313,0.0,33.9194333,-92.444443
0503998803,66496,Township of Willow,05039,Z1,,,49.492,0.0,34.1191338,-92.7872486
0504190888,66497,Township of Bowie,05041,Z1,,,35.188,0.239,33.612603,-91.4079824
0504191673,66498,Township of Clayton,05041,Z1,,,55.116,0.775,33.6927785,-91.3665567
0504192836,66499,Township of Franklin,05041,Z1,,,154.761,38.787,33.736372,-91.1559026
0504193301,66500,Township of Halley,05041,Z1,,,34.011,0.451,33.5792205,-91.3173487
0504193999,66501,Township of Jefferson,05041,Z1,,,53.29,3.07,33.8034192,-91.3954044
0504195251,66502,Township of Mississippi,05041,Z1,,,125.642,13.677,34.0492542,-91.0450714
0504196409,66503,Township of Randolph,05041,Z1,,,33.793,0.054,33.914089,-91.5082112
0504196429,66504,Township of Red Fork,05041,Z1,,,130.058,10.845,33.8909815,-91.2576869
0504196554,66505,Township of Richland,05041,Z1,,,42.947,0.285,33.7787965,-91.2780867
0504197024,66506,Township of Silver Lake,05041,Z1,,,40.212,2.141,33.9403163,-91.4327186
0504198348,66507,Township of Walnut Lake,05041,Z1,,,36.208,1.175,33.8251187,-91.5032926
0504390238,66508,Township of Bartholomew,05043,Z1,,,74.627,0.658,33.4988878,-91.4983853
0504390378,66509,Township of Bearhouse,05043,Z1,,,59.204,0.004,33.4553288,-91.6932952
0504391678,66510,Township of Clear Creek,05043,Z1,,,58.755,0.037,33.7438862,-91.8977916
0504391853,66511,Township of Collins,05043,Z1,,,57.778,1.51,33.4822504,-91.579972
0504391868,66512,Township of Cominto,05043,Z1,,,49.116,1.665,33.5599931,-91.6513379
0504391958,66513,Township of Crook,05043,Z1,,,64.275,0.259,33.4699137,-91.9458806
0504392846,66514,Township of Franklin,05043,Z1,,,79.294,1.792,33.6621305,-91.5387426
0504394681,66515,Township of Live Oak,05043,Z1,,,62.507,0.583,33.7439287,-91.5777352
0504394951,66516,Township of Marion,05043,Z1,,,115.301,0.459,33.6213607,-91.7746539
0504396889,66517,Township of Saline,05043,Z1,,,62.618,0.022,33.6203341,-91.9245973
0504397224,66518,Township of Spring Hill,05043,Z1,,,63.97,0.262,33.7404196,-91.7408215
0504398208,66519,Township of Veasey,05043,Z1,,,81.223,0.004,33.4681602,-91.8207213
0504590443,66520,Township of Benedict,05045,Z1,,,30.066,2.341,34.9927586,-92.534963
0504590473,66521,Township of Benton,05045,Z1,,,29.274,0.0,35.3204667,-92.2282607
0504590973,66522,Township of Bristol,05045,Z1,,,15.569,0.066,35.1588056,-92.1425028
0504591228,66523,Township of Cadron,05045,Z1,,,91.518,6.999,35.0889422,-92.4339623
0504591258,66524,Township of California,05045,Z1,,,36.33,0.068,35.3179271,-92.3268798
0504591803,66525,Township of Clifton,05045,Z1,,,24.846,0.023,35.1934712,-92.4665842
0504592023,66526,Township of Cypress,05045,Z1,,,39.927,0.085,35.0619709,-92.1704083
0504592053,66527,Township of Danley,05045,Z1,,,43.478,6.321,34.9575088,-92.3959664
0504592521,66528,Township of Eagle,05045,Z1,,,20.857,0.081,35.1059837,-92.2814441
0504592541,66529,Township of East Fork,05045,Z1,,,16.264,0.012,35.1765815,-92.3789332
0504592651,66530,Township of Enola,05045,Z1,,,27.458,0.0,35.2186655,-92.2123022
0504593321,66531,Township of Hardin,05045,Z1,,,35.414,0.038,35.2294588,-92.3541484
0504593381,66532,Township of Harve,05045,Z1,,,21.541,0.0,35.1593073,-92.2787878
0504595061,66533,Township of Matthews,05045,Z1,,,21.777,0.0,35.2434791,-92.2705544
0504595401,66534,Township of Mountain,05045,Z1,,,24.142,0.0,35.3185678,-92.1480068
0504595556,66535,Township of Mount Vernon,05045,Z1,,,17.894,0.0,35.2392367,-92.1449947
0504595641,66536,Township of Newton,05045,Z1,,,17.859,0.006,35.140536,-92.1987356
0504595901,66537,Township of Palarm,05045,Z1,,,28.106,0.086,35.0464357,-92.2795453
0504596036,66538,Township of Pine Mountain,05045,Z1,,,17.313,0.662,35.0167885,-92.4446732
0504597918,66539,Township of Union,05045,Z1,,,28.159,0.0,35.2601052,-92.4519414
0504598273,66540,Township of Walker,05045,Z1,,,29.387,0.016,35.3350981,-92.4291499
0504598823,66541,Township of Wilson,05045,Z1,,,30.064,0.034,34.9717805,-92.2726409
0504790043,66542,Township of Alix,05047,Z1,,,14.455,0.733,35.4243105,-93.726424
0504790203,66543,Township of Barham,05047,Z1,,,9.66,0.001,35.3978072,-93.888465
0504790713,66544,Township of Black Oak,05047,Z1,,,20.07,0.053,35.6227705,-94.0142058
0504790848,66545,Township of Boston,05047,Z1,,,31.443,0.009,35.6761372,-93.8497039
0504791818,66546,Township of Cobb,05047,Z1,,,16.052,0.0,35.7388085,-93.728069
0504791933,66547,Township of Cravens,05047,Z1,,,14.072,0.0,35.5476073,-93.9019971
0504792406,66548,Township of Donald,05047,Z1,,,14.52,0.07,35.3090562,-93.9429112
0504793241,66549,Township of Grover,05047,Z1,,,22.297,0.9,35.4311004,-93.9448161
0504793561,66550,Township of Hogan,05047,Z1,,,17.74,1.226,35.4261554,-93.7693755
0504793696,66551,Township of Hurricane,05047,Z1,,,16.311,0.087,35.3660146,-93.9593418
0504793766,66552,Township of Ivy,05047,Z1,,,14.628,2.374,35.4894198,-94.0019399
0504794621,66553,Township of Limestone,05047,Z1,,,6.025,0.0,35.6749246,-93.7169926
0504794821,66554,Township of McIlroy,05047,Z1,,,29.702,0.002,35.6762413,-93.7727402
0504795106,66555,Township of Middle,05047,Z1,,,23.003,1.309,35.4360047,-93.8423206
0504795146,66556,Township of Mill Creek,05047,Z1,,,21.457,0.736,35.4266924,-94.0272751
0504795226,66557,Township of Miller,05047,Z1,,,8.952,0.0,35.6095849,-94.0601114
0504795336,66558,Township of Morgan,05047,Z1,,,28.25,0.002,35.7448312,-93.8458236
0504795411,66559,Township of Mountain,05047,Z1,,,23.763,0.027,35.6031196,-93.741513
0504795581,66560,Township of Mulberry,05047,Z1,,,22.876,0.042,35.5426184,-93.9814609
0504796232,66561,Township of Prairie,05047,Z1,,,48.154,0.392,35.2772208,-94.0286256
0504797004,66562,Township of Shores,05047,Z1,,,26.743,0.059,35.6761173,-93.9520467
0504797039,66563,Township of Six Mile,05047,Z1,,,9.094,0.001,35.2517601,-93.9460192
0504798278,66564,Township of Walker,05047,Z1,,,22.974,0.003,35.6161641,-93.8966938
0504798298,66565,Township of Wallace,05047,Z1,,,13.735,1.317,35.4856721,-93.9184696
0504798538,66566,Township of Watalula,05047,Z1,,,18.111,0.0,35.588045,-93.8264094
0504798568,66567,Township of Weaver,05047,Z1,,,18.994,0.008,35.3655079,-94.0381145
0504798688,66568,Township of White Oak,05047,Z1,,,58.668,1.688,35.5160283,-93.7909508
0504798738,66569,Township of White Rock,05047,Z1,,,9.942,0.001,35.590652,-93.9672512
0504798863,66570,Township of Wittich,05047,Z1,,,27.276,0.099,35.348924,-93.8593615
0505193291,66591,Township of Hale,05051,Z1,,,384.202,44.603,34.6217296,-93.2353522
0505193626,66592,Township of Hot Springs,05051,Z1,,,51.671,2.41,34.493721,-93.0472704
0505194381,66594,Township of Lake Hamilton,05051,Z1,,,78.982,7.876,34.4313011,-93.0866375
0505198763,66602,Township of Whittington,05051,Z1,,,162.759,2.042,34.5632408,-92.9965746
0505391268,66603,Township of Calvert,05053,Z1,,,59.574,0.115,34.198761,-92.4296888
0505392068,66604,Township of Darysaw,05053,Z1,,,64.985,0.022,34.2337934,-92.2947341
0505392083,66605,Township of Davis,05053,Z1,,,47.795,0.057,34.2476479,-92.5079655
0505392118,66606,Township of Dekalb,05053,Z1,,,58.302,0.126,34.402607,-92.5325497
0505392726,66607,Township of Fenter,05053,Z1,,,37.331,0.063,34.339308,-92.6325203
0505392856,66608,Township of Franklin,05053,Z1,,,33.065,0.035,34.4216426,-92.4087737
0505394851,66609,Township of Madison,05053,Z1,,,67.281,0.013,34.1201131,-92.3068419
0505395101,66610,Township of Merry Green,05053,Z1,,,53.851,0.09,34.3223913,-92.4022108
0505396704,66611,Township of River,05053,Z1,,,23.461,0.057,34.3295955,-92.552339
0505397029,66612,Township of Simpson,05053,Z1,,,76.948,0.061,34.4343814,-92.2934665
0505397429,66613,Township of Tennessee,05053,Z1,,,68.885,0.401,34.206582,-92.6073172
0505398453,66614,Township of Washington,05053,Z1,,,40.41,0.078,34.3322687,-92.265389
0505790808,66639,Township of Bodcaw,05057,Z1,,,52.328,0.03,33.5337956,-93.5462623
0505790823,66640,Township of Bois d'Arc,05057,Z1,,,93.764,4.185,33.630998,-93.8152044
0505792163,66641,Township of De Roan,05057,Z1,,,89.701,0.464,33.6609616,-93.5637855
0505793031,66642,Township of Garland,05057,Z1,,,29.335,0.102,33.7901381,-93.5574596
0505795231,66643,Township of Mine Creek,05057,Z1,,,71.824,0.27,33.9195149,-93.7734375
0505795666,66644,Township of Noland,05057,Z1,,,27.95,0.083,33.7738221,-93.498043
0505795881,66645,Township of Ozan,05057,Z1,,,106.731,0.175,33.7846106,-93.6806839
0505796444,66646,Township of Redland,05057,Z1,,,62.647,0.141,33.9300313,-93.639569
0505796894,66647,Township of Saline,05057,Z1,,,51.769,6.449,33.7264644,-93.8598855
0505797229,66648,Township of Springhill,05057,Z1,,,63.949,1.576,33.5474783,-93.6619245
0505798313,66649,Township of Wallaceburg,05057,Z1,,,50.738,0.243,33.8871373,-93.521634
0505798548,66650,Township of Water Creek,05057,Z1,,,26.464,0.08,33.6460899,-93.6935435
0505990073,66651,Township of Antioch,05059,Z1,,,14.31,0.0,34.3087166,-92.9925478
0505990543,66652,Township of Big Creek,05059,Z1,,,24.331,0.02,34.3184158,-92.7089359
0505990683,66653,Township of Bismarck,05059,Z1,,,50.457,1.262,34.3357307,-93.1924586
0505991003,66654,Township of Brown Springs,05059,Z1,,,34.501,0.166,34.1811421,-92.9469858
0505991123,66655,Township of Butterfield,05059,Z1,,,14.432,0.044,34.4218559,-92.7998658
0505991683,66656,Township of Clear Creek,05059,Z1,,,31.437,0.006,34.2082824,-92.7099917
0505992168,66657,Township of De Roche,05059,Z1,,,51.266,0.0,34.3431761,-93.0679733
0505992426,66658,Township of Dover,05059,Z1,,,19.912,0.005,34.2841454,-92.7686275
0505992731,66659,Township of Fenter,05059,Z1,,,55.037,1.103,34.3767597,-92.845522
0505993071,66660,Township of Gifford,05059,Z1,,,17.645,0.019,34.382914,-92.7118501
0505993351,66661,Township of Harrison,05059,Z1,,,43.712,0.003,34.2033294,-92.7989581
0505993426,66662,Township of Henderson,05059,Z1,,,31.808,0.0,34.371691,-93.3327577
0505994721,66663,Township of Lone Hill,05059,Z1,,,30.042,0.277,34.3441029,-92.9354374
0505994881,66664,Township of Magnet,05059,Z1,,,37.677,0.845,34.4687467,-92.849499
0505995111,66665,Township of Midway,05059,Z1,,,30.206,0.3,34.2913376,-92.8652311
0505995291,66666,Township of Montgomery,05059,Z1,,,28.773,1.679,34.2645194,-93.1005518
0505995841,66667,Township of Ouachita,05059,Z1,,,23.564,0.08,34.2289909,-92.9066671
0505996243,66668,Township of Prairie,05059,Z1,,,22.351,0.151,34.2504504,-92.9892505
0505996899,66669,Township of Saline,05059,Z1,,,25.578,0.009,34.4498188,-92.7317207
0505998158,66670,Township of Valley,05059,Z1,,,27.905,1.259,34.317092,-93.3011071
0506390128,68756,Township of Ashley,05063,Z1,,,34.001,0.0,35.8480529,-91.6278157
0506390223,68757,Township of Barren,05063,Z1,,,40.443,0.092,35.9041481,-91.5377636
0506390503,1954004,Township of Big Bottom-Wycough-Logan,05063,Z1,,,68.501,1.987,35.7082498,-91.4010799
0506390728,1954005,Township of Black River-Marshell,05063,Z1,,,54.248,0.931,35.8382303,-91.2955821
0506392008,1954008,Township of Cushman-Union,05063,Z1,,,50.404,0.152,35.8671859,-91.7595085
0506392158,68762,Township of Departee,05063,Z1,,,23.017,0.044,35.5562095,-91.4178549
0506392421,68763,Township of Dota,05063,Z1,,,49.742,0.0,35.8322811,-91.4128477
0506392686,68764,Township of Fairview,05063,Z1,,,42.135,0.0,35.5748271,-91.6448863
0506392981,68765,Township of Gainsboro,05063,Z1,,,29.734,0.038,35.8249971,-91.5140718
0506393171,68766,Township of Greenbrier,05063,Z1,,,38.868,0.628,35.720232,-91.7418549
0506393531,68767,Township of Hill,05063,Z1,,,22.05,0.0,35.5548168,-91.518807
0506393661,68768,Township of Huff,05063,Z1,,,17.273,0.0,35.6467505,-91.6175714
0506394010,68769,Township of Jefferson,05063,Z1,,,24.086,0.026,35.9084406,-91.6785837
0506394516,68770,Township of Liberty,05063,Z1,,,29.975,0.0,35.5794992,-91.7509184
0506394816,68772,Township of McHue,05063,Z1,,,16.929,0.228,35.7076649,-91.6504988
0506394871,68773,Township of Magness,05063,Z1,,,14.045,0.577,35.6925838,-91.4931372
0506395321,68775,Township of Moorefield,05063,Z1,,,21.556,0.113,35.774194,-91.569132
0506395766,68776,Township of Oil Trough,05063,Z1,,,39.199,0.651,35.6083338,-91.4724462
0506396509,68777,Township of Relief,05063,Z1,,,29.066,0.016,35.6502753,-91.722979
0506396774,68778,Township of Rosie,05063,Z1,,,22.012,0.419,35.6565254,-91.5373399
0506396799,68779,Township of Ruddell,05063,Z1,,,26.818,0.683,35.7818902,-91.6721563
0506396864,68780,Township of Salado,05063,Z1,,,14.171,0.246,35.7021522,-91.5903189
0506398463,68783,Township of Washington,05063,Z1,,,39.724,0.805,35.7906862,-91.8051149
0506398703,68784,Township of White River,05063,Z1,,,15.713,0.184,35.7429751,-91.5187218
0506590133,66692,Township of Athens,05065,Z1,,,24.501,0.222,36.0551511,-92.0123798
0506590163,66693,Township of Baker,05065,Z1,,,20.053,0.0,36.225813,-91.8281164
0506590233,66694,Township of Barren Fork,05065,Z1,,,11.159,0.0,35.9633421,-91.742133
0506590663,66695,Township of Big Spring,05065,Z1,,,15.144,0.0,36.010666,-91.7370528
0506591028,66696,Township of Bryan,05065,Z1,,,25.901,0.0,36.228516,-92.1061326
0506591618,66697,Township of Claiborne,05065,Z1,,,23.235,0.342,36.0956192,-92.0775126
0506592456,66698,Township of Drytown,05065,Z1,,,15.198,0.014,35.9716703,-91.7968916
0506592876,66699,Township of Franklin,05065,Z1,,,23.888,0.001,36.1569606,-91.7779846
0506593066,66700,Township of Gid,05065,Z1,,,20.793,0.0,35.9842673,-91.8563652
0506593251,66701,Township of Guion,05065,Z1,,,21.375,0.457,35.9435673,-91.9417884
0506593276,66702,Township of Guthrie,05065,Z1,,,30.173,0.0,36.2138852,-92.0067208
0506594021,66703,Township of Jefferson,05065,Z1,,,30.159,1.285,36.2084351,-91.7262753
0506594316,66704,Township of Lacrosse,05065,Z1,,,16.698,0.0,36.0981986,-91.8449979
0506594346,66705,Township of Lafferty,05065,Z1,,,23.706,0.211,35.9134178,-91.8490983
0506594796,66706,Township of Lunenburg,05065,Z1,,,26.816,0.0,36.0026524,-91.9416775
0506595156,66707,Township of Mill Creek,05065,Z1,,,25.489,0.0,36.0616861,-91.9112042
0506595531,66708,Township of Mount Olive,05065,Z1,,,10.274,0.114,36.0039273,-92.0504604
0506595621,66709,Township of Newburg,05065,Z1,,,42.05,0.0,36.1315431,-91.9628733
0506595631,66710,Township of New Hope,05065,Z1,,,28.122,0.011,36.2145587,-91.9198643
0506596076,66711,Township of Pleasant Hill,05065,Z1,,,23.581,0.027,36.0631333,-91.7516467
0506596829,66712,Township of Sage,05065,Z1,,,11.741,0.0,36.0414556,-91.820171
0506597274,66713,Township of Strawberry,05065,Z1,,,23.941,0.012,36.10821,-91.7188108
0506597968,66714,Township of Union,05065,Z1,,,45.689,0.383,36.1543252,-92.1250085
0506598258,66715,Township of Violet Hill,05065,Z1,,,19.617,0.0,36.1613288,-91.8520974
0506598708,66716,Township of White River,05065,Z1,,,20.9,0.618,35.9566318,-92.0500791
0506790228,66717,Township of Barren,05067,Z1,,,35.374,0.019,35.4849541,-91.5312489
0506790263,66718,Township of Bateman,05067,Z1,,,25.537,1.165,35.5872326,-91.3350559
0506790678,66719,Township of Bird,05067,Z1,,,89.739,1.081,35.7548511,-91.182583
0506790933,66720,Township of Breckenridge,05067,Z1,,,49.309,0.019,35.4339517,-91.2127822
0506791033,66721,Township of Bryan,05067,Z1,,,31.295,1.19,35.4894746,-91.3003754
0506791158,66722,Township of Cache,05067,Z1,,,44.906,0.24,35.522539,-91.1654068
0506791923,66723,Township of Cow Lake,05067,Z1,,,58.092,0.232,35.416672,-91.0970012
0506793091,66724,Township of Glaize,05067,Z1,,,45.143,0.923,35.4844659,-91.4104146
0506793096,66725,Township of Glass,05067,Z1,,,68.335,0.469,35.8372506,-91.1192855
0506793246,66726,Township of Grubbs,05067,Z1,,,40.566,0.08,35.6570988,-91.092291
0506794032,66727,Township of Jefferson,05067,Z1,,,33.67,0.764,35.6822435,-91.2812781
0506796659,66728,Township of Richwoods,05067,Z1,,,39.148,0.631,35.5532508,-91.0796391
0506797978,66729,Township of Union,05067,Z1,,,36.688,0.749,35.5900164,-91.2590119
0506798238,66730,Township of Village,05067,Z1,,,35.808,0.268,35.6483751,-91.1809174
0506990218,66731,Township of Barraque,05069,Z1,,,30.781,1.716,34.4464166,-92.160556
0506990813,66732,Township of Bogy,05069,Z1,,,50.176,2.361,34.2452856,-91.7619196
0506990828,66733,Township of Bolivar,05069,Z1,,,42.924,4.186,34.4478564,-92.0462055
0506992466,66734,Township of Dudley Lake,05069,Z1,,,58.779,0.28,34.4394911,-91.8914151
0506992476,66735,Township of Dunnington,05069,Z1,,,39.391,0.551,34.3537791,-91.7667543
0506994043,66736,Township of Jefferson,05069,Z1,,,43.837,1.002,34.363587,-92.1383809
0506995096,66737,Township of Melton,05069,Z1,,,24.901,0.111,34.1217817,-91.9046328
0506995656,66738,Township of Niven,05069,Z1,,,12.144,0.061,34.181871,-92.0889689
0506995781,66739,Township of Old River,05069,Z1,,,33.968,3.054,34.1886889,-91.6501521
0506995931,66740,Township of Pastoria,05069,Z1,,,30.719,1.852,34.3561629,-92.0195279
0506996091,66741,Township of Plum Bayou,05069,Z1,,,85.913,6.718,34.3167334,-91.8986849
0506996564,66742,Township of Richland,05069,Z1,,,48.227,2.437,34.1433606,-91.793139
0506996734,66743,Township of Roberts,05069,Z1,,,32.325,4.946,34.4397405,-91.7603253
0506997189,66744,Township of Spring,05069,Z1,,,42.197,0.081,34.1713181,-92.1746827
0506997394,66745,Township of Talladega,05069,Z1,,,47.403,0.064,34.0986302,-92.1414177
0506998203,66746,Township of Vaugine,05069,Z1,,,67.363,6.097,34.2239946,-92.0078651
0506998223,66747,Township of Victoria,05069,Z1,,,30.804,2.138,34.1969929,-91.901595
0506998243,66748,Township of Villemont,05069,Z1,,,53.606,4.953,34.1389306,-91.5350312
0506998473,66749,Township of Washington,05069,Z1,,,62.19,0.738,34.2724921,-92.1385727
0506998753,66750,Township of Whiteville,05069,Z1,,,34.698,0.313,34.1068924,-92.0089059
0507190268,66751,Township of Batson,05071,Z1,,,200.896,0.733,35.6203926,-93.615176
0507193136,66753,Township of Grant,05071,Z1,,,41.342,3.445,35.4326143,-93.629681
0507193641,66757,Township of Howell,05071,Z1,,,31.551,10.694,35.3859091,-93.3473622
0507194291,66758,Township of King,05071,Z1,,,23.852,0.179,35.5324324,-93.4912301
0507195961,66763,Township of Perry,05071,Z1,,,282.754,0.836,35.6210001,-93.3391103
0507196066,66766,Township of Pittsburg,05071,Z1,,,19.404,0.737,35.4346925,-93.374275
0507197164,2830586,Township of Spadra 1,05071,Z1,,,2.36,0.022,35.4655622,-93.4859348
0507197169,2830587,Township of Spadra 2,05071,Z1,,,11.061,1.406,35.4416133,-93.4393295
0507197179,2830588,Township of Spadra 3,05071,Z1,,,6.522,0.063,35.4899873,-93.5026724
0507197184,2830589,Township of Spadra 4,05071,Z1,,,18.164,0.425,35.4993738,-93.4175443
0507198358,66772,Township of Ward,05071,Z1,,,23.084,4.445,35.436627,-93.5289692
0507390168,66773,Township of Baker,05073,Z1,,,34.557,0.208,33.3913273,-93.5084491
0507392956,66774,Township of French,05073,Z1,,,31.713,4.466,33.0728389,-93.5689178
0507393286,66775,Township of Hadley,05073,Z1,,,54.416,0.131,33.3692946,-93.4433621
0507394351,66776,Township of La Grange,05073,Z1,,,41.094,0.257,33.4286579,-93.5882532
0507395031,66777,Township of Mars Hill,05073,Z1,,,53.484,0.196,33.2620042,-93.5591579
0507396719,66778,Township of Roane,05073,Z1,,,162.009,3.96,33.1128902,-93.708764
0507396819,66779,Township of Russell,05073,Z1,,,26.595,1.5,33.4418825,-93.6857128
0507397254,66780,Township of Steel,05073,Z1,,,74.392,3.038,33.3204371,-93.6368111
0507398288,66781,Township of Walker Creek,05073,Z1,,,51.213,2.858,33.1426745,-93.5274933
0507790553,66805,Township of Big Creek,05077,Z1,,,38.829,1.12,34.680847,-90.9870872
0507791893,66806,Township of Council,05077,Z1,,,34.877,7.395,34.824741,-90.473542
0507792751,66807,Township of Fleener,05077,Z1,,,54.064,0.174,34.8658882,-91.0217256
0507793311,66808,Township of Hampton,05077,Z1,,,55.362,0.029,34.7774849,-91.0217579
0507793326,66809,Township of Hardy,05077,Z1,,,18.162,3.414,34.6764535,-90.6093686
0507793726,66810,Township of Independence,05077,Z1,,,123.36,3.874,34.7651103,-90.7053158
0507795751,66812,Township of Oak Forest,05077,Z1,,,35.364,0.0,34.7829803,-90.8895901
0507796574,66813,Township of Richland,05077,Z1,,,40.516,0.013,34.6772224,-90.7667417
0507796844,66814,Township of Saint Francis,05077,Z1,,,71.55,5.785,34.7918458,-90.5566412
0507797204,66815,Township of Spring Creek,05077,Z1,,,36.709,0.022,34.7007283,-90.8953684
0507797444,66816,Township of Texas,05077,Z1,,,43.143,0.053,34.861746,-90.8718605
0507797988,66817,Township of Union,05077,Z1,,,47.87,0.46,34.8719988,-90.7301585
0507990138,66819,Township of Auburn,05079,Z1,,,50.796,4.487,34.0508445,-91.5238078
0507990243,66820,Township of Bartholomew,05079,Z1,,,58.198,0.566,34.0290054,-91.7785501
0507991298,66821,Township of Cane Creek,05079,Z1,,,66.356,0.69,33.9371986,-91.8102298
0507991598,66822,Township of Choctaw,05079,Z1,,,49.385,0.697,34.042403,-91.6650045
0507993131,66823,Township of Gould,05079,Z1,,,28.561,0.178,33.9911674,-91.5662561
0507994286,66824,Township of Kimbrough,05079,Z1,,,20.518,2.44,34.1313617,-91.6763719
0507994726,66825,Township of Lone Pine,05079,Z1,,,36.243,0.0,33.8355845,-91.8213341
0507995166,66826,Township of Mill Creek,05079,Z1,,,35.448,0.01,33.8353914,-91.9247279
0507995861,66827,Township of Owen,05079,Z1,,,32.846,0.048,33.9282445,-91.9338959
0507997084,66828,Township of Smith,05079,Z1,,,73.359,0.465,33.8425865,-91.6855092
0507997194,66829,Township of Spring,05079,Z1,,,46.092,0.0,34.0400547,-91.9013022
0507998583,66830,Township of Wells Bayou,05079,Z1,,,61.663,0.726,33.9071293,-91.623613
0508190108,66831,Township of Arden,05081,Z1,,,26.622,0.067,33.670259,-94.2835659
0508190118,66832,Township of Arkinda,05081,Z1,,,16.294,0.0,33.7863672,-94.4534776
0508191103,66833,Township of Burke,05081,Z1,,,46.092,0.152,33.7593415,-94.2907868
0508191313,66834,Township of Caney,05081,Z1,,,22.997,0.366,33.903082,-94.4383651
0508191733,66835,Township of Cleveland,05081,Z1,,,32.334,11.167,33.7479285,-94.0932224
0508192886,66936,Township of Franklin,05081,Z1,,,36.384,9.005,33.6818006,-94.0053342
0508193832,66836,Township of Jackson,05081,Z1,,,38.111,0.146,33.7161494,-94.4153914
0508193966,66837,Township of Jeff Davis,05081,Z1,,,21.666,0.0,33.7938097,-94.3769673
0508194054,66937,Township of Jefferson,05081,Z1,,,51.01,2.269,33.6369277,-94.1118244
0508194141,66838,Township of Jewell,05081,Z1,,,17.503,0.0,33.8537882,-94.4249434
0508194161,66839,Township of Johnson,05081,Z1,,,51.324,2.834,33.5980041,-93.9737394
0508194606,66840,Township of Lick Creek,05081,Z1,,,32.801,0.184,33.7393157,-94.2007204
0508194656,66841,Township of Little River,05081,Z1,,,19.819,0.261,33.8423601,-94.352524
0508196459,66842,Township of Red River,05081,Z1,,,53.089,2.416,33.6137548,-94.2345487
0508196584,66843,Township of Richland,05081,Z1,,,42.668,3.224,33.6186574,-94.4116237
0508198303,66844,Township of Wallace,05081,Z1,,,22.541,0.0,33.6564586,-94.3503978
0508390198,68786,Township of Barber,05083,Z1,,,16.143,0.186,35.1223078,-94.0903157
0508390768,68788,Township of Blue Mountain,05083,Z1,,,13.408,0.581,35.1384978,-93.7183191
0508390838,68789,Township of Boone,05083,Z1,,,46.077,0.379,35.1472236,-93.9417549
0508391303,68790,Township of Cane Creek,05083,Z1,,,22.694,3.252,35.3566127,-93.4499551
0508391403,68791,Township of Cauthron,05083,Z1,,,38.676,0.353,35.0713031,-93.9762924
0508391633,68792,Township of Clark,05083,Z1,,,26.619,0.298,35.3277663,-93.6360121
0508392123,68793,Township of Delaware,05083,Z1,,,46.185,2.722,35.2725174,-93.332573
0508392441,68794,Township of Driggs,05083,Z1,,,23.706,0.051,35.2269855,-93.7914865
0508392616,68795,Township of Ellsworth,05083,Z1,,,20.887,0.112,35.2885692,-93.5487025
0508394166,68796,Township of Johnson,05083,Z1,,,17.387,0.088,35.261756,-93.6434818
0508394716,68797,Township of Logan,05083,Z1,,,18.162,0.278,35.3383443,-93.5276724
0508395431,68798,Township of Mountain,05083,Z1,,,88.555,0.277,35.2025923,-93.5837551
0508395981,68799,Township of Petit Jean,05083,Z1,,,39.925,1.647,35.0713577,-93.7654432
0508396514,68800,Township of Reveilee,05083,Z1,,,33.397,0.16,35.1709209,-93.783607
0508396709,68801,Township of River,05083,Z1,,,14.981,5.638,35.3833319,-93.5286858
0508396999,68803,Township of Shoal Creek,05083,Z1,,,36.024,1.078,35.2707337,-93.433067
0508397009,68804,Township of Short Mountain,05083,Z1,,,73.289,2.542,35.3075868,-93.7291807
0508397044,68805,Township of Six Mile,05083,Z1,,,24.803,0.273,35.2857944,-93.864912
0508397304,68806,Township of Sugar Creek,05083,Z1,,,41.199,0.167,35.0742155,-93.8624361
0508397479,68808,Township of Tomlinson,05083,Z1,,,26.174,0.295,35.0706608,-94.0756352
0508398398,68809,Township of Washburn,05083,Z1,,,40.825,0.462,35.2124138,-93.9291647
0508591113,68810,Township of Butler,05085,Z1,,,37.716,0.159,34.9775765,-91.84885
0508591338,68811,Township of Carlisle,05085,Z1,,,60.783,1.105,34.7794254,-91.7447461
0508591348,68812,Township of Caroline,05085,Z1,,,17.612,0.046,34.9907353,-91.9705789
0508591743,68813,Township of Cleveland,05085,Z1,,,17.774,0.951,34.8621133,-91.8592694
0508591963,68814,Township of Crooked Creek,05085,Z1,,,38.615,1.809,34.5308588,-91.7616082
0508592416,68815,Township of Dortch,05085,Z1,,,17.232,0.446,34.7127002,-92.05068
0508592526,68816,Township of Eagle,05085,Z1,,,13.362,0.554,34.8929564,-91.944649
0508592756,68817,Township of Fletcher,05085,Z1,,,18.954,1.73,34.6225517,-91.8097864
0508592976,68818,Township of Furlow,05085,Z1,,,9.984,0.816,34.8326982,-91.9760176
0508593116,68819,Township of Goodrum,05085,Z1,,,17.268,0.157,34.8869459,-92.0040694
0508593161,68820,Township of Gray,05085,Z1,,,21.395,0.661,34.8308311,-92.038758
0508593271,68821,Township of Gum Woods,05085,Z1,,,37.038,0.505,34.5328055,-91.9756604
0508593306,68822,Township of Hamilton,05085,Z1,,,36.808,0.451,34.6435787,-91.7197781
0508593736,68823,Township of Indian Bayou,05085,Z1,,,37.329,0.047,34.5300157,-91.8673312
0508593756,68824,Township of Isbell,05085,Z1,,,26.541,3.625,34.5608085,-91.6922672
0508594331,68825,Township of Lafayette,05085,Z1,,,17.885,1.117,34.6099793,-91.9928349
0508594761,68826,Township of Lonoke,05085,Z1,,,69.072,6.668,34.7829431,-91.8887372
0508594876,68827,Township of Magness,05085,Z1,,,23.25,0.174,35.0407447,-92.0678228
0508595756,68828,Township of Oak Grove,05085,Z1,,,21.294,0.012,34.9334877,-91.923465
0508595991,68829,Township of Pettus,05085,Z1,,,36.92,0.449,34.614527,-91.895395
0508596265,68830,Township of Prairie,05085,Z1,,,11.484,0.263,34.9004254,-91.8379857
0508596394,68831,Township of Pulaski,05085,Z1,,,21.476,2.996,34.7763419,-92.0336247
0508596669,68832,Township of Richwoods,05085,Z1,,,31.732,4.644,34.7051853,-91.9326465
0508596934,68833,Township of Scott,05085,Z1,,,20.287,0.687,34.6954649,-91.8085103
0508597494,68834,Township of Totten,05085,Z1,,,28.864,0.647,34.8837518,-91.7574749
0508598318,68835,Township of Walls,05085,Z1,,,17.167,0.775,34.6670884,-91.9841326
0508598363,68836,Township of Ward,05085,Z1,,,19.646,0.078,35.0265549,-91.9509489
0508598793,68837,Township of Williams,05085,Z1,,,17.502,0.322,34.651699,-92.0671817
0508598903,68838,Township of York,05085,Z1,,,26.458,0.043,34.9655852,-92.0327983
0508795678,2830712,Township of North,05087,Z1,,,400.234,1.673,36.109973,-93.726108
0508797152,2830713,Township of South,05087,Z1,,,434.003,1.205,35.919326,-93.723149
0508995011,2585795,Township of Marion County,05089,Z1,,,596.598,43.611,36.2683627,-92.6842124
0509390648,69650,Township of Big Lake,05093,Z1,,,73.526,0.194,35.8459378,-90.197708
0509390878,69651,Township of Bowen,05093,Z1,,,36.521,0.011,35.9709938,-90.0377914
0509391093,69652,Township of Burdette,05093,Z1,,,19.686,0.0,35.8090365,-89.9565531
0509391288,69653,Township of Canadian,05093,Z1,,,54.207,9.645,35.9164226,-89.7424503
0509391373,2406944,Township of Carson,05093,Z1,,,64.141,3.563,35.6083123,-90.0146337
0509391593,69655,Township of Chickasawba,05093,Z1,,,105.292,0.321,35.9118616,-89.881692
0509392511,69657,Township of Dyess,05093,Z1,,,45.823,0.0,35.5922243,-90.2260687
0509392761,69658,Township of Fletcher,05093,Z1,,,59.376,4.91,35.7800746,-89.9008582
0509393111,69659,Township of Golden Lake,05093,Z1,,,40.96,2.8,35.5083016,-90.0508819
0509393296,69660,Township of Half Moon Lake,05093,Z1,,,34.412,2.502,35.9156525,-90.0498168
0509393421,69661,Township of Hector,05093,Z1,,,51.451,1.475,35.8417197,-90.0517251
0509394661,69663,Township of Little River,05093,Z1,,,100.151,0.034,35.7174152,-90.1976337
0509394811,69664,Township of McGavock,05093,Z1,,,23.895,0.036,35.4833607,-90.1397545
0509395281,69665,Township of Monroe,05093,Z1,,,66.864,2.125,35.6909625,-90.0211928
0509395606,69666,Township of Neal,05093,Z1,,,58.329,0.02,35.9471735,-90.2170643
0509396939,69668,Township of Scott,05093,Z1,,,38.906,0.235,35.5322378,-90.1575029
0509398768,69671,Township of Whitton,05093,Z1,,,28.554,0.014,35.4890798,-90.2507681
0509590968,68867,Township of Brinkley,05095,Z1,,,31.779,0.648,34.8702893,-91.2222999
0509590993,68868,Township of Brown,05095,Z1,,,29.046,0.593,34.8716736,-91.3220401
0509591178,68869,Township of Cache,05095,Z1,,,80.489,2.997,34.7255792,-91.3076629
0509591698,68870,Township of Cleburne,05095,Z1,,,25.18,0.015,34.5557603,-91.086547
0509592033,68871,Township of Cypress Ridge,05095,Z1,,,39.847,0.479,34.7534633,-91.1344918
0509592381,69187,Township of Dixon,05095,Z1,,,25.203,0.609,34.8563211,-91.1389937
0509592471,68872,Township of Duncan,05095,Z1,,,57.065,1.268,34.6059341,-91.2324957
0509593181,2406953,Township of Greenfield,05095,Z1,,,14.536,0.086,34.9576957,-91.1783593
0509593551,68873,Township of Hindman,05095,Z1,,,22.54,0.65,34.6677572,-91.0875716
0509593843,68874,Township of Jackson,05095,Z1,,,59.673,1.724,34.5170789,-91.1776474
0509594241,68875,Township of Keevil,05095,Z1,,,40.077,0.814,34.7807715,-91.2357959
0509595301,2406960,Township of Montgomery-Smalley,05095,Z1,,,75.353,2.681,34.4151735,-91.0818933
0509596041,68877,Township of Pine Ridge,05095,Z1,,,19.579,0.007,34.6828853,-91.1776502
0509596419,68878,Township of Raymond,05095,Z1,,,16.421,0.0,34.6254049,-91.1182691
0509596604,68879,Township of Richland,05095,Z1,,,32.444,0.071,34.9530483,-91.2368325
0509596744,68880,Township of Roc Roe,05095,Z1,,,38.23,1.144,34.6161897,-91.3744835
0509790028,2062882,Township of Alamo,05097,Z1,,,37.394,0.056,34.4675372,-93.45441
0509790738,1954006,Township of Black Springs,05097,Z1,,,104.542,0.174,34.4927978,-93.8121872
0509791218,1954007,Township of Caddo Gap,05097,Z1,,,60.295,0.325,34.400967,-93.5887647
0509791318,68884,Township of Caney,05097,Z1,,,34.281,0.139,34.3718402,-93.4728974
0509791463,68885,Township of Center,05097,Z1,,,42.009,4.091,34.5385944,-93.5006798
0509792691,1954009,Township of Fannie,05097,Z1,,,43.132,3.876,34.6845943,-93.4491111
0509793611,1954010,Township of Hopper,05097,Z1,,,86.323,0.229,34.3890824,-93.8087308
0509795526,1954011,Township of Mount Ida,05097,Z1,,,105.082,9.043,34.5815069,-93.6019142
0509795671,1954012,Township of Norman,05097,Z1,,,49.606,0.127,34.4677785,-93.6112361
0509795761,1954013,Township of Oden,05097,Z1,,,119.91,0.711,34.6411394,-93.8195048
0509795951,68891,Township of Pencil Bluff,05097,Z1,,,17.903,0.253,34.6504967,-93.7431952
0509797034,1954014,Township of Sims,05097,Z1,,,34.004,0.208,34.6815997,-93.6539298
0509798533,68889,Township of Washita,05097,Z1,,,45.973,1.223,34.6889138,-93.5551272
0509990023,68897,Township of Alabama,05099,Z1,,,45.537,0.109,33.4819173,-93.404075
0509990033,68898,Township of Albany,05099,Z1,,,59.642,0.182,33.6571185,-93.3856485
0509990868,68899,Township of Boughton,05099,Z1,,,41.892,0.466,33.8848026,-93.3578906
0509991323,68900,Township of Caney,05099,Z1,,,36.453,0.194,33.6026123,-93.2680777
0509992646,68901,Township of Emmet,05099,Z1,,,20.855,0.185,33.7093301,-93.4434439
0509993061,68902,Township of Georgia,05099,Z1,,,37.935,0.06,33.6884763,-93.2632374
0509993854,68903,Township of Jackson,05099,Z1,,,40.684,0.026,33.5942445,-93.1613086
0509994436,68904,Township of Leake,05099,Z1,,,38.137,0.017,33.5000404,-93.1688596
0509995266,68905,Township of Missouri,05099,Z1,,,86.294,0.672,33.8155849,-93.4024873
0509995916,68906,Township of Parker,05099,Z1,,,50.787,0.112,33.5637598,-93.406285
0509996449,68907,Township of Redland,05099,Z1,,,60.074,0.602,33.7832227,-93.2351229
0509997419,68908,Township of Taylor,05099,Z1,,,52.654,0.126,33.5035121,-93.2764663
0509998018,68909,Township of Union,05099,Z1,,,46.845,0.141,33.7037497,-93.1542697
0510190573,69672,Township of Big Creek,05101,Z1,,,49.084,0.051,35.8684621,-93.0877366
0510190858,69673,Township of Boston,05101,Z1,,,31.973,0.018,35.7808899,-93.4738954
0510193231,69674,Township of Grove,05101,Z1,,,34.844,0.154,36.02629,-92.9741442
0510193391,69675,Township of Hasty,05101,Z1,,,19.014,0.109,36.0150065,-93.043984
0510193481,69676,Township of Hickory Grove,05101,Z1,,,16.98,0.008,35.8319337,-93.2826231
0510193651,69677,Township of Hudson,05101,Z1,,,18.873,0.078,35.9402936,-93.2405892
0510193865,69678,Township of Jackson,05101,Z1,,,59.583,0.36,36.0041003,-93.1829055
0510194076,69679,Township of Jefferson,05101,Z1,,,80.289,0.084,35.817692,-93.3665228
0510194196,69680,Township of Jones,05101,Z1,,,24.422,0.019,35.7694256,-92.9860911
0510194261,69681,Township of Kentucky,05101,Z1,,,40.205,0.103,35.8789529,-93.4671529
0510194631,69682,Township of Lincoln,05101,Z1,,,14.319,0.01,35.8971437,-93.2687266
0510194786,69683,Township of Low Gap,05101,Z1,,,23.397,0.09,36.0064506,-93.3077344
0510194921,2406958,Township of Marble Falls,05101,Z1,,,58.803,0.293,36.0842569,-93.1502003
0510195591,69685,Township of Murray,05101,Z1,,,16.696,0.036,35.9372729,-93.3294708
0510195826,69686,Township of Osage,05101,Z1,,,31.202,0.064,36.0903324,-93.4109893
0510196081,69687,Township of Pleasant Hill,05101,Z1,,,73.188,0.109,35.8046773,-93.2182912
0510196096,69688,Township of Plumlee,05101,Z1,,,25.615,0.159,36.0842978,-93.3065349
0510196131,69689,Township of Polk,05101,Z1,,,48.395,0.052,35.8856141,-92.9878348
0510196146,69690,Township of Ponca,05101,Z1,,,18.164,0.098,36.0261901,-93.3848249
0510196298,69691,Township of Prairie,05101,Z1,,,17.059,0.014,36.0724616,-93.0125697
0510196614,69692,Township of Richland,05101,Z1,,,48.32,0.051,35.7712779,-93.0925961
0510198188,69694,Township of Van Buren,05101,Z1,,,34.778,0.121,35.9651294,-93.4116234
0510198663,69696,Township of White,05101,Z1,,,35.875,0.21,35.944356,-93.1098412
0510390423,68910,Township of Bethesda,05103,Z1,,,52.736,0.824,33.74016,-92.9469349
0510390898,68911,Township of Bradley,05103,Z1,,,34.553,0.562,33.6039964,-92.7609155
0510390918,68912,Township of Bragg,05103,Z1,,,31.013,0.145,33.595624,-92.9630553
0510390953,68913,Township of Bridge Creek,05103,Z1,,,45.137,0.0,33.4160408,-92.8682569
0510391358,68914,Township of Carroll,05103,Z1,,,56.333,0.844,33.7476633,-92.8305942
0510391763,68915,Township of Cleveland,05103,Z1,,,16.538,0.008,33.6971763,-92.6588087
0510392576,68916,Township of Ecore Fabre,05103,Z1,,,30.28,0.27,33.5831781,-92.8607098
0510392951,68917,Township of Freeo,05103,Z1,,,40.481,0.059,33.7679868,-92.6942187
0510394087,68918,Township of Jefferson,05103,Z1,,,36.93,0.03,33.5107763,-93.0611199
0510394336,68919,Township of Lafayette,05103,Z1,,,52.75,0.357,33.50233,-92.8267051
0510394546,68920,Township of Liberty,05103,Z1,,,36.542,0.142,33.5980619,-93.0579721
0510394971,68921,Township of Marion,05103,Z1,,,53.521,0.026,33.4858083,-92.9574939
0510396434,68922,Township of Red Hill,05103,Z1,,,54.358,2.491,33.7100109,-93.0545401
0510396714,68923,Township of River,05103,Z1,,,28.822,0.298,33.6619563,-92.9064863
0510397049,68924,Township of Smackover,05103,Z1,,,47.47,0.069,33.4180608,-93.0470523
0510398038,68925,Township of Union,05103,Z1,,,15.061,0.0,33.7532205,-92.6118575
0510398168,68926,Township of Valley,05103,Z1,,,43.622,0.153,33.6786208,-92.7729013
0510398483,68927,Township of Washington,05103,Z1,,,56.573,0.745,33.4066623,-92.7078937
0510590088,68928,Township of Aplin,05105,Z1,,,35.962,0.332,34.9630287,-92.9654695
0510591388,68929,Township of Casa,05105,Z1,,,27.123,0.039,35.0215485,-93.0408682
0510591573,68930,Township of Cherry Hill,05105,Z1,,,21.078,0.178,34.9718601,-92.8877736
0510592796,68931,Township of Fourche Lafave,05105,Z1,,,21.103,0.282,35.0067584,-92.8092717
0510593631,68932,Township of Houston,05105,Z1,,,32.192,1.275,35.0429344,-92.6911414
0510594246,68933,Township of Kenney,05105,Z1,,,8.019,0.139,34.9742157,-92.6494447
0510594366,68934,Township of Lake,05105,Z1,,,16.411,0.056,35.0540453,-92.8061001
0510595076,68935,Township of Maumelle,05105,Z1,,,66.187,0.089,34.891555,-92.8490502
0510595636,68936,Township of New Tennessee,05105,Z1,,,54.951,1.23,34.9550914,-93.1069748
0510595966,68937,Township of Perry,05105,Z1,,,15.184,0.401,35.0103966,-92.6236362
0510595986,68938,Township of Petit Jean,05105,Z1,,,19.037,0.015,35.0422967,-92.9057006
0510596414,68939,Township of Rankin,05105,Z1,,,30.167,2.092,34.9579296,-92.7335586
0510596764,68940,Township of Rose Creek,05105,Z1,,,15.334,0.003,35.0618853,-92.9894337
0510597843,68941,Township of Tyler,05105,Z1,,,143.536,0.265,34.8509681,-93.153662
0510598048,68942,Township of Union,05105,Z1,,,19.522,2.605,35.0674839,-92.5858907
0510598123,68943,Township of Union Valley,05105,Z1,,,8.897,0.245,34.963303,-92.8146067
0510598883,68944,Township of Wye,05105,Z1,,,16.634,0.187,34.9445838,-92.6240446
0511190833,68973,Township of Bolivar,05111,Z1,,,71.357,0.829,35.5780616,-90.7155786
0511192386,68974,Township of Dobson,05111,Z1,,,35.941,0.121,35.6643025,-90.9843737
0511193186,68975,Township of Greenfield,05111,Z1,,,69.673,0.17,35.663298,-90.7129257
0511193201,68976,Township of Greenwood,05111,Z1,,,92.421,0.675,35.627869,-90.3677131
0511194666,68977,Township of Little River,05111,Z1,,,93.777,1.169,35.5047348,-90.4688485
