GEOID,GNIS ID,Name,County GEOID,FIPS Class,Population,Housing Units,Land Area,Water Area,Latitude,Longitude
0100190171,161593,Autaugaville Division,01001,Z5,4481,1838,184.615,5.366,32.4560218,-86.7322067
0100190315,165647,Billingsley Division,01001,Z5,2820,1375,149.37,0.608,32.6089354,-86.7563119
0100192106,165648,Marbury Division,01001,Z5,6552,2804,113.034,0.199,32.6429572,-86.5237702
0100192628,165649,Prattville Division,01001,Z5,45432,18714,147.436,3.741,32.4794472,-86.5068128
0100390207,161594,Bay Minette Division,01003,Z5,26446,10797,516.725,10.624,30.7891942,-87.6981651
0100390846,165650,Daphne Division,01003,Z5,57518,22566,114.812,54.977,30.6681314,-87.9091085
0100390963,165651,Elberta Division,01003,Z5,13183,7001,122.04,18.286,30.4102392,-87.5253896
0100391053,165652,Fairhope Division,01003,Z5,33940,16429,65.768,75.65,30.4645517,-87.9114905
0100391152,161595,Foley Division,01003,Z5,68479,55463,174.363,261.378,30.2969467,-87.7888774
0100392754,161596,Robertsdale Division,01003,Z5,30838,11901,170.739,1.639,30.566334,-87.6403482
0100393024,161597,Stockton Division,01003,Z5,3607,1904,375.109,14.499,31.1127694,-87.7862163
0100393042,165653,Summerdale Division,01003,Z5,5934,2457,50.388,0.278,30.4907504,-87.680929
0100590189,165654,Bakerhill Division,01005,Z5,2626,1825,128.848,3.854,31.7736328,-85.2855747
0100590630,165655,Clayton Division,01005,Z5,3619,1218,199.617,0.38,31.9204029,-85.453759
0100590648,165656,Clio Division,01005,Z5,4008,1653,132.556,0.154,31.6731224,-85.5681143
0100591017,161598,Eufaula Division,01005,Z5,12944,6087,287.771,14.927,31.995114,-85.2431998
0100591989,165657,Louisville Division,01005,Z5,1560,919,136.216,0.193,31.8001677,-85.5725552
0100790531,161599,Centreville-Brent Division,01007,Z5,11938,5151,388.054,1.674,32.9331656,-87.1461983
0100792601,165658,Piper-Coleanor Division,01007,Z5,876,487,74.919,0.779,33.0671551,-86.9953602
0100793438,165659,West Blocton Division,01007,Z5,9338,3452,159.496,1.243,33.1248166,-87.1403254
0100990333,165660,Blountsville Division,01009,Z5,7578,3296,96.224,0.577,34.0327756,-86.6356784
0100990414,165661,Brooksville Division,01009,Z5,4477,2005,94.651,0.485,34.165243,-86.4881144
0100990612,165662,Clarence Division,01009,Z5,5914,2475,73.32,0.191,34.0758336,-86.3910085
0100990639,165663,Cleveland Division,01009,Z5,4472,1586,44.994,0.212,33.9988916,-86.5440621
0100991557,165664,Hayden Division,01009,Z5,13476,5365,102.601,0.603,33.8949809,-86.8112195
0100991953,165665,Locust Fork Division,01009,Z5,8327,3667,78.654,0.38,33.8480979,-86.6435392
0100992439,165666,Oneonta Division,01009,Z5,15048,6399,154.461,3.274,33.9105829,-86.4647174
0101191098,165667,Fitzpatrick Division,01011,Z5,679,344,134.459,0.784,32.1615282,-85.9192712
0101191701,165668,Inverness Division,01011,Z5,1445,766,169.147,0.557,31.9936017,-85.7512191
0101192133,165669,Midway Division,01011,Z5,1618,678,165.331,0.19,32.1096678,-85.5220483
0101193249,165670,Union Springs Division,01011,Z5,6415,2766,153.878,0.797,32.1546308,-85.7059072
0101390540,165671,Chapman Division,01013,Z5,1801,880,136.009,0.068,31.7186621,-86.7474627
0101391170,165672,Forest Home Division,01013,Z5,954,684,170.457,0.105,31.8761917,-86.7944197
0101391314,165673,Georgiana-McKenzie Division,01013,Z5,4101,2251,197.941,0.142,31.5914941,-86.7085343
0101391422,165674,Greenville Division,01013,Z5,11951,6026,272.432,0.727,31.8083503,-86.5551076
0101590066,165679,Alexandria-Webster Chapel Division,01015,Z5,11108,4748,100.936,0.693,33.8470716,-85.8932033
0101590099,161600,Anniston Division,01015,Z5,65744,31673,204.727,1.263,33.6733194,-85.8701645
0101590585,165675,Choccolocco Division,01015,Z5,7412,2892,92.402,0.911,33.7368502,-85.6777487
0101591746,165676,Jacksonville Division,01015,Z5,19608,8321,71.108,0.214,33.8565577,-85.7669255
0101592430,165677,Ohatchee Division,01015,Z5,4821,2128,68.609,2.905,33.7668853,-86.0355301
0101592556,165678,Piedmont Division,01015,Z5,7448,3509,68.112,0.394,33.9166876,-85.6388567
0101791107,165680,Five Points Division,01017,Z5,2808,1541,119.017,3.613,33.0377219,-85.3234455
0101791818,165681,La Fayette Division,01017,Z5,4639,2405,181.06,0.789,32.8970024,-85.4440691
0101791827,165682,Lanett Division,01017,Z5,11078,4451,64.99,0.933,32.8860534,-85.2536224
0101792169,165684,Milltown Division,01017,Z5,736,423,80.099,0.827,33.0400692,-85.5149223
0101793272,165683,Valley Division,01017,Z5,13615,6764,71.397,0.171,32.7805646,-85.249187
0101793393,165685,Waverly Division,01017,Z5,1574,843,79.995,0.221,32.7801996,-85.4961336
0101990513,165686,Cedar Bluff-Gaylesville Division,01019,Z5,7072,4162,176.459,15.409,34.3221423,-85.5584891
0101990522,165687,Centre Division,01019,Z5,8534,4641,142.936,6.577,34.0732708,-85.6653181
0101991854,165688,Leesburg Division,01019,Z5,5514,3153,90.196,12.885,34.2042719,-85.7526472
0101992983,165689,Spring Garden Division,01019,Z5,4104,2707,144.027,11.488,34.0750016,-85.501887
0102190603,165690,Clanton Division,01021,Z5,14979,6295,84.536,1.441,32.8513951,-86.6024472
0102191710,165691,Isabella-Pletcher Division,01021,Z5,3550,1510,100.673,0.153,32.7724372,-86.7382548
0102191764,165692,Jemison Division,01021,Z5,14724,5923,129.412,0.616,32.9752004,-86.7827187
0102192097,165693,Maplesville Division,01021,Z5,3565,1489,174.171,0.536,32.7630929,-86.8988487
0102192178,165694,Mineral Springs Division,01021,Z5,3600,1822,105.075,3.524,32.9800633,-86.6057393
0102193285,165695,Verbena Division,01021,Z5,5082,2663,98.971,1.678,32.7595695,-86.5258532
0102390441,161601,Butler Division,01023,Z5,4557,2344,290.625,2.818,32.0663272,-88.2124534
0102391332,165696,Gilbertown-Toxey Division,01023,Z5,3299,2106,223.37,0.729,31.9395048,-88.3485594
0102391908,165697,Lisman Division,01023,Z5,2527,1612,222.889,1.613,32.24277,-88.2134558
0102392925,165698,Silas Division,01023,Z5,2142,1102,176.595,2.221,31.7616598,-88.3023521
0102590675,165699,Coffeeville Division,01025,Z5,1226,823,142.919,2.941,31.8338828,-88.0609605
0102591260,165700,Fulton Division,01025,Z5,1716,714,96.143,0.028,31.798006,-87.6610296
0102591440,161602,Grove Hill Division,01025,Z5,4736,2574,321.513,1.892,31.6348287,-87.6996709
0102591726,165701,Jackson Division,01025,Z5,7056,3359,186.776,2.22,31.6049635,-87.9454419
0102593132,161604,Thomasville Division,01025,Z5,5101,2606,263.699,0.1,31.8915235,-87.8522448
0102593362,161603,Walker Springs Division,01025,Z5,2967,1651,227.371,6.972,31.4010372,-87.821392
0102790126,165702,Ashland Division,01027,Z5,6315,2923,217.253,0.736,33.2234429,-85.8015251
0102791899,165703,Lineville Division,01027,Z5,5374,3043,198.088,0.735,33.3941759,-85.7729166
0102792142,165704,Millerville-Hollins Division,01027,Z5,2499,1106,188.621,0.568,33.189935,-86.0208837
0102991251,165705,Fruithurst Division,01029,Z5,2778,1223,189.761,0.178,33.8244794,-85.4700638
0102991593,161605,Heflin Division,01029,Z5,7755,3439,255.941,0.574,33.6059049,-85.6088407
0102992682,165706,Ranburne Division,01029,Z5,4721,2191,114.427,0.133,33.5790617,-85.3979992
0103190954,165707,Elba Division,01031,Z5,6557,3222,158.245,0.605,31.4143511,-86.0805553
0103190999,165708,Enterprise Division,01031,Z5,39733,17312,214.224,0.167,31.3587384,-85.8687277
0103191341,165709,Goodman Division,01031,Z5,2471,1090,82.458,0.312,31.2532595,-86.0285777
0103191719,165710,Jack Division,01031,Z5,2076,1105,94.272,0.042,31.5584173,-86.0568728
0103191800,165711,Kinston Division,01031,Z5,1594,673,49.435,0.234,31.2757464,-86.1529505
0103193303,165712,Victoria Division,01031,Z5,1800,997,80.432,0.069,31.5448136,-85.9006035
0103390567,161606,Cherokee Division,01033,Z5,3947,2181,243.145,15.254,34.7226229,-88.0131553
0103391863,165713,Leighton Division,01033,Z5,7516,4153,129.044,8.437,34.6996333,-87.5244006
0103391926,165714,Littleville Division,01033,Z5,8329,3466,151.413,3.116,34.6504141,-87.7805362
0103393186,165715,Tri-Cities Division,01033,Z5,37856,18087,69.351,3.757,34.7291461,-87.6483565
0103590504,165716,Castleberry Division,01035,Z5,2628,1594,185.439,1.154,31.3492489,-87.0411512
0103591044,165717,Evergreen Division,01035,Z5,5084,2699,209.274,0.697,31.3804315,-86.858547
0103592016,161607,Lyeffion Division,01035,Z5,1351,836,217.81,0.235,31.596975,-87.0069263
0103592718,165718,Repton Division,01035,Z5,1683,910,151.168,0.3,31.3536159,-87.2468026
0103592916,165719,Shreve Division,01035,Z5,665,405,86.588,0.096,31.4291349,-86.7433555
0103791350,165720,Goodwater-Kellyton Division,01037,Z5,3337,1744,97.066,0.615,32.9944114,-86.0753871
0103792763,165721,Rockford Division,01037,Z5,3692,2340,250.916,5.687,32.8339149,-86.2059768
0103793429,161608,Weogufka-Marble Valley Division,01037,Z5,3294,1958,302.927,9.139,33.0019873,-86.3357887
0103990090,161609,Andalusia Division,01039,Z5,17606,8637,360.485,3.155,31.3292048,-86.5244697
0103991062,165722,Falco Division,01039,Z5,2206,871,204.821,2.601,31.1220604,-86.5861567
0103991134,165723,Florala Division,01039,Z5,3371,1909,155.666,1.482,31.0518361,-86.3485963
0103992448,165724,Opp Division,01039,Z5,9618,4741,170.646,1.819,31.2505224,-86.2666647
0103992781,165725,Rose Hill-Gantt Division,01039,Z5,4846,2518,138.956,4.143,31.4389385,-86.4047496
0104190360,161610,Brantley Division,01041,Z5,2861,1590,185.239,0.814,31.5580293,-86.3207434
0104192007,165726,Luverne Division,01041,Z5,6229,3137,243.969,0.638,31.7255311,-86.3108958
0104192529,165727,Petrey-Highland Home Division,01041,Z5,4054,1835,179.657,0.629,31.9179213,-86.309711
0104390180,165728,Baileyton-Joppa Division,01043,Z5,6458,2788,56.793,0.483,34.2655212,-86.5732357
0104390369,165729,Bremen Division,01043,Z5,8676,4191,147.743,6.517,33.9749585,-86.9723152
0104390774,165730,Crane Hill Division,01043,Z5,2865,1892,43.839,8.117,34.0562608,-87.0540483
0104390810,165731,Cullman Division,01043,Z5,29848,13283,79.332,1.604,34.158554,-86.8436261
0104391521,165732,Hanceville Division,01043,Z5,7872,3522,72.941,0.498,34.0279799,-86.7987611
0104391647,165733,Holly Pond Division,01043,Z5,4852,1966,54.105,0.479,34.1617836,-86.6357421
0104391773,165734,Jones Chapel Division,01043,Z5,5023,1958,83.365,0.744,34.2183247,-87.0576576
0104391962,165735,Logan Division,01043,Z5,4122,1714,51.284,0.324,34.1562267,-86.9687602
0104392934,165736,Simcoe Division,01043,Z5,8311,3281,59.549,0.498,34.2402073,-86.7258866
0104393330,165737,Vinemont Division,01043,Z5,9097,3838,64.289,0.626,34.2728905,-86.8841952
0104393420,165738,Welti Division,01043,Z5,2339,1105,21.509,0.384,34.135545,-86.729005
0104590828,165739,Daleville Division,01045,Z5,10606,5814,60.842,0.0,31.2674784,-85.73936
0104590936,165740,Echo Division,01045,Z5,2232,1120,95.44,0.12,31.493178,-85.471693
0104591203,165741,Fort Rucker Division,01045,Z5,,,66.595,1.082,31.3886187,-85.7229816
0104592376,165742,Newton-Midland City Division,01045,Z5,10374,4648,100.294,0.04,31.3187425,-85.5301297
0104592466,165743,Ozark Division,01045,Z5,21083,9747,237.941,0.322,31.5088712,-85.6364741
0104790486,165744,Carlowville Division,01047,Z5,684,365,195.566,1.976,32.1316423,-87.049221
0104792457,165746,Orrville Division,01047,Z5,2408,1114,208.935,2.612,32.3282549,-87.2123292
0104792808,165747,Safford Division,01047,Z5,390,229,152.464,2.009,32.3138029,-87.3548774
0104792844,165748,Sardis Division,01047,Z5,1427,851,79.177,1.332,32.2728637,-87.021388
0104792880,161611,Selma Division,01047,Z5,27766,14055,262.517,4.724,32.4884439,-87.0061258
0104792883,165745,Selmont-Tyler Division,01047,Z5,4861,2335,80.082,2.451,32.3318291,-86.9155157
0104990693,165749,Collinsville Division,01049,Z5,4185,1839,79.879,0.393,34.2665991,-85.8773309
0104990792,165750,Crossville Division,01049,Z5,8934,3181,58.442,0.094,34.2570496,-86.028038
0104991206,165751,Fort Payne Division,01049,Z5,19945,8655,161.289,0.559,34.4139039,-85.7189247
0104991269,165752,Fyffe Division,01049,Z5,6103,2568,82.722,0.009,34.4367461,-85.9718555
0104991323,165753,Geraldine Division,01049,Z5,5793,2655,82.77,0.039,34.3518473,-86.0013465
0104991611,165754,Henagar Division,01049,Z5,3783,1478,44.238,0.038,34.6122909,-85.7218208
0104991692,165755,Ider Division,01049,Z5,5747,2365,78.335,0.0,34.729368,-85.6366785
0104992655,165756,Rainsville-Sylvania Division,01049,Z5,13748,5829,94.744,0.199,34.5182877,-85.8237575
0104993276,165757,Valley Head-Mentone Division,01049,Z5,3708,2283,94.659,0.255,34.5864851,-85.5897022
0105190855,165758,Deatsville Division,01051,Z5,10622,3232,63.56,4.746,32.6429785,-86.3568274
0105190945,165759,Eclectic Division,01051,Z5,7969,5279,110.122,18.183,32.6703187,-86.0024314
0105190972,165760,Elmore Division,01051,Z5,30218,12238,66.111,4.258,32.5044309,-86.3534343
0105193087,165761,Tallassee Division,01051,Z5,8106,3462,122.34,2.642,32.5160346,-85.9795277
0105193141,165762,Titus Division,01051,Z5,5337,2181,108.431,3.658,32.7050312,-86.2177696
0105193456,165763,Wetumpka Division,01051,Z5,26417,10693,147.957,5.034,32.542755,-86.1737719
0105390153,165764,Atmore Division,01053,Z5,11836,5880,113.605,0.935,31.056917,-87.4604571
0105390378,165765,Brewton Division,01053,Z5,10343,4831,163.531,1.829,31.1527372,-87.1311978
0105390927,161612,East Escambia Division,01053,Z5,5872,2756,364.597,3.623,31.1152402,-86.8905058
0105391125,165766,Flomaton Division,01053,Z5,3590,1821,128.086,0.678,31.1086563,-87.2802646
0105392034,165767,McCullough-Huxford Division,01053,Z5,5054,1471,175.589,0.667,31.1815454,-87.4755945
0105590081,165768,Altoona Division,01055,Z5,4926,2507,79.323,0.259,34.0558387,-86.2619841
0105591278,165769,Gadsden Division,01055,Z5,70548,32813,186.003,10.124,33.9753009,-86.0575077
0105591638,165770,Hokes Bluff Division,01055,Z5,9663,4454,79.204,1.766,34.016726,-85.8274198
0105591980,165771,Lookout Mountain Division,01055,Z5,2639,1274,50.549,0.026,34.131515,-85.9242982
0105592268,165772,Mountainboro Division,01055,Z5,9550,4085,69.358,0.198,34.1378315,-86.1202122
0105593213,165773,Turkeytown Division,01055,Z5,3910,1600,33.784,1.092,34.0643418,-85.863656
0105593465,165774,Wills Valley Division,01055,Z5,1972,754,36.923,0.019,34.1444937,-86.0030279
0105790279,165775,Berry Division,01057,Z5,3422,1340,165.135,0.213,33.6474473,-87.6070653
0105791089,165776,Fayette Division,01057,Z5,8235,4269,200.039,1.293,33.643481,-87.8397688
0105792380,165777,Northeast Fayette Division,01057,Z5,1282,656,120.232,0.028,33.808499,-87.6367739
0105793495,165778,Winfield-Glen Allen Division,01057,Z5,3234,1533,142.278,0.138,33.8425961,-87.8353847
0105992547,165779,Phil Campbell Division,01059,Z5,6361,2588,135.549,1.033,34.3579105,-87.6989614
0105992691,165780,Red Bay Division,01059,Z5,5117,2615,130.148,2.607,34.4879602,-88.0591784
0105992799,165781,Russellville Division,01059,Z5,19042,7952,263.094,7.177,34.4911926,-87.7444009
0105993312,165782,Vina Division,01059,Z5,1458,810,105.168,1.746,34.3657313,-88.0127095
0106190252,165783,Bellwood-Coffee Springs Division,01061,Z5,1725,1118,84.412,0.417,31.1551768,-85.8859688
0106191305,165784,Geneva Division,01061,Z5,5629,2423,56.195,0.604,31.0507978,-85.9113163
0106191530,165785,Hartford Division,01061,Z5,5450,2585,131.443,1.115,31.0725916,-85.7358628
0106192835,165786,Samson Division,01061,Z5,4597,2498,166.772,1.972,31.0882555,-86.0871566
0106192952,165787,Slocomb Division,01061,Z5,9325,3931,135.663,0.358,31.1061661,-85.572125
0106390342,165788,Boligee Division,01063,Z5,454,456,71.292,1.206,32.7629838,-88.0276767
0106391026,161613,Eutaw Division,01063,Z5,3824,1865,193.992,3.914,32.8968647,-87.8766488
0106391179,165789,Forkland-Tishabee Division,01063,Z5,1738,981,149.105,5.667,32.652901,-87.8972139
0106392088,161614,Mantua-West Greene Division,01063,Z5,1573,956,232.634,2.115,32.975634,-88.0287934
0106591413,165790,Greensboro Division,01065,Z5,3467,1959,19.005,0.284,32.6937782,-87.5971421
0106591414,165792,Greensboro Northeast Division,01065,Z5,1375,669,111.086,0.771,32.784204,-87.5278527
0106591415,165794,Greensboro South Division,01065,Z5,689,342,69.107,2.326,32.6373104,-87.660903
0106592259,165791,Moundville Division,01065,Z5,4327,1611,132.941,1.097,32.9462573,-87.5556261
0106592345,165793,Newbern Division,01065,Z5,1475,799,113.147,2.027,32.5441876,-87.641357
0106592853,165795,Sawyerville Division,01065,Z5,2135,1147,102.711,3.276,32.7460809,-87.7332693
0106593015,165796,Stewart-Akron Division,01065,Z5,1281,987,95.994,2.729,32.8644631,-87.7010217
0106790009,165797,Abbeville Division,01067,Z5,4581,2274,172.799,0.233,31.598084,-85.3148341
0106791485,165798,Haleburg Division,01067,Z5,1783,763,120.686,0.066,31.4099231,-85.1497125
0106791584,165799,Headland-Newville Division,01067,Z5,8179,3639,137.87,0.049,31.4023519,-85.3236024
0106792907,165800,Shorterville Division,01067,Z5,2907,2475,130.571,6.034,31.6146703,-85.1464918
0106990702,165801,Columbia Division,01069,Z5,1274,576,43.565,0.131,31.2475988,-85.147746
0106990747,165802,Cottonwood Division,01069,Z5,5391,2713,78.825,0.366,31.0702411,-85.2999826
0106990900,161615,Dothan Division,01069,Z5,90210,41950,265.295,0.768,31.2183663,-85.3764208
0106991368,165803,Gordon Division,01069,Z5,2228,1093,118.269,0.233,31.0771088,-85.1158906
0106992070,165804,Madrid Division,01069,Z5,8525,3442,73.873,0.351,31.0734843,-85.4292385
0107190387,165805,Bridgeport Division,01071,Z5,3285,1744,35.89,1.096,34.9499947,-85.7585109
0107191971,165806,Long Island Division,01071,Z5,6311,2801,134.598,5.258,34.852143,-85.7005517
0107192475,165807,Paint Rock Division,01071,Z5,3680,1710,99.863,0.364,34.6775928,-86.2564796
0107192610,165808,Pisgah Division,01071,Z5,4046,2130,76.334,2.874,34.6992769,-85.8080392
0107192637,165809,Princeton Division,01071,Z5,2097,1105,213.17,0.648,34.8669037,-86.2181979
0107192862,165810,Scottsboro Division,01071,Z5,20739,9366,194.088,19.31,34.7008819,-86.057374
0107192871,165811,Section Division,01071,Z5,6792,3087,109.578,12.089,34.5687297,-85.970662
0107193006,165812,Stevenson Division,01071,Z5,5889,2854,214.494,7.139,34.8858352,-85.9288552
0107390324,161616,Birmingham Division,01073,Z5,447643,216755,317.994,1.431,33.5142415,-86.8261328
0107390405,165813,Brookside Division,01073,Z5,3751,1607,40.834,0.185,33.6828839,-86.9198936
0107390621,165814,Clay Division,01073,Z5,13792,5656,37.384,0.471,33.704332,-86.5837001
0107390722,165815,Concord-Rock Creek Division,01073,Z5,7405,3057,32.535,0.217,33.4435853,-87.0526748
0107391296,165816,Gardendale Division,01073,Z5,23470,9819,77.102,0.083,33.6975444,-86.8063047
0107391404,165817,Graysville-Adamsville Division,01073,Z5,11274,5141,45.247,0.494,33.618305,-86.9792286
0107391431,165818,Greenwood Division,01073,Z5,26477,10851,49.255,0.561,33.3018369,-86.9740121
0107391656,165819,Hoover Division,01073,Z5,53257,23069,44.648,0.318,33.3953351,-86.8643108
0107391791,165820,Kimberly-Morris Division,01073,Z5,11197,4700,44.03,0.034,33.7706931,-86.7449662
0107391845,165821,Leeds Division,01073,Z5,16745,6884,41.801,1.016,33.5092739,-86.6141544
0107392124,165822,Maytown-Sylvan Springs Division,01073,Z5,4140,1663,65.222,0.491,33.5394886,-87.0641695
0107392385,165823,North Johns Division,01073,Z5,5229,2466,137.448,3.258,33.4118793,-87.172964
0107392484,165824,Palmerdale Division,01073,Z5,6320,2300,20.544,0.408,33.7427792,-86.6492327
0107392745,165825,Robbins Crossroads Division,01073,Z5,6038,2448,35.516,0.374,33.7316359,-86.9944509
0107393204,165826,Trussville Division,01073,Z5,22641,9012,33.807,0.66,33.6167077,-86.5869513
0107393366,165827,Warrior Division,01073,Z5,6939,2759,43.715,0.093,33.8049883,-86.8642113
0107393447,165828,West Jefferson Division,01073,Z5,3426,1355,44.483,2.488,33.5753902,-87.143654
0107592151,165829,Millport Division,01075,Z5,4456,2163,196.917,0.118,33.607407,-88.0965548
0107593033,165830,Sulligent Division,01075,Z5,4085,1950,217.533,0.171,33.946122,-88.0969267
0107593294,165831,Vernon Division,01075,Z5,5268,2994,190.332,0.329,33.7654653,-88.0972218
0107790657,165832,Cloverdale Division,01077,Z5,6329,2561,83.661,0.282,34.9479156,-87.783636
0107791143,165833,Florence Division,01077,Z5,52356,25094,96.245,5.695,34.8900286,-87.6443723
0107791782,165834,Killen Division,01077,Z5,16760,7411,103.093,7.348,34.9113892,-87.5030476
0107791872,165835,Lexington Division,01077,Z5,5001,2170,53.537,2.415,34.9200559,-87.391758
0107792412,165836,Oakland Division,01077,Z5,3889,2053,97.729,9.041,34.8169523,-87.8127064
0107792772,165837,Rogersville Division,01077,Z5,8721,4343,114.023,9.056,34.8860175,-87.2866632
0107793384,165838,Waterloo Division,01077,Z5,1981,1169,119.762,17.713,34.9449142,-88.0154484
0107991548,165839,Hatton Division,01079,Z5,4614,1832,87.636,0.665,34.56763,-87.4175966
0107991629,165840,Hillsboro Division,01079,Z5,1675,890,62.826,10.702,34.6687752,-87.1842491
0107992241,165841,Morris Chapel Division,01079,Z5,10353,4795,75.778,0.57,34.5472343,-87.1847216
0107992250,165842,Moulton Division,01079,Z5,8452,3657,128.974,0.391,34.4318069,-87.2945151
0107992286,165843,Mount Hope Division,01079,Z5,1748,794,139.517,0.766,34.3991567,-87.4415512
0107992979,165844,Speake-Oakville Division,01079,Z5,2180,1008,77.736,0.247,34.3807219,-87.1666773
0107993159,165845,Town Creek-Courtland Division,01079,Z5,4160,2341,118.218,13.179,34.6954938,-87.3464907
0108190162,165846,Auburn-Opelika Division,01081,Z5,105785,48170,140.261,1.535,32.6291426,-85.4122185
0108190243,165847,Beauregard-Marvyn Division,01081,Z5,12883,5323,126.919,1.162,32.5011433,-85.3496948
0108190288,165848,Beulah Division,01081,Z5,7497,3633,70.38,1.716,32.6801124,-85.2335261
0108191944,165849,Loachapoka-Roxana Division,01081,Z5,11923,4458,134.117,0.805,32.649899,-85.5831419
0108192962,165850,Smiths Station Division,01081,Z5,39575,15925,135.88,3.074,32.5762254,-85.1453584
0108390144,161617,Athens Division,01083,Z5,81736,34222,378.23,30.687,34.8210383,-86.9765315
0108392232,165851,Mooresville Division,01083,Z5,22168,7808,92.433,9.48,34.6576305,-86.8549692
0108392817,165852,Salem Division,01083,Z5,3673,1457,92.736,3.622,34.9243504,-87.1351726
0108590270,165853,Benton-Collirene Division,01085,Z5,1999,950,113.236,0.803,32.230078,-86.7853854
0108591197,165855,Fort Deposit Division,01085,Z5,2509,1180,183.367,0.802,32.0365559,-86.5870864
0108591566,165856,Hayneville Division,01085,Z5,3273,1481,155.113,2.109,32.1904095,-86.4963892
0108591998,165857,Lowndesboro Division,01085,Z5,650,509,106.724,4.797,32.3121039,-86.6530143
0108592245,165854,Mosses Division,01085,Z5,1577,707,157.644,0.473,32.0911856,-86.7767132
0108791188,165858,Fort Davis Division,01087,Z5,668,319,77.562,0.326,32.2929968,-85.7373568
0108791917,165859,Little Texas-Society Hill Division,01087,Z5,1083,751,93.829,0.461,32.4272369,-85.5202556
0108792403,165860,Notasulga Division,01087,Z5,2399,1248,97.358,0.772,32.5193812,-85.6877063
0108792898,165861,Shorter-Hardaway Division,01087,Z5,2136,946,104.976,1.156,32.3486932,-85.9039261
0108793230,165862,Tuskegee Division,01087,Z5,11919,5981,107.346,1.145,32.4241639,-85.7690561
0108793376,165863,Warriorstand-Creek Stand Division,01087,Z5,746,419,127.595,0.682,32.3082774,-85.5566891
0108991467,165865,Gurley Division,01089,Z5,20816,8274,65.337,0.448,34.6762263,-86.4338884
0108991575,165866,Hazel Green Division,01089,Z5,13876,5706,61.4,0.174,34.9446894,-86.55088
0108991674,161618,Huntsville Division,01089,Z5,252286,113921,236.934,1.441,34.7787598,-86.6133609
0108992052,165867,Madison Division,01089,Z5,45582,18772,22.361,0.059,34.7141756,-86.7495254
0108992061,165868,Madison Crossroads Division,01089,Z5,12435,5711,64.564,0.289,34.9342386,-86.7091582
0108992349,165869,New Hope Division,01089,Z5,17160,6843,110.459,2.421,34.5592396,-86.4403948
0108992358,165870,New Market Division,01089,Z5,17508,7046,151.151,0.732,34.8711914,-86.3992949
0108992695,165864,Redstone Arsenal Division,01089,Z5,1116,383,59.683,3.975,34.633523,-86.6555323
0108993176,165871,Triana Division,01089,Z5,16356,8053,29.73,1.556,34.6187098,-86.7541977
0109190873,165872,Demopolis Division,01091,Z5,9908,4794,171.652,3.053,32.4256247,-87.8863955
0109190882,165873,Dixons Mill Division,01091,Z5,2190,1070,110.555,0.021,32.0593221,-87.7269421
0109191080,165874,Faunsdale Division,01091,Z5,687,312,88.869,0.22,32.4091995,-87.6152997
0109191890,161619,Linden Division,01091,Z5,3364,1936,264.328,1.35,32.2768905,-87.8095428
0109193051,165875,Sweet Water Division,01091,Z5,1800,1019,189.2,0.973,32.0801358,-87.9448251
0109193123,165876,Thomaston Division,01091,Z5,1078,706,152.294,0.155,32.242427,-87.5972644
0109390225,165877,Bear Creek Division,01093,Z5,4411,2296,103.981,0.752,34.214293,-87.7121639
0109390297,165878,Bexar Division,01093,Z5,1281,607,105.403,0.023,34.222484,-88.123043
0109390396,165879,Brilliant Division,01093,Z5,1987,1105,113.641,0.122,34.0553559,-87.7282368
0109391449,165880,Guin Division,01093,Z5,3158,1416,57.565,0.015,33.9908086,-87.899346
0109391476,165881,Hackleburg Division,01093,Z5,2716,1223,87.22,0.101,34.2575499,-87.8659361
0109391512,165882,Hamilton Division,01093,Z5,10056,4783,214.88,0.097,34.1397533,-87.9826378
0109393492,165883,Winfield Division,01093,Z5,5581,2726,59.651,0.119,33.9540996,-87.7551593
0109590054,165884,Albertville-Boaz Division,01095,Z5,41027,15614,95.065,0.276,34.2469458,-86.1984105
0109590108,165885,Arab Division,01095,Z5,15806,6792,61.419,0.445,34.3407032,-86.489213
0109590918,165886,Douglas Division,01095,Z5,7009,2493,59.49,0.186,34.1845631,-86.3212782
0109591395,165887,Grant Division,01095,Z5,10722,5573,133.562,20.227,34.4949342,-86.2792334
0109591458,165888,Guntersville Division,01095,Z5,14393,6442,67.257,17.21,34.3101864,-86.3218444
0109593150,165889,Town Creek Division,01095,Z5,2990,1498,67.079,14.632,34.4211758,-86.1555046
0109593240,165890,Union Grove Division,01095,Z5,6765,3119,81.982,4.35,34.419768,-86.4621622
0109790216,165891,Bayou La Batre Division,01097,Z5,9789,5788,83.208,275.725,30.3075364,-88.1832339
0109790594,165892,Citronelle Division,01097,Z5,9585,4051,238.725,1.355,31.0304418,-88.2664655
0109791386,165893,Grand Bay Division,01097,Z5,35258,13428,150.383,35.289,30.4807197,-88.3185814
0109792187,161620,Mobile Division,01097,Z5,228774,105249,353.535,47.875,30.7914847,-88.0997133
0109792304,165894,Mount Vernon Division,01097,Z5,4651,2010,111.312,2.717,31.07252,-88.0572811
0109792889,165895,Semmes Division,01097,Z5,27092,10194,125.972,3.952,30.839336,-88.3374097
0109793105,165896,Tanner Williams Division,01097,Z5,76859,34696,107.891,2.244,30.6804832,-88.3113666
0109793114,165897,Theodore Division,01097,Z5,21154,9997,58.355,45.513,30.5220355,-88.1077169
0109990234,165898,Beatrice Division,01099,Z5,950,699,202.18,0.532,31.7485241,-87.1063351
0109991233,165899,Frisco City Division,01099,Z5,5625,2465,142.523,0.185,31.3954484,-87.4183931
0109992196,165900,Monroeville Division,01099,Z5,8984,4515,156.746,2.045,31.5119998,-87.4076748
0109992520,165901,Peterman Division,01099,Z5,1355,902,127.813,0.023,31.6042271,-87.2642564
0109993267,165902,Uriah Division,01099,Z5,1497,919,164.94,2.134,31.3280637,-87.6048556
0109993339,165903,Vredenburgh Division,01099,Z5,1169,693,231.467,3.81,31.7168947,-87.4138727
0110191665,165904,Hope Hull Division,01101,Z5,7828,3450,150.828,2.557,32.2003004,-86.3408784
0110192214,165905,Montgomery Division,01101,Z5,177912,85978,176.881,7.953,32.3786242,-86.2975192
0110192295,165906,Mount Meigs Division,01101,Z5,14656,5304,45.625,0.963,32.3654805,-86.0578199
0110192565,165907,Pike Road Division,01101,Z5,23305,9097,185.135,1.704,32.2415135,-86.1175907
0110192592,165908,Pine Level Division,01101,Z5,1532,702,124.641,0.54,32.0663154,-86.0788112
0110192673,165909,Ramer Division,01101,Z5,1964,1268,102.245,0.839,32.0475458,-86.2351001
0110390837,165910,Danville Division,01103,Z5,6168,2936,80.791,0.587,34.4132544,-87.0543677
0110390864,165911,Decatur Division,01103,Z5,63494,27876,80.638,7.13,34.5751669,-87.0325894
0110391035,165912,Eva Division,01103,Z5,5881,2378,95.534,0.356,34.3538978,-86.6996301
0110391071,165913,Falkville Division,01103,Z5,5702,2298,82.03,0.317,34.3709016,-86.9052353
0110391539,165914,Hartselle Division,01103,Z5,23056,9210,56.578,1.714,34.4664079,-86.924284
0110391809,165915,Laceys Spring Division,01103,Z5,8448,4069,94.967,3.258,34.4978331,-86.6396708
0110392970,165916,Somerville Division,01103,Z5,10993,4802,89.138,6.01,34.493297,-86.8003796
0110591503,165917,Hamburg Division,01105,Z5,508,293,84.645,0.946,32.5442217,-87.3097461
0110591602,165918,Heiberger Division,01105,Z5,946,347,123.338,0.556,32.7839329,-87.3631375
0110592115,165919,Marion Division,01105,Z5,4140,1639,116.097,0.937,32.6510635,-87.3678228
0110592997,165920,Sprott Division,01105,Z5,486,431,263.235,1.389,32.6852531,-87.1394731
0110593258,165921,Uniontown Division,01105,Z5,2151,1251,132.355,0.382,32.4583929,-87.4648667
0110790072,1935003,Aliceville Division,01107,Z5,4933,2463,361.645,7.653,33.1426956,-88.103277
0110790495,165923,Carrollton Division,01107,Z5,4531,1624,150.946,0.308,33.273988,-88.156437
0110791008,165924,Ethelsville Division,01107,Z5,1955,1068,135.251,0.478,33.4392643,-88.1946631
0110791359,165925,Gordo Division,01107,Z5,4471,1959,110.71,0.112,33.3982824,-87.8925865
0110792700,165927,Reform Division,01107,Z5,2953,1612,122.835,0.184,33.4223008,-88.0215183
0110990198,165928,Banks-Josie Division,01109,Z5,2599,1329,135.994,0.09,31.8414772,-85.7928264
0110990432,165929,Brundidge Division,01109,Z5,4315,2524,105.482,0.064,31.6879265,-85.8044847
0110991377,165930,Goshen-Shady Grove Division,01109,Z5,2386,1305,132.276,0.2,31.8553867,-86.1092022
0110991620,165931,Henderson-Spring Hill Division,01109,Z5,3013,1499,114.333,0.242,31.6801655,-86.0299967
0110992340,165932,Needmore Division,01109,Z5,1881,853,102.477,0.085,31.9475544,-85.952135
0110993195,165933,Troy Division,01109,Z5,18759,8614,81.505,0.221,31.7902653,-85.951756
0111191161,165934,Folsom Division,01111,Z5,3412,2317,137.787,0.801,33.4262423,-85.5277735
0111192736,165935,Roanoke Division,01111,Z5,8366,4464,117.745,0.745,33.1812437,-85.3401921
0111193348,165936,Wadley Division,01111,Z5,2180,850,91.61,0.982,33.1669411,-85.556115
0111193411,165937,Wedowee Division,01111,Z5,4289,3141,133.238,0.996,33.2854012,-85.5109213
0111193501,165938,Woodland Division,01111,Z5,4063,1689,100.172,0.059,33.371423,-85.3454327
0111390738,161621,Cottonton-Seale Division,01113,Z5,3905,1754,258.371,2.529,32.2179625,-85.1464208
0111390783,165939,Crawford Division,01113,Z5,3415,1736,84.318,0.2,32.4199329,-85.214599
0111391683,165940,Hurtsboro Division,01113,Z5,1869,1018,172.544,0.541,32.2729294,-85.3473528
0111392538,165941,Phenix City Division,01113,Z5,49669,23023,125.95,2.739,32.3652245,-85.0253063
0111590135,165942,Ashville Division,01115,Z5,8032,3726,146.719,3.318,33.8810487,-86.2410844
0111592223,165943,Moody Division,01115,Z5,30879,12308,106.545,0.729,33.5928568,-86.4442375
0111592511,165944,Pell City Division,01115,Z5,24935,11113,112.958,12.38,33.5583379,-86.287883
0111592646,165945,Ragland Division,01115,Z5,4982,2571,130.052,4.504,33.7519175,-86.2008561
0111592988,165946,Springville Division,01115,Z5,24075,8949,135.337,0.818,33.7387322,-86.4307243
0111790036,165947,Alabaster-Helena Division,01117,Z5,136557,53999,205.566,4.232,33.2705761,-86.804613
0111790450,165948,Calera Division,01117,Z5,11139,4314,58.458,0.786,33.1101976,-86.7211105
0111790558,165949,Chelsea Division,01117,Z5,45337,18897,157.327,5.177,33.4165194,-86.5624145
0111790711,165950,Columbiana Division,01117,Z5,13590,5425,140.937,7.227,33.1669894,-86.5928303
0111792205,165951,Montevallo Division,01117,Z5,11001,4186,85.032,0.72,33.1392748,-86.9033249
0111793321,165952,Vincent Division,01117,Z5,4960,2230,89.989,3.288,33.3567595,-86.4358785
0111793474,165953,Wilsonville Division,01117,Z5,4371,1754,48.145,2.604,33.2538408,-86.5117728
0111990261,165954,Belmont Division,01119,Z5,505,277,110.435,2.887,32.5299315,-87.9830387
0111990801,165955,Cuba Division,01119,Z5,1158,699,85.067,0.072,32.3794211,-88.3404164
0111991287,165956,Gainesville Division,01119,Z5,688,438,83.623,1.625,32.777759,-88.2171492
0111991935,165957,Livingston Division,01119,Z5,4980,1940,253.404,1.201,32.6282592,-88.2001814
0111992493,165958,Panola-Geiger Division,01119,Z5,642,508,123.301,2.618,32.8999779,-88.2684602
0111993510,161622,York Division,01119,Z5,4047,2467,247.997,1.109,32.4318408,-88.2055344
0112190576,165959,Childersburg Division,01121,Z5,8339,3923,44.719,1.841,33.2606522,-86.340514
0112191879,165960,Lincoln Division,01121,Z5,9022,4064,77.181,5.339,33.6126336,-86.1071148
0112192322,165961,Munford Division,01121,Z5,10811,4267,82.79,1.042,33.5381385,-85.9198465
0112192709,165962,Renfroe-Laniers Division,01121,Z5,2393,1187,68.354,2.623,33.3893007,-86.2792288
0112193060,165963,Sycamore-Winterboro Division,01121,Z5,4441,2430,115.917,1.164,33.3012074,-86.1816603
0112193069,165964,Sylacauga Division,01121,Z5,21520,10243,143.451,4.407,33.1647781,-86.3311668
0112193078,165965,Talladega Division,01121,Z5,24644,12171,204.406,7.088,33.4431724,-86.0862673
0112390063,165966,Alexander City Division,01123,Z5,18492,9439,158.07,16.498,32.9355504,-85.9433526
0112390468,165967,Camp Hill Division,01123,Z5,1882,1047,57.212,0.166,32.7766082,-85.6492811
0112390819,161623,Dadeville Division,01123,Z5,12045,8453,243.397,28.991,32.8435986,-85.7617698
0112392367,165968,New Site Division,01123,Z5,2419,1186,146.538,1.5,33.039338,-85.7405539
0112393096,165969,Tallassee Division,01123,Z5,6232,2842,111.323,2.559,32.6071804,-85.8080108
0112590018,165970,Abernant Division,01125,Z5,13193,4983,51.129,0.782,33.2706026,-87.1629125
0112590306,165971,Big Sandy-Duncanville Division,01125,Z5,12903,4815,138.598,1.554,33.0599288,-87.4683894
0112590423,165972,Brookwood Division,01125,Z5,5119,2314,158.524,3.986,33.3243217,-87.3275212
0112590666,165973,Coaling-Vance Division,01125,Z5,8672,3313,95.697,0.625,33.1742614,-87.3087371
0112590684,165974,Coker Division,01125,Z5,3579,1405,65.361,0.667,33.2039688,-87.730256
0112590981,165975,Elrod-Moores Bridge-Echola Division,01125,Z5,1441,578,90.925,0.906,33.3559677,-87.8041993
0112591224,165976,Fosters Division,01125,Z5,3356,1420,104.434,2.496,33.0819749,-87.7272426
0112592389,1934999,Northport Division,01125,Z5,39109,16226,81.478,1.301,33.2941001,-87.6487913
0112592826,165977,Samantha Division,01125,Z5,5860,2556,147.517,1.95,33.4615741,-87.669459
0112593222,161624,Tuscaloosa Division,01125,Z5,137595,63811,131.367,7.146,33.2008398,-87.548936
0112593483,165978,Windham Springs Division,01125,Z5,3209,1514,255.834,8.958,33.4642199,-87.4635007
0112790477,165979,Carbon Hill Division,01127,Z5,3148,1867,53.837,0.268,33.9293422,-87.5807573
0112790729,165980,Cordova Division,01127,Z5,2852,1421,44.224,1.156,33.7238185,-87.1873095
0112790891,165981,Dora Division,01127,Z5,8058,3624,54.604,0.819,33.7524647,-87.0880271
0112790990,165982,Empire Division,01127,Z5,2251,1160,36.62,0.39,33.8415548,-87.019377
0112791755,165984,Jasper Division,01127,Z5,23266,9961,90.897,0.849,33.837166,-87.2586645
0112792079,165985,Manchester Division,01127,Z5,5381,2489,54.652,0.611,33.9529133,-87.304295
0112792331,165986,Nauvoo Division,01127,Z5,3419,1592,59.253,0.292,33.9494017,-87.4630928
0112792421,165987,Oakman Division,01127,Z5,3372,1582,172.923,3.7,33.6707562,-87.3665911
0112792502,165988,Parrish Division,01127,Z5,3332,1769,47.347,1.009,33.712661,-87.2663241
0112792642,165983,Quinton-Wegra Division,01127,Z5,1785,859,31.14,1.691,33.6462629,-87.1409585
0112792943,165989,Sipsey Division,01127,Z5,4929,2474,71.189,2.941,33.9052516,-87.14768
0112793168,165990,Townley Division,01127,Z5,3093,1432,74.374,0.406,33.8491399,-87.4353765
0112990549,165991,Chatom Division,01129,Z5,3859,2056,250.069,0.926,31.5297536,-88.2330622
0112991242,165992,Fruitdale Division,01129,Z5,1797,1161,287.996,0.825,31.269431,-88.3184067
0112992043,165993,McIntosh Division,01129,Z5,3773,1790,154.524,1.827,31.2335597,-88.0653032
0112992160,165994,Millry Division,01129,Z5,2757,1307,153.854,0.255,31.6255536,-88.3427426
0112993357,165995,Wagarville Division,01129,Z5,3084,1460,233.813,4.478,31.4187209,-88.0535152
0113190045,165996,Alberta Division,01131,Z5,1905,779,154.937,8.147,32.1417108,-87.4162493
0113190459,165997,Camden Division,01131,Z5,4391,2338,172.105,8.315,32.0183973,-87.2819335
0113190756,165998,Coy-Fatama Division,01131,Z5,632,387,163.155,0.973,31.8891056,-87.3299142
0113192574,165999,Pine Apple Division,01131,Z5,719,462,212.619,0.232,31.9379134,-87.0096224
0113192583,166000,Pine Hill Division,01131,Z5,2700,1348,185.042,1.868,31.9740859,-87.5599647
0113390027,161625,Addison Division,01133,Z5,7909,5398,230.627,12.808,34.1694392,-87.2191326
0113390909,166001,Double Springs Division,01133,Z5,5733,2727,181.986,5.504,34.1326011,-87.3854082
0113391494,166002,Haleyville Division,01133,Z5,7549,3834,99.734,0.408,34.2189645,-87.5589448
0113392025,166003,Lynn Division,01133,Z5,2446,1152,100.654,0.149,34.061884,-87.5411762
0201301598,1939933,Aleutians East Census Subarea,02013,Z5,3423,1174,6985.375,8030.81,55.224521,-161.9472287
0201601615,1939934,Aleutians West Census Subarea,02016,Z5,5178,1391,4387.37,9729.113,52.2586699,-174.192307
0202003050,1939927,Anchorage Census Subarea,02020,Z5,289069,119717,1706.802,237.706,61.1483033,-149.1900081
0205003580,1939929,Aniak Census Subarea,02050,Z5,1287,748,19074.887,226.459,61.4770527,-156.8105568
0205045510,1939953,Lower Kuskokwim Census Subarea,02050,Z5,17200,5261,21579.991,4674.272,60.3711113,-162.7718117
0206009050,1939931,Bristol Bay Census Subarea,02060,Z5,878,831,481.382,367.627,58.7332561,-156.9810152
0206314420,1939932,Chugach Census Subarea,02063,Z5,6964,3745,9574.349,5613.542,60.6100835,-146.1305415
0206617350,1939935,Copper River Census Subarea,02066,Z5,2626,2597,24647.357,470.019,61.8834538,-143.9681046
0206818765,1939937,Denali Census Subarea,02068,Z5,2029,1306,12639.746,26.826,63.671514,-150.0116573
0207019000,1939938,Dillingham Census Subarea,02070,Z5,4780,2416,18353.188,2274.861,59.7139951,-158.3482702
0209024450,1939940,Fairbanks North Star Census Subarea,02090,Z5,95555,42695,7334.994,99.948,64.8077662,-146.5654229
0210031160,1939941,Haines Census Subarea,02100,Z5,2077,1401,2334.933,398.591,59.0758951,-135.4700922
0210533390,1939943,Hoonah-Angoon Census Subarea,02105,Z5,2224,1672,6558.469,3025.66,58.2089013,-135.5590153
0210540560,1939948,Klukwan Census Subarea,02105,Z5,89,69,1.26,0.012,59.3987031,-135.8885477
0211036450,1939945,Juneau Census Subarea,02110,Z5,31969,14170,2702.924,555.066,58.4439352,-134.2303392
0212238460,1939946,Kenai-Cook Inlet Census Subarea,02122,Z5,55167,29798,12435.085,7691.205,60.1082542,-152.185314
0212268610,1939944,Seward-Hope Census Subarea,02122,Z5,4676,2909,3582.565,1012.309,60.1682269,-149.5675467
0213039010,1939947,Ketchikan Census Subarea,02130,Z5,13870,6659,4857.091,1820.468,55.4885149,-131.0305103
0215041200,1939949,Kodiak Island Census Subarea,02150,Z5,12878,5840,6689.486,5462.558,57.6628112,-153.7575159
0215842185,1939969,Kusilvak Census Subarea,02158,Z5,8277,2341,17151.47,2507.145,62.1600127,-163.5254648
0216442780,1939952,Lake and Peninsula Census Subarea,02164,Z5,1007,1355,23896.583,9913.858,58.2790732,-156.5473173
0217047440,1939955,Matanuska-Susitna Census Subarea,02170,Z5,110677,50922,24707.115,560.544,62.3042444,-149.5814755
0218054970,1939957,Nome Census Subarea,02180,Z5,9925,4109,22969.821,5320.423,64.8354505,-164.2443226
0218555970,1939958,North Slope Census Subarea,02185,Z5,10891,2640,88792.783,6035.141,69.3634118,-153.5106055
0218856270,1939959,Northwest Arctic Census Subarea,02188,Z5,7611,2744,35671.697,4948.083,67.0081724,-160.0069785
0219560360,1939961,Petersburg Census Subarea,02195,Z5,3394,1871,2900.89,926.57,57.1140131,-133.0024593
0219834575,2548100,Hyder Census Subarea,02198,Z5,25,72,201.931,10.827,55.9543105,-130.1662434
0219848873,1939956,Metlakatla Indian Community Census Subarea,02198,Z5,1385,489,132.671,94.082,55.1284056,-131.483446
0219864310,1939962,Prince of Wales Census Subarea,02198,Z5,4320,2676,4933.473,5541.888,55.7373042,-133.2972716
0222070590,1939966,Sitka Census Subarea,02220,Z5,8393,4167,2870.201,1904.253,57.1797758,-135.3049651
0223070810,1939967,Skagway Census Subarea,02230,Z5,1308,656,442.928,10.726,59.5599921,-135.3366726
0224072030,1939968,Southeast Fairbanks Census Subarea,02240,Z5,6936,3520,24839.23,282.366,63.8761551,-143.2129807
0227586420,1939970,Wrangell Census Subarea,02275,Z5,2106,1300,2556.105,915.029,56.2936265,-132.1292249
0228286498,1939972,Yakutat Census Subarea,02282,Z5,506,391,7628.411,1536.196,59.8632076,-140.3810186
0229042080,1939951,Koyukuk-Middle Yukon Census Subarea,02290,Z5,3176,2151,73831.434,1038.336,65.7246799,-153.2963169
0229046060,1939954,McGrath-Holy Cross Census Subarea,02290,Z5,902,772,31688.722,394.853,62.9639046,-156.7036647
0229086690,1939973,Yukon Flats Census Subarea,02290,Z5,1193,1035,40247.332,677.474,66.8570251,-144.4484621
0400190612,1934929,Chinle Division,04001,Z5,19433,7475,2084.496,4.319,36.2344534,-109.5387503
0400190918,1934935,Dennehotso Division,04001,Z5,1429,558,589.479,0.182,36.7403816,-109.8543527
0400191071,1934938,Eagar-Springerville Division,04001,Z5,8439,5679,992.278,5.188,34.0145185,-109.3809399
0400191275,1934942,Fort Apache Division,04001,Z5,735,217,778.999,3.567,33.8189729,-109.7038093
0400191326,1934943,Fort Defiance Division,04001,Z5,20686,8621,2451.039,1.886,35.6106896,-109.4632581
0400192805,1934972,Puerco Division,04001,Z5,2594,971,1617.76,1.098,34.9520187,-109.466064
0400192958,1934975,Saint Johns Division,04001,Z5,7507,3461,1530.116,3.852,34.4587367,-109.3967321
0400193315,1934983,Sweetwater Division,04001,Z5,4857,2019,1154.143,0.812,36.7526667,-109.3660797
0400390255,1934922,Benson Division,04003,Z5,11940,6656,921.294,0.447,32.1115746,-110.2713714
0400390306,1934923,Bisbee Division,04003,Z5,29476,14288,622.024,1.349,31.4579213,-110.0834923
0400390408,1934925,Bowie Division,04003,Z5,1888,1222,1373.034,0.429,32.170884,-109.3978482
0400390969,1934936,Douglas Division,04003,Z5,17946,7039,247.685,0.068,31.4196524,-109.4863177
0400391122,1934939,Elfrida Division,04003,Z5,5600,1982,1612.536,2.182,31.6615913,-109.4301511
0400393182,1934980,Sierra Vista Division,04003,Z5,49162,23308,700.446,0.415,31.7225136,-110.158278
0400393825,1934992,Willcox Division,04003,Z5,9446,4817,732.853,1.915,32.17905,-109.8841729
0400591198,1934931,Flagstaff Division,04005,Z5,101657,50875,4722.41,17.211,35.0901791,-111.3933461
0400591530,1934947,Havasupai Division,04005,Z5,0,0,275.829,0.0,36.161,-112.6135429
0400591581,1934948,Hopi Division,04005,Z5,13,39,772.287,0.141,35.9329153,-110.8699892
0400591683,1934950,Hualapai Division,04005,Z5,0,0,904.372,1.457,35.9189455,-113.1118647
0400591838,1934953,Kaibab Plateau Division,04005,Z5,1841,1131,2791.08,11.292,36.6069023,-112.134552
0400593519,1934986,Tuba City Division,04005,Z5,29994,11758,5186.935,12.398,36.2088535,-111.2550668
0400593876,1934993,Williams Division,04005,Z5,11138,6104,3963.454,2.523,35.6298808,-112.4481493
0400791277,2582913,Fort Apache Division,04007,Z5,2241,533,823.965,1.694,33.8729788,-110.3601936
0400791495,1934946,Globe-Miami Division,04007,Z5,16329,8375,688.498,8.689,33.532687,-110.8156595
0400792570,1934967,Payson Division,04007,Z5,24907,18924,796.68,0.316,34.2605058,-111.3562838
0400793109,2585631,San Carlos Division,04007,Z5,5921,1716,1008.891,9.219,33.4863243,-110.4298778
0400793470,1934984,Tonto Basin Division,04007,Z5,3194,2529,1292.269,17.063,33.9288685,-111.0573148
0400793927,1934994,Winkelman Division,04007,Z5,1018,537,147.275,0.264,33.1466789,-110.8047342
0400990357,1934924,Bonita-Klondyke Division,04009,Z5,2748,645,1191.244,0.146,32.6380849,-110.1294434
0400992652,1934969,Pima Division,04009,Z5,5109,1928,521.809,1.81,32.9987538,-109.9656102
0400992907,1934974,Safford Division,04009,Z5,26372,10071,1224.16,4.629,32.7128399,-109.5358541
0400993111,1934978,San Carlos Division,04009,Z5,4631,1297,1684.664,11.745,33.2759827,-109.9477389
0401190663,1934930,Clifton Division,04011,Z5,6364,3073,1401.403,3.475,33.3596869,-109.2715255
0401191020,1934937,Duncan Division,04011,Z5,3088,1349,441.435,1.138,32.7542883,-109.1407407
0401292480,1934965,Parker Division,04012,Z5,16605,13653,4496.579,14.098,33.7293868,-113.9815775
0401390459,1934926,Buckeye Division,04013,Z5,106642,36046,1803.533,0.138,33.3566277,-112.9574411
0401390561,1934928,Chandler Division,04013,Z5,521778,196725,175.64,0.241,33.2736711,-111.7544518
0401390867,1934934,Deer Valley Division,04013,Z5,308528,122857,408.538,1.869,33.8221172,-112.1114014
0401391377,1934944,Gila Bend Division,04013,Z5,30527,9906,2999.255,0.21,32.8570442,-112.7029307
0401392601,1934968,Phoenix Division,04013,Z5,3373374,1405656,1083.584,3.639,33.5167209,-112.0287227
0401393009,1934976,Saint Johns Division,04013,Z5,3402,734,149.725,0.281,33.2778696,-112.1167965
0401393060,1934977,Salt River Division,04013,Z5,6555,2507,120.699,3.243,33.55756,-111.7527427
0401393472,1934985,Tonto National Forest Division,04013,Z5,13077,7868,1066.4,12.419,33.7437312,-111.5505504
0401393774,1934991,Wickenburg Division,04013,Z5,128104,68563,1394.645,1.921,33.8094691,-112.8383951
0401590470,2585633,Bullhead City Division,04015,Z5,71478,39839,742.396,9.099,34.9895821,-114.3668089
0401591885,1934954,Kingman Division,04015,Z5,74541,37481,4636.184,89.777,35.5740534,-114.0350879
0401591964,2582914,Lake Havasu City Division,04015,Z5,62683,38741,2893.397,19.639,34.644756,-113.8161016
0401592340,1934960,North Mohave Division,04015,Z5,8718,3532,5060.144,10.207,36.5224728,-113.3813556
0401791279,1934919,Fort Apache Division,04017,Z5,12366,3915,1022.307,0.723,34.056615,-110.2769215
0401791632,1934949,Hopi Division,04017,Z5,7065,3111,1710.102,0.763,35.8903009,-110.4561711
0401791785,1934952,Indian Wells Division,04017,Z5,6373,2895,1430.754,0.534,35.3780448,-110.257518
0401791860,1934990,Kayenta Division,04017,Z5,9995,4200,1638.163,1.159,36.7133056,-110.3878349
0401792703,1934970,Pinon Division,04017,Z5,5833,2977,823.495,0.165,36.199128,-110.2196205
0401793213,1934981,Snowflake Division,04017,Z5,49317,33974,1558.717,1.721,34.4488452,-110.2392055
0401793952,1934956,Winslow-Holbrook Division,04017,Z5,16795,5874,1765.956,4.249,34.9169602,-110.3243196
0401990051,1934918,Ajo Division,04019,Z5,3946,2182,1534.54,0.0,32.2169068,-112.9777536
0401990153,1934920,Arivaca Division,04019,Z5,91008,40904,1319.201,0.29,31.8090793,-111.3048897
0401992040,1934957,Marana Division,04019,Z5,39770,15398,621.531,0.66,32.3297467,-111.3886123
0401993375,1934963,Tohono O'odham Nation Division,04019,Z5,6417,2185,3775.97,0.276,32.0832556,-112.0682231
0401993570,1934987,Tucson Division,04019,Z5,908806,414709,1937.451,0.748,32.151084,-110.7647731
0402190510,1934927,Casa Grande Division,04021,Z5,66412,27874,199.492,0.117,32.9014096,-111.7980222
0402190816,1934933,Coolidge Division,04021,Z5,19293,7141,119.155,1.594,32.926586,-111.5533318
0402191173,1934940,Eloy Division,04021,Z5,32130,11696,483.228,0.259,32.6449753,-111.5844631
0402191224,1934941,Florence Division,04021,Z5,39571,12701,1079.518,0.786,32.7880983,-111.213964
0402191428,1934945,Gila River Division,04021,Z5,10214,2780,435.861,0.081,33.1111152,-111.8617584
0402192091,1934958,Maricopa-Stanfield Division,04021,Z5,72277,25473,396.513,0.258,32.9046383,-112.0684657
0402192346,1934962,North Pinal Division,04021,Z5,189191,81091,1008.818,1.453,33.2579589,-111.2550188
0402193162,1934979,San Manuel Division,04021,Z5,19748,11013,1226.715,3.458,32.8322987,-110.7147281
0402193377,1934964,Tohono O'odham Nation Division,04021,Z5,383,92,417.384,0.004,32.6349806,-111.9749093
0402392295,1934961,Nogales Division,04023,Z5,44855,16998,680.443,0.92,31.4938865,-111.0121771
0402392550,1934966,Patagonia Division,04023,Z5,3354,1999,555.817,0.265,31.5652333,-110.6436843
0402590204,1934921,Ash Fork Division,04025,Z5,2861,1883,1521.394,0.223,35.1558911,-112.9609154
0402590484,1934988,Camp Verde-Sedona Division,04025,Z5,38350,21455,743.969,0.067,34.6840467,-111.7774968
0402590765,1934932,Congress Division,04025,Z5,10484,6406,2064.765,1.155,34.1873816,-112.7045922
0402590840,1934951,Cordes Lakes-Mayer Division,04025,Z5,7410,3407,1027.924,1.917,34.2630563,-111.9112049
0402592193,1934959,Mingus Mountain Division,04025,Z5,42376,21062,548.103,0.147,34.7335027,-112.142358
0402592754,1934971,Prescott Division,04025,Z5,140175,69819,2216.776,0.877,34.6924693,-112.7921315
0402793264,1934982,Somerton Division,04027,Z5,58138,17044,162.424,0.198,32.5379699,-114.6695242
0402793672,1934989,Wellton Division,04027,Z5,5476,3692,5105.269,0.077,32.7792725,-113.8507225
0402793978,1934995,Yuma Division,04027,Z5,144071,73188,246.127,4.838,32.7229326,-114.5290053
0500190113,63655,Township of Arkansas,05001,Z1,25,30,51.212,5.756,34.0550958,-91.3700679
0500190248,74270,Township of Barton,05001,Z1,299,162,35.086,1.123,34.348903,-91.6490671
0500190298,63656,Township of Bayou Meto,05001,Z1,150,114,57.662,4.249,34.2147476,-91.4787521
0500190938,63657,Township of Brewer,05001,Z1,0,33,44.945,2.805,34.2657755,-91.6296954
0500191578,63658,Township of Chester,05001,Z1,219,215,106.67,9.668,34.049762,-91.2351796
0500191948,63659,Township of Crockett,05001,Z1,61,57,39.43,1.244,34.4201211,-91.2281966
0500193021,63660,Township of Garland,05001,Z1,18,16,54.584,2.488,34.3270642,-91.5102437
0500193261,63661,Township of Gum Pond,05001,Z1,8024,3868,36.3,1.078,34.5230399,-91.541195
0500193436,63662,Township of Henton,05001,Z1,380,216,30.71,0.544,34.4328709,-91.6677082
0500194221,63663,Township of Keaton,05001,Z1,790,562,89.516,1.911,34.4540778,-91.3285025
0500194356,63664,Township of La Grue,05001,Z1,4306,1919,78.229,1.015,34.2823487,-91.3434629
0500194806,63665,Township of McFall,05001,Z1,24,24,35.092,2.32,34.5205134,-91.4330239
0500195126,63666,Township of Mill Bayou,05001,Z1,609,274,59.141,3.502,34.4176357,-91.454111
0500195361,63667,Township of Morris,05001,Z1,639,438,37.291,0.918,34.429321,-91.5715557
0500196111,63668,Township of Point Deluce,05001,Z1,252,125,53.88,1.395,34.1872512,-91.2818824
0500196177,63669,Township of Prairie,05001,Z1,480,304,150.284,4.152,34.2722851,-91.1592429
0500197244,63670,Township of Stanley,05001,Z1,497,340,32.11,2.434,34.1572631,-91.3924797
0500390188,63671,Township of Banner,05003,Z1,99,72,16.383,0.29,33.282573,-91.6008138
0500390288,63672,Township of Bayou,05003,Z1,17,37,29.117,0.078,33.3472825,-91.5890353
0500390373,78861,Township of Bearhouse,05003,Z1,4,4,43.56,0.672,33.3535201,-91.7030869
0500390418,63673,Township of Beech Creek,05003,Z1,130,35,33.167,0.0,33.1461865,-91.6440664
0500391383,63674,Township of Carter,05003,Z1,4386,1869,82.85,0.219,33.2187807,-91.7998799
0500392108,78862,Township of De Bastrop,05003,Z1,76,106,32.132,0.0,33.1135003,-91.5294624
0500392581,63675,Township of Egypt,05003,Z1,9108,4771,84.006,3.776,33.1369246,-91.9983571
0500392631,63676,Township of Elon,05003,Z1,454,336,62.024,0.027,33.0501886,-91.8850303
0500392671,63677,Township of Extra,05003,Z1,131,115,76.591,0.011,33.087015,-91.7635003
0500394751,63678,Township of Longview,05003,Z1,822,350,58.811,0.414,33.3267812,-91.9317333
0500394906,63679,Township of Marais Saline,05003,Z1,167,66,42.361,2.923,33.0551048,-92.044968
0500395136,63680,Township of Mill Creek,05003,Z1,1174,560,73.932,3.263,33.2204788,-91.9861022
0500395306,63681,Township of Montrose,05003,Z1,190,151,21.875,1.198,33.3035171,-91.5097043
0500396156,63682,Township of Portland,05003,Z1,433,173,68.477,0.707,33.2056447,-91.5273478
0500396188,63683,Township of Prairie,05003,Z1,130,77,63.644,0.097,33.2423851,-91.6779707
0500397878,63684,Township of Union,05003,Z1,36,68,19.204,0.211,33.3594766,-91.4997176
0500398658,63685,Township of White,05003,Z1,842,312,42.104,0.006,33.344291,-91.820965
0500398813,63686,Township of Wilmot,05003,Z1,523,299,75.252,1.035,33.0487054,-91.5789137
0500797506,1989186,Township 1,05007,Z1,63039,23422,125.522,17.019,36.4117792,-93.9813867
0500797542,1989194,Township 2,05007,Z1,59603,24034,53.446,0.525,36.2810964,-93.9857251
0500797578,1989187,Township 3,05007,Z1,56558,25064,175.134,15.079,36.2721926,-94.1261163
0500797614,1989188,Township 4,05007,Z1,58825,24104,273.323,2.284,36.2695481,-94.1940421
0500797650,1989189,Township 5,05007,Z1,56516,21872,220.315,1.715,36.335865,-94.1427172
0501191653,63687,Township of Clay,05011,Z1,486,317,62.105,0.0,33.5450683,-92.266576
0501192516,63688,Township of Eagle,05011,Z1,40,134,76.023,1.053,33.2764651,-92.143441
0501194941,63689,Township of Marion,05011,Z1,338,143,30.01,0.15,33.464068,-92.0419943
0501195351,63690,Township of Moro,05011,Z1,16,5,47.337,0.0,33.6637614,-92.2559162
0501195836,63691,Township of Ouachita,05011,Z1,196,77,23.136,0.0,33.415992,-92.2263254
0501195906,63692,Township of Palestine,05011,Z1,243,141,55.747,0.471,33.3417827,-92.0329827
0501195956,63693,Township of Pennington,05011,Z1,8159,3599,173.176,0.884,33.6040958,-92.0952997
0501196694,63694,Township of River,05011,Z1,45,76,68.078,1.091,33.3086464,-92.2771494
0501197374,63695,Township of Sumpter,05011,Z1,12,58,41.335,0.015,33.4112151,-92.3006171
0501198423,63696,Township of Washington,05011,Z1,819,532,72.222,0.007,33.43553,-92.1347141
0501397518,1934781,Township 1,05013,Z1,345,201,18.504,0.019,33.7795943,-92.5340279
0501397554,1934782,Township 2,05013,Z1,534,285,70.188,0.485,33.7453579,-92.4491898
0501397590,1934783,Township 3,05013,Z1,435,284,77.191,0.0,33.6355965,-92.3811685
0501397626,1934784,Township 4,05013,Z1,602,278,63.709,0.103,33.4816637,-92.3774293
0501397662,1934785,Township 5,05013,Z1,445,361,182.24,2.061,33.425736,-92.4984443
0501397686,1934786,Township 6,05013,Z1,856,331,65.572,0.929,33.4975224,-92.6822549
0501397710,1934787,Township 7,05013,Z1,607,244,148.605,0.221,33.6247964,-92.5680213
0501397734,1934788,Township 8,05013,Z1,671,345,1.559,0.0,33.5383166,-92.4724661
0501397758,1934789,Township 9,05013,Z1,222,139,1.034,0.0,33.5307396,-92.4614859
0501591538,2830590,Township of Central,05015,Z1,10779,4741,166.247,0.204,36.3877473,-93.6086306
0501595691,2830593,Township of Northesast,05015,Z1,4302,1873,141.908,0.958,36.4126315,-93.3977419
0501597114,2830592,Township of Southeast,05015,Z1,5558,2045,216.274,0.044,36.2226737,-93.4459351
0501598633,2830591,Township of Western,05015,Z1,7887,5257,105.499,7.564,36.4079365,-93.7879227
0501790883,68717,Township of Bowie,05017,Z1,3029,1340,99.765,3.639,33.4886003,-91.3524641
0501791343,68718,Township of Carlton,05017,Z1,4681,2399,240.031,27.836,33.3406825,-91.2946239
0501796071,68719,Township of Planters,05017,Z1,2287,1375,297.182,22.739,33.1332609,-91.2738011
0501991208,66430,Township of Caddo,05019,Z1,21378,10012,865.971,16.975,34.050926,-93.1763506
0502190463,2063355,Township of Bennett-Lemmons,05021,Z1,383,240,79.116,0.128,36.4276965,-90.403576
0502190913,2063356,Township of Bradshaw-Haywood,05021,Z1,812,364,37.484,0.049,36.3460151,-90.2745291
0502190998,2063357,Township of Brown-Carpenter,05021,Z1,288,173,46.269,0.299,36.4629945,-90.6950273
0502191198,2063358,Township of Cache-Wilson,05021,Z1,257,213,62.126,0.408,36.3169205,-90.5756162
0502191548,2063359,Township of Chalk Bluff-Liddell,05021,Z1,411,243,30.708,0.224,36.4565504,-90.1949644
0502191623,63717,Township of Clark,05021,Z1,153,129,22.599,0.0,36.2856587,-90.6983318
0502191793,2063360,Township of Cleveland-North Kilgore,05021,Z1,2438,1289,55.838,0.117,36.4489678,-90.5562053
0502192551,2063361,Township of East Oak Bluff-Blue Cane,05021,Z1,1394,802,56.34,0.053,36.2546806,-90.2260995
0502193106,2063362,Township of Gleghorn-South Kilgore,05021,Z1,1678,823,44.177,0.382,36.381702,-90.59688
0502194156,63721,Township of Johnson,05021,Z1,273,114,24.693,0.032,36.3229236,-90.3907423
0502194311,63723,Township of Knob,05021,Z1,290,110,26.493,0.0,36.2853852,-90.4360355
0502195611,63726,Township of Nelson,05021,Z1,136,81,22.273,0.0,36.3566564,-90.7258422
0502195721,2063363,Township of North Saint Francis,05021,Z1,2697,1179,22.964,0.15,36.3976156,-90.1859271
0502195941,2063364,Township of Payne-Swain,05021,Z1,388,162,35.681,0.092,36.3131055,-90.1220695
0502196136,63729,Township of Pollard,05021,Z1,459,297,28.924,0.07,36.4453978,-90.283116
0502197144,2063365,Township of South Saint Francis,05021,Z1,1256,701,23.37,0.063,36.3670027,-90.1761915
0502198603,2063366,Township of West Oak Bluff,05021,Z1,1086,579,20.167,0.056,36.2707499,-90.3138531
0502397521,2830714,Township 1,05023,Z1,9246,6899,339.149,26.404,35.601288,-92.004388
0502397557,2830715,Township 2,05023,Z1,15802,8742,214.81,11.776,35.436161,-92.062809
0502590893,63733,Township of Bowman,05025,Z1,350,102,25.776,0.109,34.0194326,-92.1103203
0502593341,63734,Township of Harper,05025,Z1,231,231,24.26,0.077,33.8211584,-92.028674
0502593646,63735,Township of Hudgin,05025,Z1,376,104,25.858,0.006,34.006738,-91.9845589
0502593691,63736,Township of Hurricane,05025,Z1,693,252,27.464,0.133,33.7512091,-92.0162813
0502594296,63738,Township of Kingsland,05025,Z1,993,521,100.02,0.061,33.8943757,-92.3154485
0502594446,63739,Township of Lee,05025,Z1,535,273,41.547,0.154,33.7443765,-92.1156988
0502595221,63740,Township of Miller,05025,Z1,752,258,25.3,0.0,33.9498047,-92.0632326
0502595651,63741,Township of Niven,05025,Z1,208,129,33.039,0.01,34.0182879,-92.1938625
0502596439,63742,Township of Redland,05025,Z1,391,235,88.502,0.205,33.7756321,-92.2268585
0502596689,63743,Township of Rison,05025,Z1,1026,567,27.225,0.023,33.9394694,-92.2083649
0502596789,63744,Township of Rowell,05025,Z1,448,193,34.569,0.014,33.88955,-92.0370784
0502596884,63745,Township of Saline,05025,Z1,8,27,57.179,0.06,34.0132536,-92.3886224
0502597069,63746,Township of Smith,05025,Z1,264,153,40.565,0.097,33.8861147,-92.1407093
0502598683,63747,Township of White Oak,05025,Z1,397,226,25.099,0.006,34.0178185,-92.2735177
0502598748,63748,Township of Whiteville,05025,Z1,819,327,21.506,0.033,34.0141027,-92.0438176
0502990148,66433,Township of Austin,05029,Z1,219,117,21.607,0.104,35.4345503,-92.5447323
0502990468,66434,Township of Bentley,05029,Z1,1458,606,18.077,1.541,35.1019159,-92.7672406
0502990673,66435,Township of Bird,05029,Z1,945,422,24.516,0.05,35.3079264,-92.6141625
0502991398,66436,Township of Catholic Point,05029,Z1,549,233,22.541,0.037,35.341703,-92.5293608
0502991443,66437,Township of Cedar Falls,05029,Z1,104,164,18.865,0.719,35.1389845,-92.9070582
0502993206,66438,Township of Gregory,05029,Z1,722,214,22.175,0.831,35.277456,-92.7988031
0502993211,66439,Township of Griffin,05029,Z1,454,252,41.378,0.407,35.4076958,-92.8048561
0502993511,66440,Township of Higgins,05029,Z1,204,67,8.434,0.027,35.0976613,-92.8830096
0502993636,66441,Township of Howard,05029,Z1,2036,1056,53.805,1.74,35.1454873,-92.5928884
0502994611,66442,Township of Lick Mountain,05029,Z1,560,322,37.948,0.35,35.38465,-92.5862175
0502994836,66443,Township of McLaren,05029,Z1,364,138,13.756,0.257,35.3221426,-92.6748506
0502995036,66444,Township of Martin,05029,Z1,153,59,11.885,1.685,35.1162701,-92.8419188
0502995646,66445,Township of Nichols,05029,Z1,579,271,49.203,0.583,35.4080796,-92.7012034
0502995776,66446,Township of Old Hickory,05029,Z1,97,67,11.758,0.187,35.3286082,-92.8108486
0502995976,66447,Township of Petit Jean,05029,Z1,33,13,7.984,0.087,35.0958609,-93.0064334
0502996859,66448,Township of Saint Vincent,05029,Z1,533,281,18.013,0.159,35.3082183,-92.7272311
0502997259,66449,Township of Steele,05029,Z1,677,293,17.949,0.021,35.2242648,-92.6045505
0502997898,66450,Township of Union,05029,Z1,545,307,30.428,0.016,35.2645859,-92.5367085
0502998433,66451,Township of Washington,05029,Z1,1328,744,35.526,1.409,35.2375521,-92.7026458
0502998578,66452,Township of Welborn,05029,Z1,9308,4031,74.092,4.317,35.169994,-92.7592413
0502998678,66453,Township of White Eagle,05029,Z1,4,24,12.014,0.015,35.0967056,-92.9445037
0503190523,66454,Township of Big Creek,05031,Z1,5309,2298,42.249,0.163,35.9208501,-90.8033473
0503190703,66455,Township of Black Oak,05031,Z1,1925,810,84.864,1.37,35.7765234,-90.3576009
0503190983,66456,Township of Brookland,05031,Z1,5141,2195,36.047,0.107,35.9218,-90.5500093
0503191063,66457,Township of Buffalo,05031,Z1,1915,895,68.409,1.022,35.9206375,-90.3568221
0503193081,66458,Township of Gilkerson,05031,Z1,7815,3079,75.126,0.224,35.7690047,-90.8036754
0503193176,66459,Township of Greenfield,05031,Z1,3627,1366,27.829,0.041,35.7391731,-90.6582598
0503193446,66460,Township of Herndon,05031,Z1,870,408,14.099,0.203,35.932414,-90.7181665
0503194211,66461,Township of Jonesboro,05031,Z1,64291,27002,86.925,0.435,35.8480598,-90.6877574
0503194376,66462,Township of Lake City,05031,Z1,2662,1222,17.014,0.354,35.8207227,-90.4517905
0503194476,66463,Township of Lester,05031,Z1,451,163,31.263,0.308,35.9094987,-90.4634373
0503194671,66464,Township of Little Texas,05031,Z1,164,65,54.065,0.3,35.7508942,-90.9562014
0503195071,66465,Township of Maumelle,05031,Z1,2614,1057,36.416,0.059,35.74965,-90.554147
0503195616,66466,Township of Nettleton,05031,Z1,10607,5507,33.299,0.131,35.8113211,-90.5940403
0503196166,66467,Township of Powell,05031,Z1,4114,1585,23.713,0.291,35.9309471,-90.6471677
0503196221,66468,Township of Prairie,05031,Z1,42,20,10.289,0.181,35.7610248,-90.4451973
0503196384,66469,Township of Promised Land,05031,Z1,64,40,32.205,0.142,35.8506355,-90.974654
0503197414,66470,Township of Taylor,05031,Z1,168,94,11.332,0.082,35.7499454,-90.4831648
0503197439,66471,Township of Texas,05031,Z1,318,177,22.024,0.109,35.8217826,-90.9241721
0503390161,2831591,Justice of the Peace District 1,05033,Z1,,,191.282,0.055,35.6564,-94.3591
0503390901,2831702,Justice of the Peace District 2,05033,Z1,,,32.859,0.272,35.508,-94.3962
0503391651,2831873,Justice of the Peace District 3,05033,Z1,,,3.565,0.014,35.4803,-94.3709
0503392401,2831983,Justice of the Peace District 4,05033,Z1,,,7.039,1.304,35.455981,-94.399173
0503393151,2832148,Justice of the Peace District 5,05033,Z1,,,2.202,0.015,35.4516,-94.3468
0503393901,2832281,Justice of the Peace District 6,05033,Z1,,,2.427,0.048,35.4383,-94.3365
0503394651,2832205,Justice of the Peace District 7,05033,Z1,,,27.851,2.292,35.3933,-94.2913
0503395401,2832125,Justice of the Peace District 8,05033,Z1,,,43.52,2.458,35.4236,-94.2009
0503396151,2831934,Justice of the Peace District 9,05033,Z1,,,15.56,0.0,35.4647,-94.2911
0503396831,2831822,Justice of the Peace District 10,05033,Z1,,,42.086,0.01,35.5465,-94.2443
0503397171,2831748,Justice of the Peace District 11,05033,Z1,,,10.548,0.187,35.5025,-94.2222
0503397441,2831664,Justice of the Peace District 12,05033,Z1,,,47.317,2.464,35.5024,-94.0985
0503397571,2831651,Justice of the Peace District 13,05033,Z1,,,169.012,1.274,35.6705,-94.1107
0503590708,68745,Township of Black Oak,05035,Z1,430,183,64.027,0.726,35.3889286,-90.4217217
0503590803,68746,Township of Bob Ward,05035,Z1,630,315,66.726,0.2,35.0672778,-90.3513013
0503592771,68747,Township of Fogleman,05035,Z1,688,319,72.022,2.526,35.3905446,-90.2264109
0503593810,68748,Township of Jackson,05035,Z1,1283,498,57.59,0.0,35.20616,-90.3344801
0503593961,68749,Township of Jasper,05035,Z1,15489,6079,28.706,0.033,35.2189596,-90.2239242
0503594791,68750,Township of Lucas,05035,Z1,937,741,58.527,16.701,34.9166324,-90.3377116
0503595246,68751,Township of Mississippi,05035,Z1,24138,11287,41.853,5.733,35.1401935,-90.1815936
0503595371,68752,Township of Mound City,05035,Z1,563,217,25.992,1.721,35.2226801,-90.1390664
0503596379,68753,Township of Proctor,05035,Z1,816,368,33.226,1.843,35.0823448,-90.2465025
0503597853,68754,Township of Tyronza,05035,Z1,1968,1071,79.681,0.236,35.2429782,-90.4516764
0503598353,68755,Township of Wappanocca,05035,Z1,667,289,83.461,2.302,35.3080203,-90.2592635
0503991088,66483,Township of Bunn,05039,Z1,0,0,35.743,0.006,34.0161381,-92.5258228
0503991588,66484,Township of Chester,05039,Z1,217,185,58.436,0.005,34.0955288,-92.4834268
0503992451,66485,Township of Dry Run,05039,Z1,261,163,11.845,0.019,33.822618,-92.3681949
0503992776,66486,Township of Fordyce,05039,Z1,3520,1767,31.463,0.027,33.843047,-92.4325489
0503993586,66487,Township of Holly Springs,05039,Z1,239,106,60.067,0.0,33.8453553,-92.6733057
0503993821,66488,Township of Jackson,05039,Z1,216,94,35.798,0.005,33.8440468,-92.5321433
0503994506,66489,Township of Liberty,05039,Z1,34,46,35.427,0.0,33.9299938,-92.5294534
0503994901,66490,Township of Manchester,05039,Z1,411,166,56.868,0.177,34.019756,-92.8604302
0503995661,66491,Township of Nix,05039,Z1,18,60,39.037,0.0,33.9916782,-92.7731572
0503995856,66492,Township of Owen,05039,Z1,823,442,80.932,0.419,33.8834591,-92.8257245
0503996374,66493,Township of Princeton,05039,Z1,107,69,75.935,0.0,33.9540051,-92.6552837
0503997079,66494,Township of Smith,05039,Z1,136,124,75.966,0.01,34.0785366,-92.6533511
0503997099,66495,Township of Southall,05039,Z1,289,209,20.313,0.0,33.9194333,-92.444443
0503998803,66496,Township of Willow,05039,Z1,80,59,49.492,0.0,34.1191338,-92.7872486
0504190888,66497,Township of Bowie,05041,Z1,3820,1858,35.188,0.239,33.612603,-91.4079824
0504191673,66498,Township of Clayton,05041,Z1,467,192,55.116,0.775,33.6927785,-91.3665567
0504192836,66499,Township of Franklin,05041,Z1,487,286,154.761,38.787,33.736372,-91.1559026
0504193301,66500,Township of Halley,05041,Z1,276,149,34.011,0.451,33.5792205,-91.3173487
0504193999,66501,Township of Jefferson,05041,Z1,53,145,53.29,3.07,33.8034192,-91.3954044
0504195251,66502,Township of Mississippi,05041,Z1,52,85,125.642,13.677,34.0492542,-91.0450714
0504196409,66503,Township of Randolph,05041,Z1,4443,2277,33.793,0.054,33.914089,-91.5082112
0504196429,66504,Township of Red Fork,05041,Z1,585,434,130.058,10.845,33.8909815,-91.2576869
0504196554,66505,Township of Richland,05041,Z1,319,155,42.947,0.285,33.7787965,-91.2780867
0504197024,66506,Township of Silver Lake,05041,Z1,334,123,40.212,2.141,33.9403163,-91.4327186
0504198348,66507,Township of Walnut Lake,05041,Z1,205,108,36.208,1.175,33.8251187,-91.5032926
0504390238,66508,Township of Bartholomew,05043,Z1,78,38,74.627,0.658,33.4988878,-91.4983853
0504390378,66509,Township of Bearhouse,05043,Z1,21,9,59.204,0.004,33.4553288,-91.6932952
0504391678,66510,Township of Clear Creek,05043,Z1,236,153,58.755,0.037,33.7438862,-91.8977916
0504391853,66511,Township of Collins,05043,Z1,205,72,57.778,1.51,33.4822504,-91.579972
0504391868,66512,Township of Cominto,05043,Z1,288,165,49.116,1.665,33.5599931,-91.6513379
0504391958,66513,Township of Crook,05043,Z1,282,223,64.275,0.259,33.4699137,-91.9458806
0504392846,66514,Township of Franklin,05043,Z1,520,310,79.294,1.792,33.6621305,-91.5387426
0504394681,66515,Township of Live Oak,05043,Z1,563,254,62.507,0.583,33.7439287,-91.5777352
0504394951,66516,Township of Marion,05043,Z1,11215,5563,115.301,0.459,33.6213607,-91.7746539
0504396889,66517,Township of Saline,05043,Z1,1583,761,62.618,0.022,33.6203341,-91.9245973
0504397224,66518,Township of Spring Hill,05043,Z1,960,342,63.97,0.262,33.7404196,-91.7408215
0504398208,66519,Township of Veasey,05043,Z1,1192,402,81.223,0.004,33.4681602,-91.8207213
0504590443,66520,Township of Benedict,05045,Z1,572,326,30.066,2.341,34.9927586,-92.534963
0504590473,66521,Township of Benton,05045,Z1,953,394,29.274,0.0,35.3204667,-92.2282607
0504590973,66522,Township of Bristol,05045,Z1,304,123,15.569,0.066,35.1588056,-92.1425028
0504591228,66523,Township of Cadron,05045,Z1,76917,32930,91.522,6.995,35.0889422,-92.4339623
0504591258,66524,Township of California,05045,Z1,2281,883,36.33,0.068,35.3179271,-92.3268798
0504591803,66525,Township of Clifton,05045,Z1,2758,1187,24.846,0.023,35.1934712,-92.4665842
0504592023,66526,Township of Cypress,05045,Z1,5150,2205,39.927,0.085,35.0619709,-92.1704083
0504592053,66527,Township of Danley,05045,Z1,5624,2395,43.478,6.321,34.9575088,-92.3959664
0504592521,66528,Township of Eagle,05045,Z1,3203,1205,20.857,0.081,35.1059837,-92.2814441
0504592541,66529,Township of East Fork,05045,Z1,3104,900,16.264,0.012,35.1765815,-92.3789332
0504592651,66530,Township of Enola,05045,Z1,849,446,27.458,0.0,35.2186655,-92.2123022
0504593321,66531,Township of Hardin,05045,Z1,7475,3199,35.414,0.038,35.2294588,-92.3541484
0504593381,66532,Township of Harve,05045,Z1,1120,452,21.541,0.0,35.1593073,-92.2787878
0504595061,66533,Township of Matthews,05045,Z1,436,241,21.777,0.0,35.2434791,-92.2705544
0504595401,66534,Township of Mountain,05045,Z1,270,101,24.142,0.0,35.3185678,-92.1480068
0504595556,66535,Township of Mount Vernon,05045,Z1,290,143,17.894,0.0,35.2392367,-92.1449947
0504595641,66536,Township of Newton,05045,Z1,553,301,17.859,0.006,35.140536,-92.1987356
0504595901,66537,Township of Palarm,05045,Z1,4774,1814,28.106,0.086,35.0464357,-92.2795453
0504596036,66538,Township of Pine Mountain,05045,Z1,3986,1573,17.313,0.662,35.0167885,-92.4446732
0504597918,66539,Township of Union,05045,Z1,2558,878,28.159,0.0,35.2601052,-92.4519414
0504598273,66540,Township of Walker,05045,Z1,1147,495,29.387,0.016,35.3350981,-92.4291499
0504598823,66541,Township of Wilson,05045,Z1,1677,671,30.064,0.034,34.9717805,-92.2726409
0504790043,66542,Township of Alix,05047,Z1,382,154,14.455,0.733,35.4243105,-93.726424
0504790203,66543,Township of Barham,05047,Z1,221,79,9.66,0.001,35.3978072,-93.888465
0504790713,66544,Township of Black Oak,05047,Z1,107,48,20.07,0.053,35.6227705,-94.0142058
0504790848,66545,Township of Boston,05047,Z1,139,66,31.443,0.009,35.6761372,-93.8497039
0504791818,66546,Township of Cobb,05047,Z1,0,0,16.052,0.0,35.7388085,-93.728069
0504791933,66547,Township of Cravens,05047,Z1,45,27,14.072,0.0,35.5476073,-93.9019971
0504792406,66548,Township of Donald,05047,Z1,552,297,14.52,0.07,35.3090562,-93.9429112
0504793241,66549,Township of Grover,05047,Z1,213,196,22.297,0.9,35.4311004,-93.9448161
0504793561,66550,Township of Hogan,05047,Z1,1761,691,17.74,1.226,35.4261554,-93.7693755
0504793696,66551,Township of Hurricane,05047,Z1,109,72,16.311,0.087,35.3660146,-93.9593418
0504793766,66552,Township of Ivy,05047,Z1,712,240,14.628,2.374,35.4894198,-94.0019399
0504794621,66553,Township of Limestone,05047,Z1,1,1,6.025,0.0,35.6749246,-93.7169926
0504794821,66554,Township of McIlroy,05047,Z1,50,23,29.702,0.002,35.6762413,-93.7727402
0504795106,66555,Township of Middle,05047,Z1,1362,537,23.003,1.309,35.4360047,-93.8423206
0504795146,66556,Township of Mill Creek,05047,Z1,243,89,21.457,0.736,35.4266924,-94.0272751
0504795226,66557,Township of Miller,05047,Z1,43,13,8.952,0.0,35.6095849,-94.0601114
0504795336,66558,Township of Morgan,05047,Z1,10,41,28.25,0.002,35.7448312,-93.8458236
0504795411,66559,Township of Mountain,05047,Z1,606,185,23.763,0.027,35.6031196,-93.741513
0504795581,66560,Township of Mulberry,05047,Z1,281,174,22.876,0.042,35.5426184,-93.9814609
0504796232,66561,Township of Prairie,05047,Z1,3327,1545,48.154,0.392,35.2772208,-94.0286256
0504797004,66562,Township of Shores,05047,Z1,0,0,26.743,0.059,35.6761173,-93.9520467
0504797039,66563,Township of Six Mile,05047,Z1,135,94,9.094,0.001,35.2517601,-93.9460192
0504798278,66564,Township of Walker,05047,Z1,324,152,22.974,0.003,35.6161641,-93.8966938
0504798298,66565,Township of Wallace,05047,Z1,112,62,13.735,1.317,35.4856721,-93.9184696
0504798538,66566,Township of Watalula,05047,Z1,383,193,18.111,0.0,35.588045,-93.8264094
0504798568,66567,Township of Weaver,05047,Z1,345,155,18.994,0.008,35.3655079,-94.0381145
0504798688,66568,Township of White Oak,05047,Z1,5315,2374,58.668,1.688,35.5160283,-93.7909508
0504798738,66569,Township of White Rock,05047,Z1,95,57,9.942,0.001,35.590652,-93.9672512
0504798863,66570,Township of Wittich,05047,Z1,347,186,27.276,0.099,35.348924,-93.8593615
0505193291,66591,Township of Hale,05051,Z1,15639,8864,384.202,44.603,34.6217296,-93.2353522
0505193626,66592,Township of Hot Springs,05051,Z1,41221,23383,51.671,2.41,34.493721,-93.0472704
0505194381,66594,Township of Lake Hamilton,05051,Z1,23610,10952,78.982,7.876,34.4313011,-93.0866375
0505198763,66602,Township of Whittington,05051,Z1,19592,9371,162.759,2.042,34.5632408,-92.9965746
0505391268,66603,Township of Calvert,05053,Z1,1085,464,59.574,0.115,34.198761,-92.4296888
0505392068,66604,Township of Darysaw,05053,Z1,781,380,64.985,0.022,34.2337934,-92.2947341
0505392083,66605,Township of Davis,05053,Z1,550,186,47.795,0.057,34.2476479,-92.5079655
0505392118,66606,Township of Dekalb,05053,Z1,724,303,58.302,0.126,34.402607,-92.5325497
0505392726,66607,Township of Fenter,05053,Z1,803,361,37.331,0.063,34.339308,-92.6325203
0505392856,66608,Township of Franklin,05053,Z1,857,236,33.065,0.035,34.4216426,-92.4087737
0505394851,66609,Township of Madison,05053,Z1,894,440,67.281,0.013,34.1201131,-92.3068419
0505395101,66610,Township of Merry Green,05053,Z1,7526,3414,53.851,0.09,34.3223913,-92.4022108
0505396704,66611,Township of River,05053,Z1,1161,485,23.461,0.057,34.3295955,-92.552339
0505397029,66612,Township of Simpson,05053,Z1,1746,937,76.948,0.061,34.4343814,-92.2934665
0505397429,66613,Township of Tennessee,05053,Z1,741,248,68.885,0.401,34.206582,-92.6073172
0505398453,66614,Township of Washington,05053,Z1,1243,453,40.41,0.078,34.3322687,-92.265389
0505790808,66639,Township of Bodcaw,05057,Z1,458,292,52.328,0.03,33.5337956,-93.5462623
0505790823,66640,Township of Bois d'Arc,05057,Z1,478,346,93.764,4.185,33.630998,-93.8152044
0505792163,66641,Township of De Roan,05057,Z1,11358,5325,89.701,0.464,33.6609616,-93.5637855
0505793031,66642,Township of Garland,05057,Z1,664,211,29.335,0.102,33.7901381,-93.5574596
0505795231,66643,Township of Mine Creek,05057,Z1,1105,621,71.824,0.27,33.9195149,-93.7734375
0505795666,66644,Township of Noland,05057,Z1,249,92,27.95,0.083,33.7738221,-93.498043
0505795881,66645,Township of Ozan,05057,Z1,1572,692,106.731,0.175,33.7846106,-93.6806839
0505796444,66646,Township of Redland,05057,Z1,341,234,62.647,0.141,33.9300313,-93.639569
0505796894,66647,Township of Saline,05057,Z1,510,520,51.769,6.449,33.7264644,-93.8598855
0505797229,66648,Township of Springhill,05057,Z1,1494,693,63.949,1.576,33.5474783,-93.6619245
0505798313,66649,Township of Wallaceburg,05057,Z1,975,304,50.738,0.243,33.8871373,-93.521634
0505798548,66650,Township of Water Creek,05057,Z1,574,308,26.464,0.08,33.6460899,-93.6935435
0505990073,66651,Township of Antioch,05059,Z1,323,181,14.31,0.0,34.3087166,-92.9925478
0505990543,66652,Township of Big Creek,05059,Z1,558,212,24.331,0.02,34.3184158,-92.7089359
0505990683,66653,Township of Bismarck,05059,Z1,2367,986,50.457,1.262,34.3357307,-93.1924586
0505991003,66654,Township of Brown Springs,05059,Z1,84,77,34.501,0.166,34.1811421,-92.9469858
0505991123,66655,Township of Butterfield,05059,Z1,1695,626,14.432,0.044,34.4218559,-92.7998658
0505991683,66656,Township of Clear Creek,05059,Z1,254,171,31.437,0.006,34.2082824,-92.7099917
0505992168,66657,Township of De Roche,05059,Z1,1397,628,51.266,0.0,34.3431761,-93.0679733
0505992426,66658,Township of Dover,05059,Z1,609,295,19.912,0.005,34.2841454,-92.7686275
0505992731,66659,Township of Fenter,05059,Z1,14073,5412,55.037,1.103,34.3767597,-92.845522
0505993071,66660,Township of Gifford,05059,Z1,1227,487,17.645,0.019,34.382914,-92.7118501
0505993351,66661,Township of Harrison,05059,Z1,201,87,43.712,0.003,34.2033294,-92.7989581
0505993426,66662,Township of Henderson,05059,Z1,818,480,31.808,0.0,34.371691,-93.3327577
0505994721,66663,Township of Lone Hill,05059,Z1,753,291,30.042,0.277,34.3441029,-92.9354374
0505994881,66664,Township of Magnet,05059,Z1,1431,1059,37.677,0.845,34.4687467,-92.849499
0505995111,66665,Township of Midway,05059,Z1,1270,649,30.206,0.3,34.2913376,-92.8652311
0505995291,66666,Township of Montgomery,05059,Z1,1068,568,28.773,1.679,34.2645194,-93.1005518
0505995841,66667,Township of Ouachita,05059,Z1,657,327,23.564,0.08,34.2289909,-92.9066671
0505996243,66668,Township of Prairie,05059,Z1,1254,496,22.351,0.151,34.2504504,-92.9892505
0505996899,66669,Township of Saline,05059,Z1,2385,864,25.578,0.009,34.4498188,-92.7317207
0505998158,66670,Township of Valley,05059,Z1,718,363,27.905,1.259,34.317092,-93.3011071
0506390128,68756,Township of Ashley,05063,Z1,798,598,34.001,0.0,35.8480529,-91.6278157
0506390223,68757,Township of Barren,05063,Z1,1991,919,40.443,0.092,35.9041481,-91.5377636
0506390503,1954004,Township of Big Bottom-Wycough-Logan,05063,Z1,2189,983,68.501,1.987,35.7082498,-91.4010799
0506390728,1954005,Township of Black River-Marshell,05063,Z1,270,211,54.248,0.931,35.8382303,-91.2955821
0506392008,1954008,Township of Cushman-Union,05063,Z1,1401,686,50.404,0.152,35.8671859,-91.7595085
0506392158,68762,Township of Departee,05063,Z1,20,10,23.017,0.044,35.5562095,-91.4178549
0506392421,68763,Township of Dota,05063,Z1,993,406,49.742,0.0,35.8322811,-91.4128477
0506392686,68764,Township of Fairview,05063,Z1,1323,531,42.135,0.0,35.5748271,-91.6448863
0506392981,68765,Township of Gainsboro,05063,Z1,678,250,29.734,0.038,35.8249971,-91.5140718
0506393171,68766,Township of Greenbrier,05063,Z1,1509,659,38.868,0.628,35.720232,-91.7418549
0506393531,68767,Township of Hill,05063,Z1,204,75,22.05,0.0,35.5548168,-91.518807
0506393661,68768,Township of Huff,05063,Z1,696,190,17.273,0.0,35.6467505,-91.6175714
0506394010,68769,Township of Jefferson,05063,Z1,159,45,24.086,0.026,35.9084406,-91.6785837
0506394516,68770,Township of Liberty,05063,Z1,1098,513,29.975,0.0,35.5794992,-91.7509184
0506394816,68772,Township of McHue,05063,Z1,4255,1533,16.929,0.228,35.7076649,-91.6504988
0506394871,68773,Township of Magness,05063,Z1,405,236,14.045,0.577,35.6925838,-91.4931372
0506395321,68775,Township of Moorefield,05063,Z1,3284,1579,21.556,0.113,35.774194,-91.569132
0506395766,68776,Township of Oil Trough,05063,Z1,874,520,39.199,0.651,35.6083338,-91.4724462
0506396509,68777,Township of Relief,05063,Z1,825,241,29.066,0.016,35.6502753,-91.722979
0506396774,68778,Township of Rosie,05063,Z1,382,185,22.012,0.419,35.6565254,-91.5373399
0506396799,68779,Township of Ruddell,05063,Z1,11537,4863,26.818,0.683,35.7818902,-91.6721563
0506396864,68780,Township of Salado,05063,Z1,1354,545,14.171,0.246,35.7021522,-91.5903189
0506398463,68783,Township of Washington,05063,Z1,551,360,39.724,0.805,35.7906862,-91.8051149
0506398703,68784,Township of White River,05063,Z1,1324,602,15.713,0.184,35.7429751,-91.5187218
0506590133,66692,Township of Athens,05065,Z1,445,150,24.501,0.222,36.0551511,-92.0123798
0506590163,66693,Township of Baker,05065,Z1,258,98,20.053,0.0,36.225813,-91.8281164
0506590233,66694,Township of Barren Fork,05065,Z1,411,163,11.159,0.0,35.9633421,-91.742133
0506590663,66695,Township of Big Spring,05065,Z1,170,105,15.144,0.0,36.010666,-91.7370528
0506591028,66696,Township of Bryan,05065,Z1,449,325,25.901,0.0,36.228516,-92.1061326
0506591618,66697,Township of Claiborne,05065,Z1,119,147,23.235,0.342,36.0956192,-92.0775126
0506592456,66698,Township of Drytown,05065,Z1,305,172,15.198,0.014,35.9716703,-91.7968916
0506592876,66699,Township of Franklin,05065,Z1,464,207,23.888,0.001,36.1569606,-91.7779846
0506593066,66700,Township of Gid,05065,Z1,163,139,20.793,0.0,35.9842673,-91.8563652
0506593251,66701,Township of Guion,05065,Z1,62,51,21.375,0.457,35.9435673,-91.9417884
0506593276,66702,Township of Guthrie,05065,Z1,31,31,30.173,0.0,36.2138852,-92.0067208
0506594021,66703,Township of Jefferson,05065,Z1,2515,1279,30.159,1.285,36.2084351,-91.7262753
0506594316,66704,Township of Lacrosse,05065,Z1,260,106,16.698,0.0,36.0981986,-91.8449979
0506594346,66705,Township of Lafferty,05065,Z1,164,83,23.706,0.211,35.9134178,-91.8490983
0506594796,66706,Township of Lunenburg,05065,Z1,151,71,26.816,0.0,36.0026524,-91.9416775
0506595156,66707,Township of Mill Creek,05065,Z1,2467,1104,25.489,0.0,36.0616861,-91.9112042
0506595531,66708,Township of Mount Olive,05065,Z1,95,110,10.274,0.114,36.0039273,-92.0504604
0506595621,66709,Township of Newburg,05065,Z1,243,173,42.05,0.0,36.1315431,-91.9628733
0506595631,66710,Township of New Hope,05065,Z1,1040,410,28.122,0.011,36.2145587,-91.9198643
0506596076,66711,Township of Pleasant Hill,05065,Z1,302,278,23.581,0.027,36.0631333,-91.7516467
0506596829,66712,Township of Sage,05065,Z1,492,152,11.741,0.0,36.0414556,-91.820171
0506597274,66713,Township of Strawberry,05065,Z1,123,81,23.941,0.012,36.10821,-91.7188108
0506597968,66714,Township of Union,05065,Z1,2633,931,45.689,0.383,36.1543252,-92.1250085
0506598258,66715,Township of Violet Hill,05065,Z1,215,153,19.617,0.0,36.1613288,-91.8520974
0506598708,66716,Township of White River,05065,Z1,289,230,20.9,0.618,35.9566318,-92.0500791
0506790228,66717,Township of Barren,05067,Z1,971,382,35.374,0.019,35.4849541,-91.5312489
0506790263,66718,Township of Bateman,05067,Z1,26,14,25.537,1.165,35.5872326,-91.3350559
0506790678,66719,Township of Bird,05067,Z1,1465,757,89.739,1.081,35.7548511,-91.182583
0506790933,66720,Township of Breckenridge,05067,Z1,490,231,49.309,0.019,35.4339517,-91.2127822
0506791033,66721,Township of Bryan,05067,Z1,0,0,31.295,1.19,35.4894746,-91.3003754
0506791158,66722,Township of Cache,05067,Z1,301,142,44.906,0.24,35.522539,-91.1654068
0506791923,66723,Township of Cow Lake,05067,Z1,184,57,58.092,0.232,35.416672,-91.0970012
0506793091,66724,Township of Glaize,05067,Z1,784,412,45.143,0.923,35.4844659,-91.4104146
0506793096,66725,Township of Glass,05067,Z1,1339,520,68.335,0.469,35.8372506,-91.1192855
0506793246,66726,Township of Grubbs,05067,Z1,419,221,40.566,0.08,35.6570988,-91.092291
0506794032,66727,Township of Jefferson,05067,Z1,1075,491,33.67,0.764,35.6822435,-91.2812781
0506796659,66728,Township of Richwoods,05067,Z1,85,103,39.148,0.631,35.5532508,-91.0796391
0506797978,66729,Township of Union,05067,Z1,7323,3583,36.688,0.749,35.5900164,-91.2590119
0506798238,66730,Township of Village,05067,Z1,2313,193,35.808,0.268,35.6483751,-91.1809174
0506990218,66731,Township of Barraque,05069,Z1,2462,994,30.781,1.716,34.4464166,-92.160556
0506990813,66732,Township of Bogy,05069,Z1,34,48,50.176,2.361,34.2452856,-91.7619196
0506990828,66733,Township of Bolivar,05069,Z1,70,109,42.924,4.186,34.4478564,-92.0462055
0506992466,66734,Township of Dudley Lake,05069,Z1,1791,159,58.779,0.28,34.4394911,-91.8914151
0506992476,66735,Township of Dunnington,05069,Z1,430,169,39.391,0.551,34.3537791,-91.7667543
0506994043,66736,Township of Jefferson,05069,Z1,2539,1074,43.837,1.002,34.363587,-92.1383809
0506995096,66737,Township of Melton,05069,Z1,424,267,24.901,0.111,34.1217817,-91.9046328
0506995656,66738,Township of Niven,05069,Z1,1607,806,12.144,0.061,34.181871,-92.0889689
0506995781,66739,Township of Old River,05069,Z1,20,33,33.968,3.054,34.1886889,-91.6501521
0506995931,66740,Township of Pastoria,05069,Z1,107,108,30.719,1.852,34.3561629,-92.0195279
0506996091,66741,Township of Plum Bayou,05069,Z1,927,591,85.913,6.718,34.3167334,-91.8986849
0506996564,66742,Township of Richland,05069,Z1,225,181,48.227,2.437,34.1433606,-91.793139
0506996734,66743,Township of Roberts,05069,Z1,131,169,32.325,4.946,34.4397405,-91.7603253
0506997189,66744,Township of Spring,05069,Z1,2895,1279,42.197,0.081,34.1713181,-92.1746827
0506997394,66745,Township of Talladega,05069,Z1,983,438,47.403,0.064,34.0986302,-92.1414177
0506998203,66746,Township of Vaugine,05069,Z1,40721,19422,67.363,6.097,34.2239946,-92.0078651
0506998223,66747,Township of Victoria,05069,Z1,219,122,30.804,2.138,34.1969929,-91.901595
0506998243,66748,Township of Villemont,05069,Z1,31,27,53.606,4.953,34.1389306,-91.5350312
0506998473,66749,Township of Washington,05069,Z1,7864,3720,62.19,0.738,34.2724921,-92.1385727
0506998753,66750,Township of Whiteville,05069,Z1,2300,994,34.698,0.313,34.1068924,-92.0089059
0507190268,66751,Township of Batson,05071,Z1,2040,889,200.896,0.733,35.6203926,-93.615176
0507193136,66753,Township of Grant,05071,Z1,2609,1200,41.342,3.445,35.4326143,-93.629681
0507193641,66757,Township of Howell,05071,Z1,1723,788,31.551,10.694,35.3859091,-93.3473622
0507194291,66758,Township of King,05071,Z1,3090,1150,23.852,0.179,35.5324324,-93.4912301
0507195961,66763,Township of Perry,05071,Z1,2657,1334,282.754,0.836,35.6210001,-93.3391103
0507196066,66766,Township of Pittsburg,05071,Z1,2407,1104,19.404,0.737,35.4346925,-93.374275
0507197164,2830586,Township of Spadra 1,05071,Z1,2390,1168,2.36,0.022,35.4655622,-93.4859348
0507197169,2830587,Township of Spadra 2,05071,Z1,2407,1160,11.061,1.406,35.4416133,-93.4393295
0507197179,2830588,Township of Spadra 3,05071,Z1,2509,852,6.522,0.063,35.4899873,-93.5026724
0507197184,2830589,Township of Spadra 4,05071,Z1,2279,913,18.164,0.425,35.4993738,-93.4175443
0507198358,66772,Township of Ward,05071,Z1,1821,965,23.084,4.445,35.436627,-93.5289692
0507390168,66773,Township of Baker,05073,Z1,1736,968,34.557,0.208,33.3913273,-93.5084491
0507392956,66774,Township of French,05073,Z1,397,290,31.713,4.466,33.0728389,-93.5689178
0507393286,66775,Township of Hadley,05073,Z1,817,381,54.416,0.131,33.3692946,-93.4433621
0507394351,66776,Township of La Grange,05073,Z1,338,182,41.094,0.257,33.4286579,-93.5882532
0507395031,66777,Township of Mars Hill,05073,Z1,97,71,53.484,0.196,33.2620042,-93.5591579
0507396719,66778,Township of Roane,05073,Z1,1038,611,162.009,3.96,33.1128902,-93.708764
0507396819,66779,Township of Russell,05073,Z1,48,52,26.595,1.5,33.4418825,-93.6857128
0507397254,66780,Township of Steel,05073,Z1,1105,679,74.392,3.038,33.3204371,-93.6368111
0507398288,66781,Township of Walker Creek,05073,Z1,635,706,51.213,2.858,33.1426745,-93.5274933
0507790553,66805,Township of Big Creek,05077,Z1,13,42,38.829,1.12,34.680847,-90.9870872
0507791893,66806,Township of Council,05077,Z1,34,23,34.877,7.395,34.824741,-90.473542
0507792751,66807,Township of Fleener,05077,Z1,412,164,54.064,0.174,34.8658882,-91.0217256
0507793311,66808,Township of Hampton,05077,Z1,593,318,55.362,0.029,34.7774849,-91.0217579
0507793326,66809,Township of Hardy,05077,Z1,0,0,18.162,3.414,34.6764535,-90.6093686
0507793726,66810,Township of Independence,05077,Z1,4181,2251,123.36,3.874,34.7651103,-90.7053158
0507795751,66812,Township of Oak Forest,05077,Z1,377,163,35.364,0.0,34.7829803,-90.8895901
0507796574,66813,Township of Richland,05077,Z1,451,248,40.516,0.013,34.6772224,-90.7667417
0507796844,66814,Township of Saint Francis,05077,Z1,1503,66,71.55,5.785,34.7918458,-90.5566412
0507797204,66815,Township of Spring Creek,05077,Z1,478,244,36.709,0.022,34.7007283,-90.8953684
0507797444,66816,Township of Texas,05077,Z1,199,32,43.143,0.053,34.861746,-90.8718605
0507797988,66817,Township of Union,05077,Z1,270,156,47.87,0.46,34.8719988,-90.7301585
0507990138,66819,Township of Auburn,05079,Z1,3622,100,50.796,4.487,34.0508445,-91.5238078
0507990243,66820,Township of Bartholomew,05079,Z1,381,210,58.198,0.566,34.0290054,-91.7785501
0507991298,66821,Township of Cane Creek,05079,Z1,4044,1849,66.356,0.69,33.9371986,-91.8102298
0507991598,66822,Township of Choctaw,05079,Z1,1175,223,49.385,0.697,34.042403,-91.6650045
0507993131,66823,Township of Gould,05079,Z1,628,455,28.561,0.178,33.9911674,-91.5662561
0507994286,66824,Township of Kimbrough,05079,Z1,2,20,20.518,2.44,34.1313617,-91.6763719
0507994726,66825,Township of Lone Pine,05079,Z1,453,237,36.243,0.0,33.8355845,-91.8213341
0507995166,66826,Township of Mill Creek,05079,Z1,175,97,35.448,0.01,33.8353914,-91.9247279
0507995861,66827,Township of Owen,05079,Z1,1251,472,32.846,0.048,33.9282445,-91.9338959
0507997084,66828,Township of Smith,05079,Z1,361,218,73.359,0.465,33.8425865,-91.6855092
0507997194,66829,Township of Spring,05079,Z1,584,338,46.092,0.0,34.0400547,-91.9013022
0507998583,66830,Township of Wells Bayou,05079,Z1,290,179,61.663,0.726,33.9071293,-91.623613
0508190108,66831,Township of Arden,05081,Z1,264,148,26.622,0.067,33.670259,-94.2835659
0508190118,66832,Township of Arkinda,05081,Z1,27,6,16.294,0.0,33.7863672,-94.4534776
0508191103,66833,Township of Burke,05081,Z1,154,94,46.092,0.152,33.7593415,-94.2907868
0508191313,66834,Township of Caney,05081,Z1,62,112,22.997,0.366,33.903082,-94.4383651
0508191733,66835,Township of Cleveland,05081,Z1,934,406,32.334,11.167,33.7479285,-94.0932224
0508192886,66936,Township of Franklin,05081,Z1,762,564,36.384,9.005,33.6818006,-94.0053342
0508193832,66836,Township of Jackson,05081,Z1,1511,963,38.111,0.146,33.7161494,-94.4153914
0508193966,66837,Township of Jeff Davis,05081,Z1,691,203,21.666,0.0,33.7938097,-94.3769673
0508194054,66937,Township of Jefferson,05081,Z1,4789,2364,51.01,2.269,33.6369277,-94.1118244
0508194141,66838,Township of Jewell,05081,Z1,274,143,17.503,0.0,33.8537882,-94.4249434
0508194161,66839,Township of Johnson,05081,Z1,362,227,51.324,2.834,33.5980041,-93.9737394
0508194606,66840,Township of Lick Creek,05081,Z1,454,149,32.801,0.184,33.7393157,-94.2007204
0508194656,66841,Township of Little River,05081,Z1,230,126,19.819,0.261,33.8423601,-94.352524
0508196459,66842,Township of Red River,05081,Z1,672,247,53.089,2.416,33.6137548,-94.2345487
0508196584,66843,Township of Richland,05081,Z1,0,0,42.668,3.224,33.6186574,-94.4116237
0508198303,66844,Township of Wallace,05081,Z1,773,319,22.541,0.0,33.6564586,-94.3503978
0508390198,68786,Township of Barber,05083,Z1,320,148,16.143,0.186,35.1223078,-94.0903157
0508390768,68788,Township of Blue Mountain,05083,Z1,201,74,13.408,0.581,35.1384978,-93.7183191
0508390838,68789,Township of Boone,05083,Z1,5341,2515,46.077,0.379,35.1472236,-93.9417549
0508391303,68790,Township of Cane Creek,05083,Z1,649,315,22.694,3.252,35.3566127,-93.4499551
0508391403,68791,Township of Cauthron,05083,Z1,413,167,38.676,0.353,35.0713031,-93.9762924
0508391633,68792,Township of Clark,05083,Z1,983,503,26.619,0.298,35.3277663,-93.6360121
0508392123,68793,Township of Delaware,05083,Z1,631,251,46.185,2.722,35.2725174,-93.332573
0508392441,68794,Township of Driggs,05083,Z1,432,217,23.706,0.051,35.2269855,-93.7914865
0508392616,68795,Township of Ellsworth,05083,Z1,612,229,20.887,0.112,35.2885692,-93.5487025
0508394166,68796,Township of Johnson,05083,Z1,203,98,17.387,0.088,35.261756,-93.6434818
0508394716,68797,Township of Logan,05083,Z1,520,240,18.162,0.278,35.3383443,-93.5276724
0508395431,68798,Township of Mountain,05083,Z1,249,129,88.555,0.277,35.2025923,-93.5837551
0508395981,68799,Township of Petit Jean,05083,Z1,126,132,39.925,1.647,35.0713577,-93.7654432
0508396514,68800,Township of Reveilee,05083,Z1,1401,566,33.397,0.16,35.1709209,-93.783607
0508396709,68801,Township of River,05083,Z1,631,290,14.981,5.638,35.3833319,-93.5286858
0508396999,68803,Township of Shoal Creek,05083,Z1,873,407,36.024,1.078,35.2707337,-93.433067
0508397009,68804,Township of Short Mountain,05083,Z1,4727,2199,73.289,2.542,35.3075868,-93.7291807
0508397044,68805,Township of Six Mile,05083,Z1,1344,530,24.803,0.273,35.2857944,-93.864912
0508397304,68806,Township of Sugar Creek,05083,Z1,309,114,41.199,0.167,35.0742155,-93.8624361
0508397479,68808,Township of Tomlinson,05083,Z1,408,164,26.174,0.295,35.0706608,-94.0756352
0508398398,68809,Township of Washburn,05083,Z1,867,474,40.825,0.462,35.2124138,-93.9291647
0508591113,68810,Township of Butler,05085,Z1,2626,1184,37.716,0.159,34.9775765,-91.84885
0508591338,68811,Township of Carlisle,05085,Z1,2511,1180,60.783,1.105,34.7794254,-91.7447461
0508591348,68812,Township of Caroline,05085,Z1,8373,3199,17.612,0.046,34.9907353,-91.9705789
0508591743,68813,Township of Cleveland,05085,Z1,81,38,17.774,0.951,34.8621133,-91.8592694
0508591963,68814,Township of Crooked Creek,05085,Z1,399,253,38.615,1.809,34.5308588,-91.7616082
0508592416,68815,Township of Dortch,05085,Z1,66,23,17.232,0.446,34.7127002,-92.05068
0508592526,68816,Township of Eagle,05085,Z1,2542,803,13.362,0.554,34.8929564,-91.944649
0508592756,68817,Township of Fletcher,05085,Z1,290,129,18.954,1.73,34.6225517,-91.8097864
0508592976,68818,Township of Furlow,05085,Z1,1286,589,9.984,0.816,34.8326982,-91.9760176
0508593116,68819,Township of Goodrum,05085,Z1,2685,1092,17.268,0.157,34.8869459,-92.0040694
0508593161,68820,Township of Gray,05085,Z1,3327,1368,21.395,0.661,34.8308311,-92.038758
0508593271,68821,Township of Gum Woods,05085,Z1,2693,1255,37.038,0.505,34.5328055,-91.9756604
0508593306,68822,Township of Hamilton,05085,Z1,232,100,36.808,0.451,34.6435787,-91.7197781
0508593736,68823,Township of Indian Bayou,05085,Z1,176,77,37.329,0.047,34.5300157,-91.8673312
0508593756,68824,Township of Isbell,05085,Z1,83,33,26.541,3.625,34.5608085,-91.6922672
0508594331,68825,Township of Lafayette,05085,Z1,384,159,17.885,1.117,34.6099793,-91.9928349
0508594761,68826,Township of Lonoke,05085,Z1,6001,2691,69.174,6.567,34.7829431,-91.8887372
0508594876,68827,Township of Magness,05085,Z1,6866,2495,23.25,0.174,35.0407447,-92.0678228
0508595756,68828,Township of Oak Grove,05085,Z1,4509,1605,21.294,0.012,34.9334877,-91.923465
0508595991,68829,Township of Pettus,05085,Z1,171,68,36.92,0.449,34.614527,-91.895395
0508596265,68830,Township of Prairie,05085,Z1,736,239,11.484,0.263,34.9004254,-91.8379857
0508596394,68831,Township of Pulaski,05085,Z1,342,355,21.476,2.996,34.7763419,-92.0336247
0508596669,68832,Township of Richwoods,05085,Z1,224,68,31.732,4.644,34.7051853,-91.9326465
0508596934,68833,Township of Scott,05085,Z1,13,7,20.287,0.687,34.6954649,-91.8085103
0508597494,68834,Township of Totten,05085,Z1,588,253,29.035,0.475,34.8837518,-91.7574749
0508598318,68835,Township of Walls,05085,Z1,91,29,17.167,0.775,34.6670884,-91.9841326
0508598363,68836,Township of Ward,05085,Z1,4536,1855,19.646,0.078,35.0265549,-91.9509489
0508598793,68837,Township of Williams,05085,Z1,360,161,17.502,0.322,34.651699,-92.0671817
0508598903,68838,Township of York,05085,Z1,22556,9258,26.458,0.043,34.9655852,-92.0327983
0508795678,2830712,Township of North,05087,Z1,11185,4713,400.234,1.673,36.109973,-93.726108
0508797152,2830713,Township of South,05087,Z1,5847,2986,434.003,1.205,35.919326,-93.723149
0508995011,2585795,Township of Marion County,05089,Z1,17076,9623,596.598,43.611,36.2683627,-92.6842124
0509390648,69650,Township of Big Lake,05093,Z1,4312,1672,73.526,0.194,35.8459378,-90.197708
0509390878,69651,Township of Bowen,05093,Z1,3209,1265,36.521,0.011,35.9709938,-90.0377914
0509391093,69652,Township of Burdette,05093,Z1,253,106,19.686,0.0,35.8090365,-89.9565531
0509391288,69653,Township of Canadian,05093,Z1,473,196,54.207,9.645,35.9164226,-89.7424503
0509391373,2406944,Township of Carson,05093,Z1,161,57,64.141,3.563,35.6083123,-90.0146337
0509391593,69655,Township of Chickasawba,05093,Z1,15612,8286,105.292,0.321,35.9118616,-89.881692
0509392511,69657,Township of Dyess,05093,Z1,524,284,45.823,0.0,35.5922243,-90.2260687
0509392761,69658,Township of Fletcher,05093,Z1,1110,446,59.376,4.91,35.7800746,-89.9008582
0509393111,69659,Township of Golden Lake,05093,Z1,1180,557,40.96,2.8,35.5083016,-90.0508819
0509393296,69660,Township of Half Moon Lake,05093,Z1,500,183,34.412,2.502,35.9156525,-90.0498168
0509393421,69661,Township of Hector,05093,Z1,514,243,51.451,1.475,35.8417197,-90.0517251
0509394661,69663,Township of Little River,05093,Z1,881,418,100.151,0.034,35.7174152,-90.1976337
0509394811,69664,Township of McGavock,05093,Z1,540,294,23.895,0.036,35.4833607,-90.1397545
0509395281,69665,Township of Monroe,05093,Z1,7709,3734,66.864,2.125,35.6909625,-90.0211928
0509395606,69666,Township of Neal,05093,Z1,2118,1063,58.329,0.02,35.9471735,-90.2170643
0509396939,69668,Township of Scott,05093,Z1,460,185,38.906,0.235,35.5322378,-90.1575029
0509398768,69671,Township of Whitton,05093,Z1,193,137,28.554,0.014,35.4890798,-90.2507681
0509590968,68867,Township of Brinkley,05095,Z1,2776,1577,31.779,0.648,34.8702893,-91.2222999
0509590993,68868,Township of Brown,05095,Z1,0,0,29.046,0.593,34.8716736,-91.3220401
0509591178,68869,Township of Cache,05095,Z1,1612,754,80.489,2.997,34.7255792,-91.3076629
0509591698,68870,Township of Cleburne,05095,Z1,24,40,25.18,0.015,34.5557603,-91.086547
0509592033,68871,Township of Cypress Ridge,05095,Z1,133,154,39.847,0.479,34.7534633,-91.1344918
0509592381,69187,Township of Dixon,05095,Z1,72,54,25.203,0.609,34.8563211,-91.1389937
0509592471,68872,Township of Duncan,05095,Z1,572,413,57.065,1.268,34.6059341,-91.2324957
0509593181,2406953,Township of Greenfield,05095,Z1,230,106,14.536,0.086,34.9576957,-91.1783593
0509593551,68873,Township of Hindman,05095,Z1,0,32,22.54,0.65,34.6677572,-91.0875716
0509593843,68874,Township of Jackson,05095,Z1,118,61,59.673,1.724,34.5170789,-91.1776474
0509594241,68875,Township of Keevil,05095,Z1,322,89,40.077,0.814,34.7807715,-91.2357959
0509595301,2406960,Township of Montgomery-Smalley,05095,Z1,29,67,75.353,2.681,34.4151735,-91.0818933
0509596041,68877,Township of Pine Ridge,05095,Z1,157,99,19.579,0.007,34.6828853,-91.1776502
0509596419,68878,Township of Raymond,05095,Z1,56,72,16.421,0.0,34.6254049,-91.1182691
0509596604,68879,Township of Richland,05095,Z1,68,89,32.444,0.071,34.9530483,-91.2368325
0509596744,68880,Township of Roc Roe,05095,Z1,512,236,38.23,1.144,34.6161897,-91.3744835
0509790028,2062882,Township of Alamo,05097,Z1,94,88,37.394,0.056,34.4675372,-93.45441
0509790738,1954006,Township of Black Springs,05097,Z1,473,249,104.542,0.174,34.4927978,-93.8121872
0509791218,1954007,Township of Caddo Gap,05097,Z1,477,262,60.295,0.325,34.400967,-93.5887647
0509791318,68884,Township of Caney,05097,Z1,1130,536,34.281,0.139,34.3718402,-93.4728974
0509791463,68885,Township of Center,05097,Z1,743,965,42.009,4.091,34.5385944,-93.5006798
0509792691,1954009,Township of Fannie,05097,Z1,133,89,43.132,3.876,34.6845943,-93.4491111
0509793611,1954010,Township of Hopper,05097,Z1,344,186,86.323,0.229,34.3890824,-93.8087308
0509795526,1954011,Township of Mount Ida,05097,Z1,2047,1411,105.082,9.043,34.5815069,-93.6019142
0509795671,1954012,Township of Norman,05097,Z1,879,501,49.606,0.127,34.4677785,-93.6112361
0509795761,1954013,Township of Oden,05097,Z1,1081,546,119.91,0.711,34.6411394,-93.8195048
0509795951,68891,Township of Pencil Bluff,05097,Z1,368,209,17.903,0.253,34.6504967,-93.7431952
0509797034,1954014,Township of Sims,05097,Z1,222,149,34.004,0.208,34.6815997,-93.6539298
0509798533,68889,Township of Washita,05097,Z1,580,278,45.973,1.223,34.6889138,-93.5551272
0509990023,68897,Township of Alabama,05099,Z1,238,220,45.537,0.109,33.4819173,-93.404075
0509990033,68898,Township of Albany,05099,Z1,404,204,59.642,0.182,33.6571185,-93.3856485
0509990868,68899,Township of Boughton,05099,Z1,107,69,41.892,0.466,33.8848026,-93.3578906
0509991323,68900,Township of Caney,05099,Z1,585,423,36.453,0.194,33.6026123,-93.2680777
0509992646,68901,Township of Emmet,05099,Z1,651,365,20.855,0.185,33.7093301,-93.4434439
0509993061,68902,Township of Georgia,05099,Z1,266,129,37.935,0.06,33.6884763,-93.2632374
0509993854,68903,Township of Jackson,05099,Z1,19,19,40.684,0.026,33.5942445,-93.1613086
0509994436,68904,Township of Leake,05099,Z1,199,107,38.137,0.017,33.5000404,-93.1688596
0509995266,68905,Township of Missouri,05099,Z1,3955,1900,86.294,0.672,33.8155849,-93.4024873
0509995916,68906,Township of Parker,05099,Z1,583,231,50.787,0.112,33.5637598,-93.406285
0509996449,68907,Township of Redland,05099,Z1,246,117,60.074,0.602,33.7832227,-93.2351229
0509997419,68908,Township of Taylor,05099,Z1,683,382,52.654,0.126,33.5035121,-93.2764663
0509998018,68909,Township of Union,05099,Z1,292,152,46.845,0.141,33.7037497,-93.1542697
0510190573,69672,Township of Big Creek,05101,Z1,92,157,49.084,0.051,35.8684621,-93.0877366
0510190858,69673,Township of Boston,05101,Z1,47,28,31.973,0.018,35.7808899,-93.4738954
0510193231,69674,Township of Grove,05101,Z1,1006,424,34.844,0.154,36.02629,-92.9741442
0510193391,69675,Township of Hasty,05101,Z1,402,171,19.014,0.109,36.0150065,-93.043984
0510193481,69676,Township of Hickory Grove,05101,Z1,157,93,16.98,0.008,35.8319337,-93.2826231
0510193651,69677,Township of Hudson,05101,Z1,114,198,18.873,0.078,35.9402936,-93.2405892
0510193865,69678,Township of Jackson,05101,Z1,1321,792,59.583,0.36,36.0041003,-93.1829055
0510194076,69679,Township of Jefferson,05101,Z1,157,80,80.289,0.084,35.817692,-93.3665228
0510194196,69680,Township of Jones,05101,Z1,8,33,24.422,0.019,35.7694256,-92.9860911
0510194261,69681,Township of Kentucky,05101,Z1,22,45,40.205,0.103,35.8789529,-93.4671529
0510194631,69682,Township of Lincoln,05101,Z1,288,130,14.319,0.01,35.8971437,-93.2687266
0510194786,69683,Township of Low Gap,05101,Z1,197,153,23.397,0.09,36.0064506,-93.3077344
0510194921,2406958,Township of Marble Falls,05101,Z1,693,349,58.803,0.293,36.0842569,-93.1502003
0510195591,69685,Township of Murray,05101,Z1,130,119,16.696,0.036,35.9372729,-93.3294708
0510195826,69686,Township of Osage,05101,Z1,114,68,31.202,0.064,36.0903324,-93.4109893
0510196081,69687,Township of Pleasant Hill,05101,Z1,260,147,73.188,0.109,35.8046773,-93.2182912
0510196096,69688,Township of Plumlee,05101,Z1,161,114,25.615,0.159,36.0842978,-93.3065349
0510196131,69689,Township of Polk,05101,Z1,261,149,48.395,0.052,35.8856141,-92.9878348
0510196146,69690,Township of Ponca,05101,Z1,78,31,18.164,0.098,36.0261901,-93.3848249
