GEOID,Name,Short Name,Primary County GEOID,Population,Housing Units,Land Area,Water Area,Latitude,Longitude
00037,"Abbeville, LA Urban Area","Abbeville, LA",22113,18252,8778,11.129,0.131,29.96865,-92.095225
00064,"Abbeville, SC Urban Area","Abbeville, SC",45001,5041,2246,4.948,0.002,34.176729,-82.382945
00145,"Aberdeen, SD Urban Area","Aberdeen, SD",46013,27993,13286,13.895,0.071,45.463204,-98.468811
00172,"Aberdeen, WA Urban Area","Aberdeen, WA",53027,26938,11695,10.972,0.696,46.974594,-123.831816
00253,"Abilene, KS Urban Area","Abilene, KS",20041,6729,3359,3.64,0.001,38.92106,-97.220754
00280,"Abilene, TX Urban Area","Abilene, TX",48441,118505,51128,61.973,0.392,32.42579,-99.74988
00388,"Ada, OH Urban Area","Ada, OH",39065,5088,1837,2.095,0.0,40.767953,-83.825064
00415,"Ada, OK Urban Area","Ada, OK",40123,17473,8392,14.25,0.012,34.775053,-96.673796
00442,"Adairsville, GA Urban Area","Adairsville, GA",13015,5581,1852,5.351,0.0,34.368693,-84.936303
00469,"Adel, GA Urban Area","Adel, GA",13075,7159,3221,6.111,0.066,31.144649,-83.427577
00496,"Adel, IA Urban Area","Adel, IA",19049,5446,2230,2.743,0.006,41.61053,-94.023973
00550,"Adjuntas, PR Urban Area","Adjuntas, PR",72001,8199,3437,4.863,0.0,18.16311,-66.720634
00577,"Adrian, MI Urban Area","Adrian, MI",26091,29461,11935,13.375,0.149,41.899205,-84.04018
00631,"Aguadilla--Isabela--San Sebastián, PR Urban Area","Aguadilla, PR",72005,231469,111999,187.321,0.143,18.391426,-67.091325
00658,"Ahoskie, NC Urban Area","Ahoskie, NC",37091,4800,2394,3.326,0.0,36.286472,-76.983542
00660,"Aibonito, PR Urban Area","Aibonito, PR",72009,19626,8334,13.305,0.025,18.13458,-66.275739
00766,"Akron, OH Urban Area","Akron, OH",39153,540148,252046,300.637,5.82,41.073342,-81.495355
00820,"Alamogordo, NM Urban Area","Alamogordo, NM",35035,30594,15217,13.731,0.002,32.892453,-105.952133
00847,"Alamosa, CO Urban Area","Alamosa, CO",08003,10559,4522,7.685,0.015,37.464471,-105.875242
00901,"Albany, GA Urban Area","Albany, GA",13095,85473,39829,66.507,0.736,31.586505,-84.172328
00955,"Albany, OR Urban Area","Albany, OR",41043,61796,24354,23.049,0.074,44.635118,-123.093403
00970,"Albany--Schenectady, NY Urban Area","Albany, NY",36001,594606,273189,271.303,5.434,42.742965,-73.799324
00982,"Albemarle, NC Urban Area","Albemarle, NC",37167,16807,8224,16.661,0.018,35.379959,-80.188772
01009,"Albert Lea, MN Urban Area","Albert Lea, MN",27047,18143,8449,10.797,0.539,43.653783,-93.365114
01036,"Albertville, AL Urban Area","Albertville, AL",01095,38425,15258,34.843,0.237,34.269468,-86.217373
01090,"Albion, MI Urban Area","Albion, MI",26025,8109,3134,4.691,0.053,42.249581,-84.755351
01117,"Albion, NY Urban Area","Albion, NY",36073,7165,3017,2.945,0.0,43.24579,-78.193578
01171,"Albuquerque, NM Urban Area","Albuquerque, NM",35001,768405,335561,263.072,2.689,35.131793,-106.623857
01252,"Alexander City, AL Urban Area","Alexander City, AL",01123,7658,3941,9.79,0.014,32.943492,-85.962142
01273,"Alexandria, IN Urban Area","Alexandria, IN",18095,6069,3145,3.804,0.005,40.257609,-85.679057
01279,"Alexandria, LA Urban Area","Alexandria, LA",22079,78550,35796,64.711,0.715,31.3237,-92.447707
01306,"Alexandria, MN Urban Area","Alexandria, MN",27041,19171,10259,22.572,7.309,45.891937,-95.378886
01387,"Algona, IA Urban Area","Algona, IA",19109,5408,2708,3.352,0.006,43.073988,-94.228673
01414,"Alice, TX Urban Area","Alice, TX",48249,19215,7269,10.031,0.0,27.750622,-98.07342
01441,"Allegan, MI Urban Area","Allegan, MI",26005,7071,2926,6.879,0.879,42.536282,-85.850898
01450,"Allendale, MI Urban Area","Allendale, MI",26139,22959,7168,10.545,0.061,42.964159,-85.929201
01495,"Allentown--Bethlehem, PA--NJ Urban Area","Allentown, PA",42077,622018,251803,261.546,3.592,40.639158,-75.414498
01522,"Alliance, NE Urban Area","Alliance, NE",31013,7964,3853,4.905,0.012,42.09978,-102.873281
01549,"Alliance, OH Urban Area","Alliance, OH",39151,31394,14328,17.254,0.089,40.913518,-81.097902
01630,"Alma--St. Louis, MI Urban Area","Alma, MI",26057,17118,5419,9.035,0.213,43.390674,-84.641499
01684,"Alpena, MI Urban Area","Alpena, MI",26007,15279,8005,12.709,0.769,45.04959,-83.453573
01701,"Alpine, CA Urban Area","Alpine, CA",06073,15104,5297,9.846,0.001,32.825726,-116.781139
01711,"Alpine, TX Urban Area","Alpine, TX",48043,6527,4007,4.287,0.0,30.360219,-103.667414
01738,"Altavista, VA Urban Area","Altavista, VA",51031,4635,2301,5.941,0.063,37.113134,-79.291707
01765,"Alton, IL Urban Area","Alton, IL",17119,79800,37743,59.658,0.951,38.898528,-90.121266
01792,"Altoona, PA Urban Area","Altoona, PA",42013,74595,34966,37.012,0.062,40.477649,-78.398538
01846,"Altus, OK Urban Area","Altus, OK",40065,18812,9057,15.657,0.203,34.657061,-99.309046
01873,"Alva, OK Urban Area","Alva, OK",40151,5387,2633,3.646,0.0,36.799658,-98.665505
01900,"Alvarado, TX Urban Area","Alvarado, TX",48251,4648,1653,3.044,0.015,32.412336,-97.216697
01927,"Amarillo, TX Urban Area","Amarillo, TX",48375,205103,87975,83.993,0.687,35.192028,-101.846942
02008,"Americus, GA Urban Area","Americus, GA",13261,17373,7542,10.979,0.06,32.077399,-84.219732
02062,"Ames, IA Urban Area","Ames, IA",19169,66043,27231,22.357,0.081,42.02461,-93.629124
02103,"Amherst Town--Northampton--Easthampton Town, MA Urban Area","Amherst Town, MA",25015,82555,34199,54.652,0.668,42.275255,-72.653406
02143,"Amory, MS Urban Area","Amory, MS",28095,6307,3199,5.606,0.011,33.983635,-88.478932
02170,"Amsterdam, NY Urban Area","Amsterdam, NY",36057,21571,10969,10.055,0.325,42.952606,-74.192053
02197,"Anaconda-Deer Lodge County, MT Urban Area","Anaconda, MT",30023,6559,3899,2.61,0.0,46.132279,-112.96175
02224,"Anacortes, WA Urban Area","Anacortes, WA",53057,18501,8952,9.858,0.351,48.491868,-122.639049
02251,"Anadarko, OK Urban Area","Anadarko, OK",40015,5239,2145,2.105,0.0,35.071102,-98.24162
02278,"Anamosa, IA Urban Area","Anamosa, IA",19105,5270,2007,2.647,0.003,42.110052,-91.27386
02305,"Anchorage, AK Urban Area","Anchorage, AK",02020,249550,102016,91.689,1.072,61.169584,-149.854154
02332,"Anchorage Northeast, AK Urban Area","Anchorage Northeast, AK",02020,29994,11666,17.683,0.184,61.325491,-149.537602
02359,"Andalusia, AL Urban Area","Andalusia, AL",01039,5612,2970,6.863,0.04,31.305196,-86.479475
02386,"Anderson, IN Urban Area","Anderson, IN",18095,80361,37374,52.17,0.153,40.086247,-85.676223
02420,"Anderson--Clemson, SC Urban Area","Anderson, SC",45007,119443,51220,95.94,2.827,34.553063,-82.696322
02467,"Andrews, TX Urban Area","Andrews, TX",48003,15420,5952,9.515,0.012,32.323743,-102.541184
02500,"Angleton, TX Urban Area","Angleton, TX",48039,20135,8820,10.948,0.019,29.170738,-95.428262
02548,"Angola, IN Urban Area","Angola, IN",18151,13010,7108,12.428,2.279,41.670453,-85.030874
02575,"Anna, IL Urban Area","Anna, IL",17181,5770,2725,4.429,0.022,37.461878,-89.248104
02602,"Ann Arbor, MI Urban Area","Ann Arbor, MI",26161,316202,136871,143.455,5.152,42.237327,-83.649391
02629,"Anniston--Oxford, AL Urban Area","Anniston, AL",01015,78732,36194,78.896,0.428,33.668326,-85.833914
02656,"Antigo, WI Urban Area","Antigo, WI",55067,8375,4516,4.848,0.046,45.142639,-89.153197
02683,"Antioch, CA Urban Area","Antioch, CA",06013,326085,104517,73.347,0.787,37.985757,-121.79064
02764,"Appleton, WI Urban Area","Appleton, WI",55087,231622,99788,107.775,4.116,44.250467,-88.409398
02791,"Arab, AL Urban Area","Arab, AL",01095,7843,3283,8.695,0.108,34.330357,-86.500846
02818,"Aransas Pass--Port Aransas--Ingleside, TX Urban Area","Aransas Pass, TX",48409,22314,14237,24.644,0.221,27.901076,-97.153623
02912,"Arcadia, FL Urban Area","Arcadia, FL",12027,17050,7913,10.004,0.006,27.208552,-81.852524
02930,"Arcata, CA Urban Area","Arcata, CA",06023,19284,8600,7.928,0.046,40.877492,-124.078895
03007,"Ardmore, OK Urban Area","Ardmore, OK",40019,21239,9728,15.019,0.139,34.177688,-97.13738
03034,"Arecibo, PR Urban Area","Arecibo, PR",72065,125263,57171,75.493,0.096,18.454313,-66.810062
03088,"Arizona City, AZ Urban Area","Arizona City, AZ",04021,8159,4385,4.339,0.077,32.749832,-111.673175
03115,"Arkadelphia, AR Urban Area","Arkadelphia, AR",05019,10091,4136,6.2,0.0,34.126249,-93.068945
03142,"Arkansas City, KS Urban Area","Arkansas City, KS",20035,11806,5544,6.832,0.0,37.065614,-97.040528
03158,"Arlington, TN Urban Area","Arlington, TN",47157,13785,4658,7.675,0.034,35.284261,-89.665147
03196,"Arroyo Grande--Grover Beach--Pismo Beach, CA Urban Area","Arroyo Grande, CA",06079,51613,25954,17.075,0.061,35.123896,-120.604569
03223,"Artesia, NM Urban Area","Artesia, NM",35015,14240,6214,6.849,0.007,32.843287,-104.40931
03250,"Arvin, CA Urban Area","Arvin, CA",06029,19414,4680,2.345,0.0,35.203159,-118.832837
03262,"Asbury Lake--Middleburg, FL Urban Area","Asbury Lake, FL",12019,24062,10155,23.003,0.27,30.060172,-81.852388
03277,"Ashburn, GA Urban Area","Ashburn, GA",13287,4991,2069,4.247,0.042,31.696905,-83.647136
03331,"Asheboro, NC Urban Area","Asheboro, NC",37151,37677,16439,27.421,0.122,35.734505,-79.812027
03358,"Asheville, NC Urban Area","Asheville, NC",37021,291728,141068,248.585,1.904,35.509787,-82.522474
03385,"Ashland, OH Urban Area","Ashland, OH",39005,19432,8910,9.852,0.036,40.865865,-82.318339
03395,"Ashland, PA Urban Area","Ashland, PA",42107,4491,2778,1.419,0.0,40.793666,-76.284347
03412,"Ashland, WI Urban Area","Ashland, WI",55003,7135,3547,4.223,0.001,46.587261,-90.877925
03466,"Ashtabula, OH Urban Area","Ashtabula, OH",39007,27600,14075,21.69,0.18,41.871766,-80.815232
03493,"Ashville, OH Urban Area","Ashville, OH",39129,7178,2679,3.807,0.0,39.714159,-82.974496
03520,"Aspen, CO Urban Area","Aspen, CO",08097,7475,6324,5.212,0.0,39.198226,-106.84115
03547,"Astoria, OR Urban Area","Astoria, OR",41007,15664,7294,9.669,0.13,46.190059,-123.810292
03601,"Atchison, KS Urban Area","Atchison, KS",20005,10703,4277,5.385,0.044,39.565798,-95.13284
03655,"Athens, AL Urban Area","Athens, AL",01083,24653,10981,20.092,0.115,34.797624,-86.962366
03682,"Athens, OH Urban Area","Athens, OH",39009,25925,9790,9.453,0.144,39.332266,-82.104873
03709,"Athens, TN Urban Area","Athens, TN",47107,15283,7147,15.473,0.0,35.452502,-84.609521
03736,"Athens, TX Urban Area","Athens, TX",48213,12537,5059,9.32,0.025,32.198133,-95.849966
03763,"Athens-Clarke County, GA Urban Area","Athens, GA",13059,143852,60798,91.847,0.937,33.944601,-83.396107
03790,"Athol, MA Urban Area","Athol, MA",25027,14361,6337,10.611,0.461,42.599692,-72.237254
03817,"Atlanta, GA Urban Area","Atlanta, GA",13121,5104679,2039231,2450.521,36.379,33.834858,-84.337701
03844,"Atlanta, TX Urban Area","Atlanta, TX",48067,5257,2425,6.809,0.038,33.13,-94.169682
03871,"Atlantic, IA Urban Area","Atlantic, IA",19029,6545,3365,4.492,0.044,41.397778,-95.009637
03904,"Atlantic City--Ocean City--Villas, NJ Urban Area","Atlantic City, NJ",34001,295511,200600,162.875,4.106,39.239372,-74.66394
03925,"Atmore, AL Urban Area","Atmore, AL",01053,6427,3415,5.104,0.02,31.025074,-87.488688
03957,"Atoka, TN Urban Area","Atoka, TN",47167,12165,4836,9.925,0.028,35.436176,-89.777209
04021,"Aubrey, TX Urban Area","Aubrey, TX",48121,6204,2447,2.74,0.004,33.290517,-96.98788
04033,"Auburn, AL Urban Area","Auburn, AL",01081,100649,45446,61.156,0.569,32.611382,-85.452135
04060,"Auburn, IN Urban Area","Auburn, IN",18033,20395,8818,9.883,0.0,41.361557,-85.075974
04114,"Auburn, NY Urban Area","Auburn, NY",36011,30790,15252,13.139,0.082,42.922279,-76.558539
04130,"Auburn, CA Urban Area","Auburn, CA",06061,32704,14324,17.239,0.009,38.925771,-121.080791
04146,"Au Gres, MI Urban Area","Au Gres, MI",26011,1887,2233,3.963,0.065,44.043392,-83.689549
04168,"Augusta, KS Urban Area","Augusta, KS",20015,9214,3947,3.716,0.268,37.694382,-96.973186
04195,"Augusta, ME Urban Area","Augusta, ME",23011,25313,13078,21.918,0.723,44.323856,-69.807516
04222,"Augusta-Richmond County, GA--SC Urban Area","Augusta, GA",13245,429305,185187,273.292,2.224,33.485271,-82.001784
04276,"Aurora, MO Urban Area","Aurora, MO",29109,8040,3566,5.278,0.016,36.965645,-93.720407
04357,"Austin, MN Urban Area","Austin, MN",27099,25509,10736,10.047,0.098,43.668767,-92.976697
04384,"Austin, TX Urban Area","Austin, TX",48453,1819988,778285,619.621,4.895,30.380036,-97.765795
04438,"Avalon, CA Urban Area","Avalon, CA",06037,3406,2033,1.189,0.0,33.34166,-118.329744
04465,"Avenal, CA Urban Area","Avenal, CA",06031,12896,3062,3.629,0.0,36.000567,-120.132966
04587,"Aztec, NM Urban Area","Aztec, NM",35045,7317,3462,6.783,0.102,36.828868,-108.000173
04627,"Bainbridge, GA Urban Area","Bainbridge, GA",13087,12805,5890,10.676,0.237,30.904927,-84.571058
04654,"Baker City, OR Urban Area","Baker City, OR",41001,10019,4575,4.479,0.0,44.780684,-117.83368
04681,"Bakersfield, CA Urban Area","Bakersfield, CA",06029,571179,185358,132.121,0.983,35.365109,-119.049231
04843,"Baltimore, MD Urban Area","Baltimore, MD",24005,2206102,944639,654.935,21.539,39.23648,-76.642499
04924,"Bandon, OR Urban Area","Bandon, OR",41011,4443,2750,4.867,0.016,43.106208,-124.420961
04951,"Bangor, ME Urban Area","Bangor, ME",23019,61256,28263,51.116,1.862,44.798865,-68.806636
05005,"Baraboo, WI Urban Area","Baraboo, WI",55111,14047,6714,6.764,0.083,43.46854,-89.748766
05032,"Barbourville, KY Urban Area","Barbourville, KY",21121,6293,3043,5.297,0.028,36.860167,-83.870451
05040,"Barceloneta--Florida--Bajadero, PR Urban Area","Barceloneta, PR",72013,64454,28606,41.701,0.028,18.41848,-66.606724
05059,"Bardstown, KY Urban Area","Bardstown, KY",21179,18225,7942,13.37,0.105,37.830694,-85.459261
05113,"Barnesville, GA Urban Area","Barnesville, GA",13171,7067,2863,5.814,0.042,33.056346,-84.160191
05167,"Barnstable Town, MA Urban Area","Barnstable Town, MA",25001,302751,194648,341.279,34.86,41.627072,-70.61661
05221,"Barre--Montpelier, VT Urban Area","Barre, VT",50023,20936,10247,14.39,0.16,44.21349,-72.528308
05302,"Barstow, CA Urban Area","Barstow, CA",06071,30103,11645,12.382,0.0,34.886704,-117.032814
05329,"Bartlesville, OK Urban Area","Bartlesville, OK",40147,39287,17867,19.761,0.012,36.74927,-95.943864
05383,"Bartow, FL Urban Area","Bartow, FL",12105,17879,7419,7.914,0.258,27.890152,-81.838405
05410,"Basalt, CO Urban Area","Basalt, CO",08037,8021,3710,3.642,0.027,39.38358,-107.080731
05437,"Bastrop, LA Urban Area","Bastrop, LA",22067,12096,5477,10.328,0.041,32.776054,-91.911145
05464,"Bastrop, TX Urban Area","Bastrop, TX",48021,20793,8432,18.131,0.24,30.106996,-97.34514
05491,"Batavia, NY Urban Area","Batavia, NY",36037,17222,8657,8.069,0.046,43.002881,-78.176038
05518,"Batesburg-Leesville, SC Urban Area","Batesburg, SC",45063,4849,2502,5.6,0.063,33.908796,-81.529076
05545,"Batesville, AR Urban Area","Batesville, AR",05063,10991,4761,7.843,0.009,35.779394,-91.630531
05572,"Batesville, IN Urban Area","Batesville, IN",18137,7874,3118,5.474,0.068,39.30081,-85.215672
05599,"Batesville, MS Urban Area","Batesville, MS",28107,6023,2526,6.28,0.0,34.319332,-89.94112
05653,"Bath, NY Urban Area","Bath, NY",36101,6391,3353,2.905,0.095,42.339846,-77.312811
05680,"Baton Rouge, LA Urban Area","Baton Rouge, LA",22033,633272,274619,396.341,4.367,30.410839,-91.032862
05707,"Battle Creek, MI Urban Area","Battle Creek, MI",26025,76304,35015,47.332,1.602,42.313131,-85.20252
05734,"Battlement Mesa, CO Urban Area","Battlement Mesa, CO",08045,6494,2798,3.064,0.022,39.442496,-108.043023
05788,"Baxley, GA Urban Area","Baxley, GA",13001,5576,2723,6.259,0.005,31.771186,-82.346883
05842,"Bayard, NM Urban Area","Bayard, NM",35017,5317,2731,3.114,0.025,32.695934,-108.118383
05869,"Bay City, MI Urban Area","Bay City, MI",26017,68210,33031,39.932,1.139,43.608667,-83.890414
05896,"Bay City, TX Urban Area","Bay City, TX",48321,18761,8321,10.414,0.016,28.985126,-95.951212
05923,"Bay Minette, AL Urban Area","Bay Minette, AL",01003,7988,3000,6.955,0.055,30.881721,-87.777638
05935,"Bayside Gardens--Manzanita, OR Urban Area","Bayside Gardens, OR",41057,2497,3016,2.981,0.001,45.71741,-123.918666
05958,"Bealeton, VA Urban Area","Bealeton, VA",51061,5006,1722,4.369,0.008,38.571106,-77.769645
05977,"Beardstown, IL Urban Area","Beardstown, IL",17017,6205,2441,2.139,0.037,40.011448,-90.425261
06004,"Beatrice, NE Urban Area","Beatrice, NE",31067,12047,6085,8.691,0.065,40.274298,-96.744552
06031,"Beaufort--Port Royal, SC Urban Area","Beaufort, SC",45013,53402,21934,43.76,0.548,32.430552,-80.714653
06058,"Beaumont, TX Urban Area","Beaumont, TX",48245,145473,66327,96.099,1.474,30.110762,-94.129316
06085,"Beaver Dam, KY Urban Area","Beaver Dam, KY",21183,5561,2408,3.402,0.009,37.406682,-86.87647
06112,"Beaver Dam, WI Urban Area","Beaver Dam, WI",55027,18649,8910,9.384,0.028,43.471648,-88.82927
06139,"Beckley, WV Urban Area","Beckley, WV",54081,55766,27233,53.636,0.167,37.789184,-81.229955
06166,"Bedford, IN Urban Area","Bedford, IN",18093,14370,7205,8.508,0.001,38.862636,-86.498249
06193,"Bedford, PA Urban Area","Bedford, PA",42009,4182,2199,3.838,0.104,40.032713,-78.508816
06220,"Bedford, VA Urban Area","Bedford, VA",51019,7469,3631,8.576,0.012,37.339142,-79.524904
06247,"Beebe, AR Urban Area","Beebe, AR",05145,6733,2944,4.474,0.0,35.07041,-91.89251
06274,"Beeville, TX Urban Area","Beeville, TX",48025,13940,5853,6.313,0.0,28.406366,-97.748367
06290,"Bel Air--Aberdeen, MD Urban Area","Bel Air, MD",24025,214652,86507,107.198,1.396,39.510202,-76.286721
06301,"Belding, MI Urban Area","Belding, MI",26067,5757,2166,2.908,0.06,43.09647,-85.234104
06335,"Belfair, WA Urban Area","Belfair, WA",53045,5497,3158,5.349,0.001,47.445989,-122.8604
06355,"Belfast, ME Urban Area","Belfast, ME",23027,4674,3045,3.522,0.018,44.41684,-68.99446
06382,"Belgrade, MT Urban Area","Belgrade, MT",30031,18953,7589,13.349,0.041,45.775792,-111.182271
06436,"Bellefontaine, OH Urban Area","Bellefontaine, OH",39091,13671,6627,6.211,0.0,40.359387,-83.753111
06463,"Bellefonte, PA Urban Area","Bellefonte, PA",42027,16002,6560,7.84,0.0,40.911329,-77.786548
06490,"Belle Fourche, SD Urban Area","Belle Fourche, SD",46019,4710,2241,2.86,0.0,44.665885,-103.850796
06517,"Belle Glade, FL Urban Area","Belle Glade, FL",12099,23130,7222,7.21,0.0,26.683623,-80.67831
06571,"Belle Plaine, MN Urban Area","Belle Plaine, MN",27139,6863,2549,3.549,0.0,44.618066,-93.759706
06625,"Bellevue, OH Urban Area","Bellevue, OH",39143,8330,3700,4.47,0.07,41.277074,-82.84458
06652,"Bellingham, WA Urban Area","Bellingham, WA",53073,129797,57797,50.132,2.915,48.773007,-122.480881
06679,"Bellows Falls, VT--NH Urban Area","Bellows Falls, VT",50025,3759,2031,2.421,0.046,43.131472,-72.449764
06760,"Beloit, WI--IL Urban Area","Beloit, WI",55105,63532,25953,31.936,0.836,42.503862,-89.027523
06770,"Belterra, TX Urban Area","Belterra, TX",48209,10389,3032,3.359,0.0,30.188169,-97.987033
06779,"Belton, SC Urban Area","Belton, SC",45007,5021,2078,4.562,0.011,34.527111,-82.49847
06841,"Bemidji, MN Urban Area","Bemidji, MN",27007,14944,6659,14.459,1.045,47.48452,-94.89423
06868,"Bend, OR Urban Area","Bend, OR",41017,107672,48574,42.407,0.304,44.050969,-121.31822
06895,"Bennettsville, SC Urban Area","Bennettsville, SC",45069,8547,4770,7.47,0.494,34.621515,-79.684769
06922,"Bennington, VT Urban Area","Bennington, VT",50003,13178,6017,11.633,0.116,42.900009,-73.204482
06949,"Benson, AZ Urban Area","Benson, AZ",04003,4085,2450,2.714,0.002,31.961786,-110.294175
07030,"Benton, IL Urban Area","Benton, IL",17055,7469,3782,4.982,0.02,38.000944,-88.919648
07057,"Benton, KY Urban Area","Benton, KY",21157,4708,2352,4.127,0.055,36.851835,-88.359536
07084,"Benton, LA Urban Area","Benton, LA",22015,4846,1950,4.476,0.007,32.672627,-93.72546
07138,"Benton Harbor--Lincoln--St. Joseph, MI Urban Area","Benton Harbor, MI",26021,62853,31437,52.528,1.244,42.052276,-86.480381
07165,"Berea, KY Urban Area","Berea, KY",21151,16664,6381,11.478,0.052,37.583562,-84.293019
07192,"Berlin, NH Urban Area","Berlin, NH",33007,9688,5145,4.944,0.174,44.482025,-71.16291
07219,"Berlin, WI Urban Area","Berlin, WI",55047,5170,2456,3.455,0.013,43.970639,-88.947368
07300,"Berryville, AR Urban Area","Berryville, AR",05015,5174,2237,4.182,0.0,36.369166,-93.563263
07381,"Bethel, AK Urban Area","Bethel, AK",02050,4881,1892,15.0,0.252,60.765667,-161.804484
07472,"Beverly Hills--Homosassa Springs--Pine Ridge, FL Urban Area","Beverly Hills, FL",12017,97622,50867,118.827,3.69,28.892968,-82.443873
07508,"Big Bear, CA Urban Area","Big Bear, CA",06071,16358,21230,15.929,0.214,34.244201,-116.854111
07530,"Big Lake, MN Urban Area","Big Lake, MN",27141,11851,4002,5.424,0.821,45.339948,-93.745209
07597,"Big Pine Key, FL Urban Area","Big Pine Key, FL",12087,8834,5935,8.463,0.254,24.661751,-81.414396
07624,"Big Rapids, MI Urban Area","Big Rapids, MI",26107,10890,4751,7.343,0.059,43.692418,-85.481129
07651,"Big Spring, TX Urban Area","Big Spring, TX",48227,27954,11307,20.643,0.234,32.244288,-101.461699
07678,"Big Stone Gap, VA Urban Area","Big Stone Gap, VA",51195,7003,2583,6.581,0.089,36.864971,-82.764885
07705,"Billings, MT Urban Area","Billings, MT",30111,128268,56946,54.7,0.137,45.787459,-108.53712
07732,"Binghamton, NY Urban Area","Binghamton, NY",36007,153028,72013,69.729,3.066,42.10852,-75.964231
07759,"Birch Bay, WA Urban Area","Birch Bay, WA",53073,16588,8512,13.056,0.152,48.947603,-122.735883
07770,"Birdsboro--Amity, PA Urban Area","Birdsboro, PA",42011,16975,6732,8.562,0.011,40.265603,-75.749569
07786,"Birmingham, AL Urban Area","Birmingham, AL",01073,772605,347122,509.272,3.591,33.475252,-86.784185
07813,"Bisbee, AZ Urban Area","Bisbee, AZ",04003,4677,3216,3.153,0.0,31.403482,-109.92094
07840,"Bishop, CA Urban Area","Bishop, CA",06027,10988,5192,5.49,0.007,37.365976,-118.415939
07921,"Bismarck, ND Urban Area","Bismarck, ND",38015,97911,45567,41.854,0.404,46.819848,-100.801005
07948,"Blackfoot, ID Urban Area","Blackfoot, ID",16011,14119,5239,7.513,0.177,43.198466,-112.359362
07975,"Black River Falls, WI Urban Area","Black River Falls, WI",55053,4313,2211,3.704,0.003,44.296885,-90.849189
08002,"Blacksburg--Christiansburg, VA Urban Area","Blacksburg, VA",51121,71417,29019,33.979,0.052,37.185325,-80.41322
08083,"Blackwell, OK Urban Area","Blackwell, OK",40071,5765,3030,3.844,0.007,36.800234,-97.291627
08137,"Blair, NE Urban Area","Blair, NE",31177,8019,3548,8.181,0.0,41.536927,-96.122541
08164,"Blairsville, PA Urban Area","Blairsville, PA",42063,6129,3324,5.221,0.002,40.443953,-79.264054
08353,"Bloomfield, NM Urban Area","Bloomfield, NM",35045,7752,3164,6.248,0.034,36.715582,-107.975039
08380,"Bloomington, IN Urban Area","Bloomington, IN",18105,109378,50252,43.036,0.005,39.166091,-86.552907
08407,"Bloomington--Normal, IL Urban Area","Bloomington, IL",17113,134487,59812,50.362,0.221,40.493771,-88.978991
08434,"Bloomsburg--Berwick, PA Urban Area","Bloomsburg, PA",42037,40075,18200,20.745,0.535,41.027288,-76.36377
08470,"Blowing Rock, NC Urban Area","Blowing Rock, NC",37189,912,1990,3.199,0.044,36.129182,-81.666326
08515,"Bluefield, WV--VA Urban Area","Bluefield, WV",54055,40920,20502,38.699,0.139,37.269528,-81.255889
08542,"Bluffton, IN Urban Area","Bluffton, IN",18179,10429,4879,6.504,0.077,40.751443,-85.162221
08601,"Bluffton East--Hilton Head Island, SC Urban Area","Bluffton East, SC",45013,69594,44668,63.241,1.821,32.253775,-80.867672
08607,"Bluffton West, SC Urban Area","Bluffton West, SC",45013,32252,14876,23.305,0.034,32.271051,-80.966117
08623,"Blythe, CA--AZ Urban Area","Blythe, CA",06065,11997,4982,6.201,0.043,33.609113,-114.579244
08650,"Blytheville, AR Urban Area","Blytheville, AR",05093,15983,8135,14.532,0.0,35.931893,-89.917459
08704,"Boerne, TX Urban Area","Boerne, TX",48259,19204,7607,9.651,0.0,29.779302,-98.718711
08731,"Bogalusa, LA Urban Area","Bogalusa, LA",22117,10849,5378,10.903,0.03,30.780619,-89.86476
08785,"Boise City, ID Urban Area","Boise City, ID",16001,434090,178634,139.23,1.939,43.617616,-116.301508
08812,"Bolivar, MO Urban Area","Bolivar, MO",29167,10325,4198,5.916,0.008,37.606027,-93.414705
08866,"Bolivar, TN Urban Area","Bolivar, TN",47069,5444,2668,4.741,0.0,35.264176,-89.000544
08920,"Bonham, TX Urban Area","Bonham, TX",48147,8041,3481,5.029,0.0,33.587318,-96.181486
08974,"Bonita Springs--Estero, FL Urban Area","Bonita Springs, FL",12021,426649,280024,242.959,21.019,26.23611,-81.746589
09005,"Bonne Terre, MO Urban Area","Bonne Terre, MO",29187,6795,1969,2.202,0.021,37.922602,-90.546587
09028,"Boone, IA Urban Area","Boone, IA",19015,12210,5612,7.609,0.001,42.056076,-93.875484
09055,"Boone, NC Urban Area","Boone, NC",37189,26189,10465,18.187,0.068,36.213842,-81.665197
09109,"Booneville, MS Urban Area","Booneville, MS",28117,6104,2558,6.37,0.01,34.661137,-88.555919
09163,"Boonville, IN Urban Area","Boonville, IN",18173,6430,3160,2.829,0.013,38.046847,-87.270935
09190,"Boonville, MO Urban Area","Boonville, MO",29053,7759,3255,5.824,0.022,38.961439,-92.746203
09200,"Boothbay Harbor, ME Urban Area","Boothbay Harbor, ME",23015,3293,3757,11.226,4.181,43.835484,-69.622163
09217,"Borger, TX Urban Area","Borger, TX",48233,12842,6279,9.417,0.02,35.666797,-101.399608
09271,"Boston, MA--NH Urban Area","Boston, MA",25017,4355071,1796324,1655.887,71.69,42.378999,-71.142344
09298,"Boulder, CO Urban Area","Boulder, CO",08013,119520,52519,25.449,0.253,40.023878,-105.243811
09325,"Boulder City, NV Urban Area","Boulder City, NV",32003,13876,6800,5.724,0.0,35.973364,-114.840711
09352,"Bowie, TX Urban Area","Bowie, TX",48337,5414,2443,4.315,0.018,33.560626,-97.84825
09379,"Bowling Green, KY Urban Area","Bowling Green, KY",21227,99262,41952,52.176,0.293,36.963135,-86.440824
09433,"Bowling Green, OH Urban Area","Bowling Green, OH",39173,30442,12631,11.338,0.064,41.374021,-83.65123
09460,"Box Elder, SD Urban Area","Box Elder, SD",46103,11930,4306,6.083,0.0,44.147281,-103.065446
09487,"Boyne City, MI Urban Area","Boyne City, MI",26029,4073,2782,5.316,0.066,45.206022,-85.000772
09514,"Bozeman, MT Urban Area","Bozeman, MT",30031,59971,26328,21.393,0.053,45.677082,-111.055647
09536,"Bradenton--Sarasota--Venice, FL Urban Area","Bradenton, FL",12115,787914,450587,404.282,39.55,27.28683,-82.457015
09541,"Bradford, PA--NY Urban Area","Bradford, PA",42083,11335,4865,5.743,0.112,41.963843,-78.641214
09568,"Brady, TX Urban Area","Brady, TX",48307,4774,2396,2.926,0.008,31.129823,-99.337175
09622,"Brainerd, MN Urban Area","Brainerd, MN",27035,20766,9377,16.139,1.006,46.361308,-94.214063
09649,"Brandon, SD Urban Area","Brandon, SD",46099,10972,4298,4.682,0.003,43.593329,-96.580853
09676,"Branson, MO Urban Area","Branson, MO",29213,28219,16134,34.834,0.443,36.64692,-93.247916
09703,"Brattleboro, VT Urban Area","Brattleboro, VT",50025,10507,5393,5.727,0.039,42.858719,-72.574444
09730,"Brawley, CA Urban Area","Brawley, CA",06025,26408,8584,4.763,0.0,32.977834,-115.535864
09757,"Brazil, IN Urban Area","Brazil, IN",18021,10529,4795,6.603,0.019,39.523118,-87.117042
09801,"Breaux Bridge, LA Urban Area","Breaux Bridge, LA",22099,16520,6917,21.265,0.308,30.28917,-91.874349
09811,"Breckenridge, CO Urban Area","Breckenridge, CO",08117,9582,10787,11.15,0.0,39.48617,-106.03932
09838,"Breckenridge, TX Urban Area","Breckenridge, TX",48429,5422,2666,4.847,0.004,32.756761,-98.905695
09865,"Breese, IL Urban Area","Breese, IL",17027,4376,1941,2.343,0.0,38.615243,-89.524393
09892,"Bremen, GA Urban Area","Bremen, GA",13143,8287,3201,7.376,0.008,33.715927,-85.142396
09946,"Bremerton, WA Urban Area","Bremerton, WA",53035,225224,92766,146.91,31.859,47.61591,-122.62618
09973,"Brenham, TX Urban Area","Brenham, TX",48477,17343,7301,10.264,0.031,30.164008,-96.398815
10027,"Brevard, NC Urban Area","Brevard, NC",37175,12867,6936,13.821,0.004,35.236962,-82.722868
10081,"Brewton, AL Urban Area","Brewton, AL",01053,7083,3118,6.258,0.02,31.105736,-87.069116
10162,"Bridgeport--Stamford, CT--NY Urban Area","Bridgeport, CT",09001,915447,366036,397.292,10.881,41.210462,-73.312649
10189,"Bridgeton, NJ Urban Area","Bridgeton, NJ",34011,35135,11014,12.164,0.186,39.438984,-75.229576
10243,"Brigham City, UT Urban Area","Brigham City, UT",49003,25803,8962,10.136,0.002,41.48781,-112.022274
10351,"Bristol, TN--VA Urban Area","Bristol, TN",47163,71305,33792,68.687,0.178,36.607403,-82.1467
10405,"Broadway--Timberville, VA Urban Area","Broadway, VA",51165,7203,2885,3.599,0.029,38.615845,-78.789572
10418,"Brockport, NY Urban Area","Brockport, NY",36055,12518,5001,6.424,0.054,43.21835,-77.935981
10567,"Brookfield, MO Urban Area","Brookfield, MO",29115,3894,2017,3.213,0.009,39.783508,-93.076913
10594,"Brookhaven, MS Urban Area","Brookhaven, MS",28085,10775,5065,10.035,0.023,31.586126,-90.445631
10621,"Brookings, OR Urban Area","Brookings, OR",41015,11383,5864,7.15,0.127,42.053123,-124.273329
10648,"Brookings, SD Urban Area","Brookings, SD",46011,23931,9893,11.098,0.0,44.301369,-96.786554
10729,"Brooksville, FL Urban Area","Brooksville, FL",12053,11730,6539,8.351,0.099,28.554493,-82.389931
10783,"Brookville, OH Urban Area","Brookville, OH",39113,6155,2849,4.076,0.0,39.840459,-84.413995
10810,"Brookville, PA Urban Area","Brookville, PA",42065,4444,2085,3.64,0.082,41.16113,-79.078754
10837,"Brownfield, TX Urban Area","Brownfield, TX",48445,8249,3654,4.357,0.012,33.177597,-102.272499
10891,"Browns Mills, NJ Urban Area","Browns Mills, NJ",34005,28337,9190,17.328,0.569,40.029203,-74.615661
10945,"Brownsville, TN Urban Area","Brownsville, TN",47075,9644,4411,7.387,0.0,35.595303,-89.257588
10972,"Brownsville, TX Urban Area","Brownsville, TX",48061,218194,71896,62.102,2.418,25.955911,-97.476682
10999,"Brownwood, TX Urban Area","Brownwood, TX",48049,21494,9381,13.539,0.0,31.706538,-98.974376
11026,"Brunswick--St. Simons, GA Urban Area","Brunswick, GA",13127,71065,35032,59.007,1.335,31.202499,-81.494876
11040,"Brunswick, ME Urban Area","Brunswick, ME",23005,31880,14900,26.757,1.548,43.915737,-69.910619
11053,"Brunswick, MD Urban Area","Brunswick, MD",24021,8365,3397,3.64,0.002,39.320089,-77.622161
11080,"Brush, CO Urban Area","Brush, CO",08087,5578,2220,2.52,0.0,40.257339,-103.630336
11107,"Bryan, OH Urban Area","Bryan, OH",39171,9157,4491,5.076,0.007,41.470289,-84.547443
11127,"Buchanan, MI Urban Area","Buchanan, MI",26021,6058,2768,4.151,0.053,41.828632,-86.35307
11134,"Buckeye, AZ Urban Area","Buckeye, AZ",04013,24534,7645,7.782,0.0,33.385281,-112.582651
11139,"Buckeye North, AZ Urban Area","Buckeye North, AZ",04013,7948,4173,2.81,0.0,33.671695,-112.623036
11161,"Buckhannon, WV Urban Area","Buckhannon, WV",54097,8530,3686,6.511,0.0,38.981818,-80.228055
11215,"Bucyrus, OH Urban Area","Bucyrus, OH",39033,11833,5561,6.856,0.0,40.803787,-82.97168
11235,"Buellton, CA Urban Area","Buellton, CA",06083,5151,2235,1.593,0.001,34.615497,-120.194237
11242,"Buena Vista, CO Urban Area","Buena Vista, CO",08015,4730,2038,5.138,0.034,38.831576,-106.132975
11269,"Buena Vista, VA Urban Area","Buena Vista, VA",51530,6695,2923,4.046,0.001,37.736015,-79.352678
11296,"Buffalo, MN Urban Area","Buffalo, MN",27171,16631,6608,8.181,1.21,45.183812,-93.8544
11350,"Buffalo, NY Urban Area","Buffalo, NY",36029,945866,442356,340.502,3.067,42.931099,-78.81206
11377,"Buffalo, WY Urban Area","Buffalo, WY",56019,4877,2443,3.283,0.0,44.352445,-106.699723
11420,"Buies Creek--Lillington, NC Urban Area","Buies Creek, NC",37085,7475,2712,7.141,0.043,35.398037,-78.815763
11431,"Bullhead City, AZ--NV Urban Area","Bullhead City, AZ",04015,53835,29777,35.394,0.559,35.134325,-114.533998
11593,"Burkburnett, TX Urban Area","Burkburnett, TX",48485,10686,4931,6.482,0.0,34.083139,-98.568512
11620,"Burley, ID Urban Area","Burley, ID",16031,18056,6658,9.546,0.695,42.549818,-113.779147
11674,"Burlington, IA--IL Urban Area","Burlington, IA",19057,28076,14303,21.116,0.087,40.80986,-91.153426
11728,"Burlington, NC Urban Area","Burlington, NC",37001,145957,62571,92.018,0.792,36.076328,-79.418004
11755,"Burlington, VT Urban Area","Burlington, VT",50007,118727,51823,62.014,0.996,44.470147,-73.152262
11782,"Burlington, WI Urban Area","Burlington, WI",55101,23948,10780,12.709,1.233,42.704405,-88.251596
11809,"Burnet, TX Urban Area","Burnet, TX",48053,5459,2207,3.571,0.021,30.763227,-98.22729
11863,"Burns, OR Urban Area","Burns, OR",41025,4540,2174,3.019,0.0,43.588459,-119.053909
11872,"Burnt Store Marina, FL Urban Area","Burnt Store Marina, FL",12015,4389,3380,4.265,0.319,26.778028,-82.041061
11890,"Bushnell, FL Urban Area","Bushnell, FL",12119,4272,2128,2.823,0.0,28.667914,-82.116843
11998,"Butler, PA Urban Area","Butler, PA",42019,38550,19432,28.463,0.147,40.863328,-79.924443
12052,"Butte-Silver Bow, MT Urban Area","Butte, MT",30093,30307,15085,15.287,0.0,45.983806,-112.517152
12079,"Byron, IL Urban Area","Byron, IL",17141,5389,2229,3.323,0.26,42.129933,-89.26148
12106,"Byron, MN Urban Area","Byron, MN",27109,6424,2436,3.087,0.0,44.037088,-92.640263
12160,"Cadillac, MI Urban Area","Cadillac, MI",26165,12824,6349,10.862,1.945,44.251175,-85.419953
12241,"Cairo, GA Urban Area","Cairo, GA",13131,10220,4289,8.013,0.089,30.876065,-84.204737
12430,"Calexico, CA Urban Area","Calexico, CA",06025,38181,11254,5.41,0.0,32.680886,-115.493918
12457,"Calhoun, GA Urban Area","Calhoun, GA",13129,23310,9013,20.391,0.055,34.496892,-84.936553
12538,"California--Brownsville, PA Urban Area","California, PA",42125,10592,4789,6.05,0.492,40.023431,-79.89826
12646,"Calistoga, CA Urban Area","Calistoga, CA",06055,5191,2330,2.287,0.018,38.582774,-122.583825
12655,"Calumet, MI Urban Area","Calumet, MI",26061,4931,2920,2.484,0.014,47.241358,-88.449228
12754,"Camarillo, CA Urban Area","Camarillo, CA",06111,76986,29627,22.479,0.017,34.22539,-119.037376
12781,"Cambria, CA Urban Area","Cambria, CA",06079,5434,3988,2.735,0.0,35.558909,-121.090462
12808,"Cambridge, MD Urban Area","Cambridge, MD",24019,14741,7286,8.651,0.14,38.559952,-76.066543
12835,"Cambridge, MN Urban Area","Cambridge, MN",27059,10226,4474,5.941,0.228,45.561011,-93.220892
12862,"Cambridge, OH Urban Area","Cambridge, OH",39059,13973,6950,10.976,0.05,40.004374,-81.580224
12916,"Camden, AR Urban Area","Camden, AR",05103,9524,4875,11.05,0.0,33.585707,-92.856741
12943,"Camden, ME Urban Area","Camden, ME",23013,4358,2764,4.067,0.119,44.208087,-69.076502
13010,"Camden--Lugoff, SC Urban Area","Camden, SC",45055,31451,13657,34.638,0.257,34.223534,-80.684964
13024,"Camdenton, MO Urban Area","Camdenton, MO",29029,5463,3306,8.87,0.0,38.004673,-92.775267
13051,"Cameron, MO Urban Area","Cameron, MO",29049,9050,3136,4.507,0.033,39.743908,-94.237341
13078,"Cameron, TX Urban Area","Cameron, TX",48331,5209,1871,3.502,0.0,30.858984,-96.976909
13132,"Camilla, GA Urban Area","Camilla, GA",13205,5200,2475,4.744,0.013,31.227906,-84.207175
13159,"Campbellsville, KY Urban Area","Campbellsville, KY",21217,12882,5798,8.491,0.119,37.352554,-85.346495
13170,"Camp Verde, AZ Urban Area","Camp Verde, AZ",04025,6393,2379,5.202,0.0,34.606694,-111.887004
13186,"Canajoharie--Fort Plain, NY Urban Area","Canajoharie, NY",36057,5278,2736,4.019,0.145,42.89908,-74.567869
13213,"Canandaigua, NY Urban Area","Canandaigua, NY",36069,18689,10190,13.071,0.041,42.871921,-77.286733
13217,"Canastota, NY Urban Area","Canastota, NY",36053,5588,2704,3.766,0.005,43.076486,-75.741235
13221,"Canby, OR Urban Area","Canby, OR",41005,18635,7262,5.898,0.002,45.268531,-122.686316
13267,"Cañon City, CO Urban Area","Cañon City, CO",08043,24376,11180,15.919,0.012,38.441886,-105.220899
13294,"Canton, IL Urban Area","Canton, IL",17057,13048,5928,5.423,0.0,40.562606,-90.033003
13321,"Canton, MS Urban Area","Canton, MS",28089,23356,10359,23.707,1.547,32.538539,-90.128065
13348,"Canton, NY Urban Area","Canton, NY",36089,6874,2146,2.218,0.092,44.596942,-75.167841
13361,"Canton, NC Urban Area","Canton, NC",37087,9218,4264,8.872,0.006,35.53074,-82.846398
13375,"Canton, OH Urban Area","Canton, OH",39151,294278,133529,180.194,1.251,40.844054,-81.42373
13456,"Canyon, TX Urban Area","Canyon, TX",48381,16751,6395,7.324,0.026,34.993015,-101.923302
13483,"Canyon Lake, TX Urban Area","Canyon Lake, TX",48091,7903,4378,9.235,0.015,29.864483,-98.277394
13510,"Cape Coral, FL Urban Area","Cape Coral, FL",12071,613519,322330,331.801,39.273,26.607991,-81.853564
13537,"Cape Girardeau, MO--IL Urban Area","Cape Girardeau, MO",29031,55771,25011,31.217,0.047,37.337865,-89.58556
13564,"Carbondale, CO Urban Area","Carbondale, CO",08045,8230,3446,2.638,0.0,39.400993,-107.220099
13591,"Carbondale, IL Urban Area","Carbondale, IL",17077,31491,17874,21.665,0.496,37.743258,-89.256334
13699,"Carlinville, IL Urban Area","Carlinville, IL",17117,5789,2573,2.987,0.0,39.279489,-89.880348
13807,"Carlsbad, NM Urban Area","Carlsbad, NM",35015,33595,14801,19.475,0.254,32.40079,-104.241012
13861,"Carmi, IL Urban Area","Carmi, IL",17193,5086,2656,2.647,0.02,38.086462,-88.17157
13915,"Caro, MI Urban Area","Caro, MI",26157,5559,2640,4.543,0.0,43.495467,-83.390196
13969,"Carrizo Springs, TX Urban Area","Carrizo Springs, TX",48127,6300,2656,4.237,0.013,28.525366,-99.85476
13996,"Carroll, IA Urban Area","Carroll, IA",19027,10190,4821,4.967,0.0,42.06822,-94.865405
14023,"Carrollton, GA Urban Area","Carrollton, GA",13045,37014,14432,34.417,0.623,33.588752,-85.063232
14050,"Carrollton, KY Urban Area","Carrollton, KY",21041,5407,2308,3.516,0.024,38.679621,-85.165764
14158,"Carson City, NV Urban Area","Carson City, NV",32510,61122,26570,26.185,0.065,39.15537,-119.754
14185,"Cartersville, GA Urban Area","Cartersville, GA",13015,52003,21129,44.422,0.035,34.202636,-84.817404
14266,"Carthage, MO Urban Area","Carthage, MO",29097,16234,6616,8.584,0.0,37.166055,-94.32025
14293,"Carthage, NY Urban Area","Carthage, NY",36045,4890,2608,2.479,0.001,43.982927,-75.617382
14347,"Carthage, TX Urban Area","Carthage, TX",48365,6304,3093,7.46,0.006,32.157382,-94.344165
14374,"Caruthersville, MO Urban Area","Caruthersville, MO",29155,5182,2408,3.25,0.001,36.184098,-89.665647
14401,"Casa Grande, AZ Urban Area","Casa Grande, AZ",04021,52181,22386,21.465,0.0,32.901888,-111.738048
14482,"Casper, WY Urban Area","Casper, WY",56025,67303,31393,27.878,0.331,42.839148,-106.336707
14563,"Castle Rock, CO Urban Area","Castle Rock, CO",08035,87628,31945,35.706,0.006,39.39969,-104.865046
14600,"Castroville--Prunedale, CA Urban Area","Castroville, CA",06053,11523,2944,3.38,0.086,36.77401,-121.734989
14644,"Catskill, NY Urban Area","Catskill, NY",36039,6781,3426,6.422,0.087,42.212825,-73.869612
14698,"Cedar City, UT Urban Area","Cedar City, UT",49021,41168,13764,18.298,0.0,37.702494,-113.071088
14752,"Cedar Rapids, IA Urban Area","Cedar Rapids, IA",19113,193110,86657,86.03,0.941,41.989546,-91.666429
14806,"Cedartown, GA Urban Area","Cedartown, GA",13233,12737,4918,9.57,0.029,34.016565,-85.249558
14860,"Celina, OH Urban Area","Celina, OH",39107,12214,5644,6.087,0.07,40.553346,-84.557344
14887,"Center, TX Urban Area","Center, TX",48419,4997,2192,6.782,0.007,31.790405,-94.175234
14914,"Centerville, IA Urban Area","Centerville, IA",19007,5519,2934,3.48,0.027,40.729839,-92.872033
14960,"Central City, KY Urban Area","Central City, KY",21177,5278,2012,4.279,0.003,37.292742,-87.123554
15022,"Centralia, IL Urban Area","Centralia, IL",17121,15358,7451,9.813,0.023,38.526066,-89.129354
15076,"Centralia, WA Urban Area","Centralia, WA",53041,43696,17665,30.389,0.313,46.727959,-122.980673
15130,"Chadron, NE Urban Area","Chadron, NE",31045,5053,2328,2.305,0.0,42.827686,-103.00432
15184,"Chambersburg, PA Urban Area","Chambersburg, PA",42055,50651,22207,34.675,0.009,39.942614,-77.631496
15211,"Champaign, IL Urban Area","Champaign, IL",17019,147566,68882,46.524,0.377,40.106338,-88.247566
15265,"Chanute, KS Urban Area","Chanute, KS",20133,8699,4118,5.798,0.011,37.674203,-95.462214
15300,"Chapin, SC Urban Area","Chapin, SC",45063,5177,1980,6.323,0.01,34.148431,-81.33806
15319,"Chardon, OH Urban Area","Chardon, OH",39055,6675,2817,5.224,0.019,41.579289,-81.20906
15373,"Charles City, IA Urban Area","Charles City, IA",19067,7402,3733,4.083,0.069,43.062058,-92.671271
15400,"Charleston, IL Urban Area","Charleston, IL",17029,17752,8580,7.753,0.0,39.484983,-88.176072
15481,"Charleston, WV Urban Area","Charleston, WV",54039,140207,71328,92.922,7.965,38.355031,-81.665738
15508,"Charleston, SC Urban Area","Charleston, SC",45019,688463,306017,339.063,6.96,32.915567,-80.023707
15535,"Charlestown, IN Urban Area","Charlestown, IN",18019,6563,2841,4.026,0.014,38.445253,-85.665576
15589,"Charlestown, RI Urban Area","Charlestown, RI",44009,4078,3311,6.321,1.27,41.383205,-71.623481
15616,"Charlevoix, MI Urban Area","Charlevoix, MI",26029,4025,2993,4.046,0.123,45.319086,-85.252013
15643,"Charlotte, MI Urban Area","Charlotte, MI",26045,12648,5331,8.439,0.171,42.581265,-84.80822
15670,"Charlotte, NC--SC Urban Area","Charlotte, NC",37119,1383179,579043,657.614,10.298,35.227536,-80.806559
15724,"Charlottesville, VA Urban Area","Charlottesville, VA",51003,105024,45596,36.873,0.296,38.046619,-78.473218
15778,"Chatsworth, GA Urban Area","Chatsworth, GA",13213,12860,4915,16.113,0.009,34.77473,-84.793341
15832,"Chattanooga, TN--GA Urban Area","Chattanooga, TN",47065,396925,178508,291.703,2.254,35.051719,-85.20525
15859,"Cheboygan, MI Urban Area","Cheboygan, MI",26031,5204,3144,6.028,0.075,45.650289,-84.486032
15913,"Chelan, WA Urban Area","Chelan, WA",53007,6094,4994,7.542,0.044,47.859489,-120.052972
15940,"Chelsea, MI Urban Area","Chelsea, MI",26161,5713,2846,3.547,0.051,42.311392,-84.019416
15967,"Cheney, WA Urban Area","Cheney, WA",53063,12848,5174,3.298,0.0,47.491132,-117.582017
15994,"Cheraw, SC Urban Area","Cheraw, SC",45025,6975,3568,7.351,0.049,34.697894,-79.913969
16021,"Cherokee, IA Urban Area","Cherokee, IA",19035,4671,2265,3.138,0.0,42.751561,-95.551165
16075,"Cherryville, NC Urban Area","Cherryville, NC",37071,6257,2797,6.176,0.012,35.385313,-81.37485
16102,"Chesapeake Beach, MD Urban Area","Chesapeake Beach, MD",24009,18026,7215,13.091,0.162,38.708037,-76.561584
16156,"Chester, IL Urban Area","Chester, IL",17157,6113,2121,3.962,0.012,37.916573,-89.815476
16171,"Chester, NY Urban Area","Chester, NY",36071,5416,2202,4.572,0.008,41.362707,-74.278079
16183,"Chester, SC Urban Area","Chester, SC",45023,9369,4413,6.291,0.01,34.711291,-81.2075
16210,"Chestertown, MD Urban Area","Chestertown, MD",24029,7592,3481,4.42,0.022,39.216279,-76.064733
16237,"Cheyenne, WY Urban Area","Cheyenne, WY",56021,78883,36134,33.875,0.088,41.139752,-104.800984
16264,"Chicago, IL--IN Urban Area","Chicago, IL",17031,8622363,3560495,2337.885,38.95,41.83041,-87.908669
16291,"Chickasha, OK Urban Area","Chickasha, OK",40051,15897,7449,9.75,0.048,35.033206,-97.94895
16318,"Chico, CA Urban Area","Chico, CA",06007,111548,49413,33.715,0.056,39.755529,-121.840979
16372,"Childress, TX Urban Area","Childress, TX",48075,4362,2090,3.222,0.014,34.426735,-100.212909
16426,"Chillicothe, MO Urban Area","Chillicothe, MO",29117,9091,4033,5.981,0.027,39.796077,-93.550625
16453,"Chillicothe, OH Urban Area","Chillicothe, OH",39141,31168,13145,16.394,0.15,39.346103,-83.004712
16507,"Chincoteague, VA Urban Area","Chincoteague, VA",51001,3092,4247,4.059,0.127,37.928393,-75.3698
16561,"Chino Valley, AZ Urban Area","Chino Valley, AZ",04025,14235,6080,13.721,0.0,34.766794,-112.467831
16615,"Chisholm, MN Urban Area","Chisholm, MN",27137,4659,2080,2.182,0.027,47.491774,-92.886258
16642,"Chittenango, NY Urban Area","Chittenango, NY",36053,5294,2290,2.163,0.002,43.051133,-75.882413
16696,"Chowchilla, CA Urban Area","Chowchilla, CA",06039,13253,4161,4.825,0.046,37.112528,-120.246784
16804,"Ciales, PR Urban Area","Ciales, PR",72039,11811,5357,11.577,0.013,18.363865,-66.464689
16830,"Cienega Springs, AZ Urban Area","Cienega Springs, AZ",04012,1872,2725,3.2,0.0,34.272925,-114.132176
16885,"Cincinnati, OH--KY Urban Area","Cincinnati, OH",39061,1685649,729856,752.275,8.569,39.1808,-84.460584
16912,"Circleville, OH Urban Area","Circleville, OH",39129,16219,7059,7.376,0.008,39.605129,-82.937356
17047,"Clanton, AL Urban Area","Clanton, AL",01021,6601,2754,9.058,0.055,32.840635,-86.626172
17101,"Claremont, NH Urban Area","Claremont, NH",33019,9602,4556,5.982,0.02,43.372083,-72.349186
17128,"Claremore, OK Urban Area","Claremore, OK",40131,25619,10582,15.431,0.001,36.281468,-95.635473
17155,"Clarinda, IA Urban Area","Clarinda, IA",19145,5209,2154,2.358,0.0,40.738013,-95.038909
17209,"Clarion, PA Urban Area","Clarion, PA",42031,6246,2867,3.373,0.016,41.191124,-79.379227
17236,"Clarksburg, WV Urban Area","Clarksburg, WV",54033,33000,15868,21.22,0.07,39.268646,-80.334949
17263,"Clarksdale, MS Urban Area","Clarksdale, MS",28027,14632,6918,7.415,0.006,34.200292,-90.5738
17290,"Clarksville, AR Urban Area","Clarksville, AR",05071,7899,3458,7.793,0.046,35.46818,-93.46929
17317,"Clarksville, TN--KY Urban Area","Clarksville, TN",47125,205063,79236,113.088,0.06,36.576674,-87.345509
17398,"Clay Center, KS Urban Area","Clay Center, KS",20027,4154,2030,2.516,0.002,39.380073,-97.12396
17424,"Clayton, NY Urban Area","Clayton, NY",36045,2242,2173,2.747,0.509,44.252919,-76.04411
17426,"Clayton, NC Urban Area","Clayton, NC",37101,51915,20157,36.262,0.16,35.630165,-78.372738
17452,"Clearfield, PA Urban Area","Clearfield, PA",42033,10420,4886,7.074,0.113,41.017514,-78.438359
17479,"Clearlake, CA Urban Area","Clearlake, CA",06033,17219,8230,8.133,0.068,38.953939,-122.634103
17506,"Clear Lake, IA Urban Area","Clear Lake, IA",19033,8169,5210,8.624,0.029,43.140539,-93.381039
17514,"Clearlake Riviera, CA Urban Area","Clearlake Riviera, CA",06033,6122,3576,6.725,0.041,38.97643,-122.741462
17533,"Cleburne, TX Urban Area","Cleburne, TX",48251,45069,17071,24.511,0.131,32.348358,-97.407671
17560,"Cle Elum, WA Urban Area","Cle Elum, WA",53037,3807,2394,4.527,0.0,47.203671,-120.959209
17641,"Cleveland, MS Urban Area","Cleveland, MS",28011,14340,6159,8.233,0.0,33.742266,-90.725248
17668,"Cleveland, OH Urban Area","Cleveland, OH",39035,1703571,808509,713.808,4.606,41.445919,-81.601542
17722,"Cleveland, TN Urban Area","Cleveland, TN",47011,73381,30364,54.974,0.044,35.172224,-84.860494
17749,"Cleveland, TX Urban Area","Cleveland, TX",48291,7238,2902,4.541,0.0,30.344194,-95.080493
17776,"Clewiston, FL Urban Area","Clewiston, FL",12051,12172,4644,5.549,0.15,26.7454,-80.930874
17857,"Clifton Forge, VA Urban Area","Clifton Forge, VA",51005,4964,2537,4.498,0.088,37.81442,-79.817825
17870,"Clifton Springs, NY Urban Area","Clifton Springs, NY",36069,6387,2740,4.198,0.0,42.972959,-77.230209
17884,"Clinton, IL Urban Area","Clinton, IL",17039,7294,3649,3.646,0.0,40.148895,-88.963084
17911,"Clinton, IN Urban Area","Clinton, IN",18165,6565,3109,3.134,0.0,39.665195,-87.408832
17938,"Clinton--Fulton, IA--IL Urban Area","Clinton, IA",19045,31102,15544,19.11,1.278,41.843215,-90.211242
17965,"Clinton, MO Urban Area","Clinton, MO",29083,8458,4222,6.052,0.072,38.369825,-93.76656
17980,"Clinton, NJ Urban Area","Clinton, NJ",34019,15615,6134,10.465,0.098,40.634337,-74.895866
17992,"Clinton, NC Urban Area","Clinton, NC",37163,9507,3805,9.09,0.056,35.004757,-78.3289
18019,"Clinton, OK Urban Area","Clinton, OK",40039,8067,3757,4.342,0.0,35.506291,-98.976762
18046,"Clinton, SC Urban Area","Clinton, SC",45059,8711,3724,8.463,0.016,34.463144,-81.877282
18100,"Clintonville, WI Urban Area","Clintonville, WI",55135,4542,2267,2.672,0.094,44.624152,-88.760202
18127,"Cloquet, MN Urban Area","Cloquet, MN",27017,13722,5955,9.428,0.195,46.704086,-92.434241
18154,"Clover, SC Urban Area","Clover, SC",45091,7192,3113,5.186,0.011,35.108517,-81.221617
18181,"Cloverdale, CA Urban Area","Cloverdale, CA",06097,9342,3662,3.372,0.0,38.80235,-123.016554
18208,"Clovis, NM Urban Area","Clovis, NM",35009,39294,17315,16.064,0.067,34.412949,-103.200891
18235,"Clyde, OH Urban Area","Clyde, OH",39143,6512,3019,4.796,0.052,41.303585,-82.979425
18270,"Coal City--Braidwood, IL Urban Area","Coal City, IL",17197,15775,6843,10.288,0.193,41.279088,-88.221819
18289,"Coalinga, CA Urban Area","Coalinga, CA",06019,13589,4483,4.262,0.008,36.146333,-120.355187
18316,"Coamo, PR Urban Area","Coamo, PR",72043,31984,13980,16.261,0.011,18.062787,-66.378968
18343,"Cobleskill, NY Urban Area","Cobleskill, NY",36095,5228,2124,4.33,0.004,42.675387,-74.492367
18370,"Cochran, GA Urban Area","Cochran, GA",13023,6086,2488,5.453,0.113,32.390238,-83.346608
18397,"Cody, WY Urban Area","Cody, WY",56029,10154,4818,6.909,0.012,44.524696,-109.050212
18451,"Coeur d'Alene, ID Urban Area","Coeur d'Alene, ID",16055,123334,51001,46.756,0.774,47.764472,-116.794297
18478,"Coffeyville, KS--OK Urban Area","Coffeyville, KS",20125,9484,4915,7.44,0.0,37.033969,-95.628824
18532,"Colby, KS Urban Area","Colby, KS",20193,5349,2430,2.964,0.0,39.386955,-101.047288
18559,"Colchester, CT Urban Area","Colchester, CT",09011,5815,2657,5.04,0.013,41.571299,-72.339558
18586,"Cold Spring, MN Urban Area","Cold Spring, MN",27145,5013,2106,3.211,0.0,45.452442,-94.419274
18640,"Cold Springs, NV Urban Area","Cold Springs, NV",32031,10421,3506,3.469,0.0,39.678143,-119.976003
18667,"Coldwater, MI Urban Area","Coldwater, MI",26023,13545,5334,10.698,0.298,41.938889,-85.006418
18694,"Coleman, TX Urban Area","Coleman, TX",48083,3772,2130,2.788,0.0,31.825408,-99.425808
18748,"College Station--Bryan, TX Urban Area","College Station, TX",48041,206462,86565,81.626,0.069,30.623812,-96.334205
18755,"Collins, NY Urban Area","Collins, NY",36029,4809,1806,2.338,0.016,42.47001,-78.933977
18760,"Collinsville, OK Urban Area","Collinsville, OK",40143,5200,2347,3.433,0.018,36.367205,-95.845152
18775,"Colonial Beach, VA Urban Area","Colonial Beach, VA",51193,3939,2545,1.729,0.011,38.257667,-76.971638
18829,"Colorado City, TX Urban Area","Colorado City, TX",48335,5093,1601,2.785,0.0,32.397128,-100.860454
18856,"Colorado Springs, CO Urban Area","Colorado Springs, CO",08041,634334,256102,200.363,0.405,38.872952,-104.770643
18883,"Columbia, KY Urban Area","Columbia, KY",21001,4669,1823,3.382,0.038,37.101967,-85.299243
18910,"Columbia, MS Urban Area","Columbia, MS",28091,6326,2787,6.298,0.024,31.255252,-89.819681
18937,"Columbia, MO Urban Area","Columbia, MO",29019,141227,61758,67.198,0.274,38.943303,-92.329522
18964,"Columbia, SC Urban Area","Columbia, SC",45079,595028,259047,367.496,7.042,34.027752,-81.08818
18991,"Columbia, TN Urban Area","Columbia, TN",47119,43183,19798,30.146,0.01,35.605029,-87.080518
19018,"Columbia City, IN Urban Area","Columbia City, IN",18183,9827,4603,6.035,0.019,41.158291,-85.477519
19045,"Columbia Falls, MT Urban Area","Columbia Falls, MT",30029,6518,3065,4.251,0.001,48.374919,-114.190919
19072,"Columbiana, OH Urban Area","Columbiana, OH",39029,9988,4853,6.981,0.07,40.889943,-80.702721
19099,"Columbus, GA--AL Urban Area","Columbus, GA",13215,265897,117108,142.857,0.868,32.489714,-84.974032
19126,"Columbus, IN Urban Area","Columbus, IN",18005,61727,27190,27.861,0.324,39.239026,-85.922884
19180,"Columbus, MS Urban Area","Columbus, MS",28087,27229,13375,20.082,0.279,33.515209,-88.402626
19207,"Columbus, NE Urban Area","Columbus, NE",31141,25489,10556,13.483,0.216,41.435991,-97.342792
19234,"Columbus, OH Urban Area","Columbus, OH",39049,1562582,674296,516.16,7.862,40.020469,-82.970803
19288,"Columbus, WI Urban Area","Columbus, WI",55021,6798,3063,4.08,0.036,43.343754,-89.028269
19342,"Colusa, CA Urban Area","Colusa, CA",06011,6961,2730,2.965,0.0,39.200523,-122.008272
19369,"Colville, WA Urban Area","Colville, WA",53065,5066,2241,3.226,0.0,48.544754,-117.898377
19450,"Commerce, GA Urban Area","Commerce, GA",13157,7880,2886,10.334,0.036,34.218313,-83.464338
19477,"Commerce, TX Urban Area","Commerce, TX",48231,8294,2990,3.342,0.022,33.244147,-95.901586
19504,"Concord--Walnut Creek, CA Urban Area","Concord, CA",06013,537048,210255,175.763,0.653,37.889913,-122.034764
19531,"Concord, NH Urban Area","Concord, NH",33013,43165,18694,26.648,0.781,43.264226,-71.581064
19558,"Concord, NC Urban Area","Concord, NC",37025,281372,112810,200.057,0.513,35.470793,-80.596786
19585,"Concordia, KS Urban Area","Concordia, KS",20029,5050,2656,3.125,0.0,39.565156,-97.655455
19597,"Conesus Lake, NY Urban Area","Conesus Lake, NY",36051,4353,2901,4.787,5.05,42.802756,-77.700919
19612,"Conneaut, OH Urban Area","Conneaut, OH",39007,11921,5434,8.278,0.017,41.938956,-80.587327
19639,"Conneaut Lakeshore, PA Urban Area","Conneaut Lakeshore, PA",42039,2329,2267,3.768,1.487,41.620949,-80.2964
19666,"Connell, WA Urban Area","Connell, WA",53021,5186,1320,2.176,0.0,46.66276,-118.862263
19686,"Connellsville, PA Urban Area","Connellsville, PA",42051,30395,14836,20.603,0.067,40.087289,-79.568722
19693,"Connersville, IN Urban Area","Connersville, IN",18041,14400,6994,7.452,0.015,39.65511,-85.136364
19801,"Conway, AR Urban Area","Conway, AR",05045,67337,29147,32.88,0.278,35.068797,-92.447413
19811,"Conway, NH Urban Area","Conway, NH",33003,5671,4113,8.759,0.291,44.035719,-71.117232
19828,"Cookeville, TN Urban Area","Cookeville, TN",47141,50403,22051,45.461,0.095,36.164149,-85.510318
19862,"Coolbaugh--Pocono Pines, PA Urban Area","Coolbaugh, PA",42089,25259,13045,19.742,0.853,41.136177,-75.399832
19882,"Coolidge, AZ Urban Area","Coolidge, AZ",04021,12894,4481,4.139,0.008,32.977854,-111.527291
19936,"Coos Bay, OR Urban Area","Coos Bay, OR",41011,31786,14880,14.627,0.922,43.381129,-124.242771
19970,"Coquí--Jobos, PR Urban Area","Coquí, PR",72057,12917,5504,4.443,0.005,17.97768,-66.220724
19990,"Coquille, OR Urban Area","Coquille, OR",41011,4296,1960,3.434,0.114,43.176394,-124.184232
20044,"Corcoran, CA Urban Area","Corcoran, CA",06031,23077,4737,6.287,0.0,36.085557,-119.562105
20071,"Cordele, GA Urban Area","Cordele, GA",13081,11196,5303,8.598,0.028,31.965338,-83.773823
20098,"Corinth, MS Urban Area","Corinth, MS",28003,12799,6465,12.8,0.015,34.930271,-88.512112
20125,"Corinth, NY Urban Area","Corinth, NY",36113,3718,2268,2.96,0.161,43.240864,-73.83371
20152,"Cornelia--Baldwin, GA Urban Area","Cornelia, GA",13137,18966,6405,19.566,0.095,34.529832,-83.536151
20206,"Corning, CA Urban Area","Corning, CA",06103,8370,2975,3.047,0.0,39.924565,-122.185733
20233,"Corning, NY Urban Area","Corning, NY",36101,20158,10092,10.78,0.207,42.16986,-77.12003
20247,"Corona de Tucson, AZ Urban Area","Corona de Tucson, AZ",04019,7351,2494,3.432,0.0,31.944623,-110.77761
20287,"Corpus Christi, TX Urban Area","Corpus Christi, TX",48355,340049,142940,129.274,1.431,27.749359,-97.417229
20314,"Corry, PA Urban Area","Corry, PA",42049,6113,3353,4.162,0.001,41.926474,-79.628929
20341,"Corsicana, TX Urban Area","Corsicana, TX",48349,23913,9329,15.522,0.134,32.089989,-96.470025
20368,"Cortez, CO Urban Area","Cortez, CO",08083,7960,3818,4.248,0.027,37.35292,-108.573847
20395,"Cortland, NY Urban Area","Cortland, NY",36023,24592,10899,10.344,0.047,42.600283,-76.191401
20422,"Corvallis, OR Urban Area","Corvallis, OR",41003,66528,28418,17.453,0.047,44.567815,-123.292341
20442,"Corydon, IN Urban Area","Corydon, IN",18061,5529,2812,3.589,0.0,38.224839,-86.131514
20476,"Coshocton, OH Urban Area","Coshocton, OH",39031,12507,5868,7.81,0.06,40.263665,-81.85002
20503,"Cottage Grove, OR Urban Area","Cottage Grove, OR",41039,11697,4901,5.248,0.068,43.790043,-123.055552
20595,"Cottonwood (Yavapai County)--Verde Village, AZ Urban Area","Cottonwood (Yavapai County), AZ",04025,29807,14816,16.906,0.0,34.729118,-112.016803
20719,"Covington, TN Urban Area","Covington, TN",47167,7609,3392,5.998,0.0,35.569225,-89.647845
20746,"Covington, VA Urban Area","Covington, VA",51580,7816,4042,7.327,0.23,37.780677,-79.983041
20773,"Coxsackie, NY Urban Area","Coxsackie, NY",36039,5232,1415,3.763,0.014,42.353344,-73.820934
20827,"Craig, CO Urban Area","Craig, CO",08081,9758,4509,5.501,0.0,40.517095,-107.557206
20881,"Crawfordsville, IN Urban Area","Crawfordsville, IN",18107,17228,7651,9.771,0.03,40.041143,-86.903643
20890,"Crawfordville, FL Urban Area","Crawfordville, FL",12129,8999,3574,9.719,0.0,30.189998,-84.355266
20899,"Creedmoor, NC Urban Area","Creedmoor, NC",37077,7061,3050,6.791,0.033,36.124252,-78.702111
20908,"Crescent City, CA Urban Area","Crescent City, CA",06015,15976,6587,16.336,0.087,41.78645,-124.201626
20980,"Cresson, PA Urban Area","Cresson, PA",42021,6562,3011,3.881,0.0,40.467534,-78.576693
20985,"Crestline, OH Urban Area","Crestline, OH",39033,4512,2017,3.181,0.005,40.784932,-82.740578
20989,"Crestline--Lake Arrowhead, CA Urban Area","Crestline, CA",06071,18568,17799,16.851,1.343,34.250962,-117.228384
21016,"Creston, IA Urban Area","Creston, IA",19175,7540,3814,4.515,0.002,41.059112,-94.36358
21043,"Crestview, FL Urban Area","Crestview, FL",12091,46282,17780,39.844,0.694,30.767535,-86.560304
21070,"Creswell, OR Urban Area","Creswell, OR",41039,5938,2263,2.443,0.017,43.92394,-123.014252
21097,"Crete, NE Urban Area","Crete, NE",31151,7036,2454,2.603,0.031,40.624767,-96.956078
21151,"Crisfield, MD Urban Area","Crisfield, MD",24039,3276,1901,2.688,0.153,37.986601,-75.845759
21205,"Crockett, TX Urban Area","Crockett, TX",48225,6226,2781,6.56,0.0,31.313523,-95.453712
21232,"Crookston, MN Urban Area","Crookston, MN",27119,7655,3698,4.649,0.0,47.776408,-96.606622
21340,"Crossett, AR Urban Area","Crossett, AR",05003,7264,3867,9.01,0.182,33.140109,-91.956963
21394,"Crossville, TN Urban Area","Crossville, TN",47035,19075,9549,26.801,1.163,35.936478,-85.038234
21421,"Crowley, LA Urban Area","Crowley, LA",22001,13399,6451,7.085,0.007,30.213804,-92.376695
21448,"Crozet, VA Urban Area","Crozet, VA",51003,8943,3696,4.487,0.027,38.065114,-78.697295
21502,"Crystal City, TX Urban Area","Crystal City, TX",48507,6822,2803,3.542,0.004,28.688755,-99.826764
21529,"Crystal River, FL Urban Area","Crystal River, FL",12017,7371,4559,14.085,1.151,28.895754,-82.586197
21556,"Crystal Springs, MS Urban Area","Crystal Springs, MS",28029,4639,2116,3.956,0.01,31.984777,-90.356084
21610,"Cuero, TX Urban Area","Cuero, TX",48123,7124,3056,4.365,0.018,29.0928,-97.285992
21637,"Cullman, AL Urban Area","Cullman, AL",01043,22029,10004,21.491,0.176,34.16882,-86.842334
21664,"Cullowhee, NC Urban Area","Cullowhee, NC",37099,8713,2876,6.097,0.0,35.320004,-83.19196
21691,"Culpeper, VA Urban Area","Culpeper, VA",51047,22648,8045,9.371,0.025,38.472101,-78.001689
21745,"Cumberland, MD--WV--PA Urban Area","Cumberland, MD",24001,45506,21689,31.695,0.263,39.643168,-78.806255
21772,"Cushing, OK Urban Area","Cushing, OK",40119,7197,3589,9.312,0.012,35.961002,-96.757194
21853,"Cynthiana, KY Urban Area","Cynthiana, KY",21097,6428,2905,2.989,0.055,38.38556,-84.295239
21893,"Dade City, FL Urban Area","Dade City, FL",12101,20891,7694,14.397,0.376,28.353423,-82.207452
21934,"Dahlonega, GA Urban Area","Dahlonega, GA",13187,5403,1700,3.147,0.0,34.540307,-83.978387
21988,"Dalhart, TX Urban Area","Dalhart, TX",48111,7832,3374,3.499,0.002,36.059498,-102.513642
22015,"Dallas, OR Urban Area","Dallas, OR",41053,17953,7055,5.496,0.0,44.922399,-123.311383
22042,"Dallas--Fort Worth--Arlington, TX Urban Area","Dallas, TX",48113,5730707,2247403,1746.896,24.768,32.810975,-96.972981
22069,"Dalton, GA Urban Area","Dalton, GA",13313,68688,25943,57.489,0.077,34.779018,-84.975143
22096,"Danbury, CT--NY Urban Area","Danbury, CT",09001,171339,68297,118.489,6.018,41.449654,-73.423258
22177,"Dansville, NY Urban Area","Dansville, NY",36051,4652,2409,3.195,0.0,42.563946,-77.703175
22204,"Danville, IL Urban Area","Danville, IL",17183,39699,19020,27.794,0.862,40.130703,-87.62932
22231,"Danville, KY Urban Area","Danville, KY",21021,19623,8403,13.614,0.052,37.629284,-84.77827
22253,"Danville, VA--NC Urban Area","Danville, VA",51590,46996,23989,36.312,0.558,36.598752,-79.41411
22260,"Danville--Mahoning, PA Urban Area","Danville, PA",42093,9973,4648,5.212,0.017,40.962405,-76.600958
22366,"Davenport, IA--IL Urban Area","Davenport, IA",19163,284656,130132,134.859,7.604,41.523198,-90.51448
22420,"Davis, CA Urban Area","Davis, CA",06113,77484,29779,12.162,0.035,38.550686,-121.735394
22528,"Dayton, OH Urban Area","Dayton, OH",39113,670318,308611,319.892,2.625,39.732177,-84.176024
22555,"Dayton, TN Urban Area","Dayton, TN",47143,9168,4009,9.119,0.237,35.489922,-85.020211
22582,"Dayton, TX Urban Area","Dayton, TX",48291,6732,2872,5.407,0.0,30.042912,-94.894291
22612,"Daytona Beach--Palm Coast--Port Orange, FL Urban Area","Daytona Beach, FL",12127,407133,221405,212.359,12.204,29.27457,-81.086166
22616,"Dayton Northeast, NV Urban Area","Dayton Northeast, NV",32019,6668,2526,3.839,0.0,39.303689,-119.527558
22622,"Dayton Southwest, NV Urban Area","Dayton Southwest, NV",32019,7463,3008,4.498,0.001,39.254137,-119.561571
22690,"Decatur, AL Urban Area","Decatur, AL",01103,60627,26232,43.47,0.406,34.587541,-87.007257
22717,"Decatur, IL Urban Area","Decatur, IL",17115,86561,42166,55.107,2.933,39.844714,-88.934605
22744,"Decatur, IN Urban Area","Decatur, IN",18001,10361,4948,6.559,0.006,40.831679,-84.928689
22771,"Decatur, TX Urban Area","Decatur, TX",48497,6359,2522,6.198,0.0,33.228369,-97.59167
22798,"Decorah, IA Urban Area","Decorah, IA",19191,7780,3244,5.196,0.043,43.30391,-91.782758
22879,"Defiance, OH Urban Area","Defiance, OH",39039,17598,8291,12.369,0.535,41.285146,-84.35937
22933,"DeFuniak Springs, FL Urban Area","DeFuniak Springs, FL",12131,6830,2991,7.17,0.267,30.733743,-86.130341
22960,"DeKalb, IL Urban Area","DeKalb, IL",17037,65117,27631,25.632,0.242,41.948874,-88.723629
22987,"Delano, CA Urban Area","Delano, CA",06029,44908,12295,7.365,0.0,35.766201,-119.243036
22995,"Delano, MN Urban Area","Delano, MN",27171,6389,2348,3.093,0.0,45.037644,-93.787948
23041,"Delavan, WI Urban Area","Delavan, WI",55127,12006,6915,9.095,2.755,42.616512,-88.639722
23080,"Delhi, CA Urban Area","Delhi, CA",06047,10464,2766,2.34,0.0,37.428666,-120.779779
23176,"Delphos, OH Urban Area","Delphos, OH",39003,7187,3344,3.437,0.028,40.844657,-84.336129
23203,"Del Rio, TX Urban Area","Del Rio, TX",48465,42327,15989,18.808,0.083,29.370854,-100.876596
23230,"Delta, CO Urban Area","Delta, CO",08029,8336,3355,6.227,0.05,38.745424,-108.061934
23311,"Deltona, FL Urban Area","Deltona, FL",12127,213633,84896,108.983,4.857,28.989805,-81.259659
23338,"Deming, NM Urban Area","Deming, NM",35029,14648,6661,8.197,0.0,32.259968,-107.74299
23365,"Demopolis, AL Urban Area","Demopolis, AL",01091,5877,3131,4.549,0.032,32.505005,-87.831898
23419,"Denison, IA Urban Area","Denison, IA",19047,8073,3065,4.493,0.009,42.019313,-95.350061
23473,"Denton, MD Urban Area","Denton, MD",24011,4919,1697,3.266,0.036,38.879421,-75.824452
23500,"Denton--Lewisville, TX Urban Area","Denton, TX",48121,435118,167218,150.48,1.897,33.194971,-97.121054
23513,"Denton Southwest, TX Urban Area","Denton Southwest, TX",48121,13639,5376,7.062,0.025,33.107475,-97.235558
23527,"Denver--Aurora, CO Urban Area","Denver, CO",08059,2676340,1127139,644.541,11.326,39.732149,-104.959388
23608,"De Queen, AR Urban Area","De Queen, AR",05133,6120,2339,4.812,0.02,34.045369,-94.344746
23662,"DeRidder, LA Urban Area","DeRidder, LA",22011,11891,5665,14.528,0.087,30.86032,-93.301199
23716,"Desert Hot Springs, CA Urban Area","Desert Hot Springs, CA",06065,44252,19836,14.079,0.0,33.947753,-116.492531
23743,"Des Moines, IA Urban Area","Des Moines, IA",19153,544476,234195,224.743,2.79,41.620998,-93.665233
23797,"De Soto, MO Urban Area","De Soto, MO",29099,7740,3519,4.4,0.14,38.137337,-90.553847
23824,"Detroit, MI Urban Area","Detroit, MI",26125,3760815,1651091,1284.827,33.684,42.486581,-83.22742
23851,"Detroit Lakes, MN Urban Area","Detroit Lakes, MN",27005,10626,5732,9.202,9.93,46.782961,-95.842545
23878,"Devils Lake, ND Urban Area","Devils Lake, ND",38071,7484,3891,5.072,0.006,48.112591,-98.871116
23986,"DeWitt, IA Urban Area","DeWitt, IA",19045,4808,1954,4.004,0.0,41.820738,-90.539296
24008,"Dexter, MI Urban Area","Dexter, MI",26161,5422,2128,2.494,0.001,42.33548,-83.88877
24013,"Dexter, MO Urban Area","Dexter, MO",29207,9619,4671,7.744,0.094,36.792688,-89.973792
24040,"Diamondhead, MS Urban Area","Diamondhead, MS",28045,9003,4382,5.067,0.087,30.394333,-89.365506
24094,"Dickinson, ND Urban Area","Dickinson, ND",38089,24914,11658,12.258,0.077,46.892651,-102.788149
24121,"Dickson, TN Urban Area","Dickson, TN",47043,16276,6936,16.451,0.063,36.060236,-87.364102
24175,"Dillon, MT Urban Area","Dillon, MT",30001,4549,2124,2.747,0.0,45.226238,-112.632487
24202,"Dillon, SC Urban Area","Dillon, SC",45033,8526,4198,6.33,0.043,34.425884,-79.362661
24256,"Discovery Bay, CA Urban Area","Discovery Bay, CA",06013,15941,6209,4.202,1.112,37.905173,-121.606277
24283,"Dixon, CA Urban Area","Dixon, CA",06095,19022,6713,4.395,0.003,38.449389,-121.829238
24310,"Dixon, IL Urban Area","Dixon, IL",17103,16664,6970,7.817,0.385,41.841414,-89.480978
24337,"Dodge City, KS Urban Area","Dodge City, KS",20057,27595,9621,10.918,0.128,37.75868,-100.014881
24364,"Dodgeville, WI Urban Area","Dodgeville, WI",55049,4905,2412,3.255,0.0,42.965206,-90.130736
24391,"Donaldsonville, LA Urban Area","Donaldsonville, LA",22005,12358,5313,15.649,0.582,30.1091,-90.892665
24445,"Dos Palos, CA Urban Area","Dos Palos, CA",06047,7607,2398,2.293,0.0,36.975468,-120.633497
24472,"Dothan, AL Urban Area","Dothan, AL",01069,73360,34111,55.087,0.15,31.22612,-85.425301
24499,"Douglas, AZ Urban Area","Douglas, AZ",04003,15240,6171,5.481,0.0,31.351555,-109.542755
24526,"Douglas, GA Urban Area","Douglas, GA",13069,13869,5608,16.594,0.208,31.507796,-82.857974
24539,"Douglas, MI Urban Area","Douglas, MI",26005,3102,2542,4.232,0.541,42.653231,-86.196877
24553,"Douglas, WY Urban Area","Douglas, WY",56009,6434,2964,3.279,0.0,42.75634,-105.385329
24580,"Dover, DE Urban Area","Dover, DE",10001,124254,49342,72.304,1.036,39.146316,-75.548114
24607,"Dover--Rochester, NH--ME Urban Area","Dover, NH",33017,72592,33856,52.312,1.039,43.258739,-70.918667
24634,"Dowagiac, MI Urban Area","Dowagiac, MI",26027,6123,3051,3.557,0.047,41.983186,-86.108771
24715,"Dublin, GA Urban Area","Dublin, GA",13175,20193,8582,20.431,0.164,32.541185,-82.918763
24796,"DuBois, PA Urban Area","DuBois, PA",42033,11665,5620,7.159,0.055,41.121167,-78.765056
24823,"Dubuque, IA--IL Urban Area","Dubuque, IA",19061,69610,31498,34.167,0.088,42.503272,-90.699886
24850,"Duluth, MN--WI Urban Area","Duluth, MN",27137,120081,54564,66.866,4.947,46.766514,-92.127793
24877,"Dumas, AR Urban Area","Dumas, AR",05041,4174,2125,3.107,0.0,33.884012,-91.486732
24904,"Dumas, TX Urban Area","Dumas, TX",48341,14470,5428,4.937,0.0,35.864892,-101.965339
24931,"Duncan, OK Urban Area","Duncan, OK",40137,20262,9931,13.611,0.064,34.509608,-97.962631
24958,"Dundee, MI Urban Area","Dundee, MI",26115,5276,2581,3.901,0.037,41.961787,-83.661262
25012,"Dunkirk--Fredonia, NY Urban Area","Dunkirk, NY",36013,23429,10699,12.753,0.045,42.463071,-79.329028
25039,"Dunn, NC Urban Area","Dunn, NC",37085,13929,6387,11.111,0.053,35.317576,-78.63644
25093,"Du Quoin, IL Urban Area","Du Quoin, IL",17145,6080,3117,4.061,0.021,38.004412,-89.234301
25120,"Durand, MI Urban Area","Durand, MI",26155,5153,2365,3.78,0.048,42.919639,-83.991875
25147,"Durango, CO Urban Area","Durango, CO",08067,19086,9368,9.451,0.033,37.287672,-107.867815
25201,"Durant, OK Urban Area","Durant, OK",40013,19564,8523,12.006,0.016,33.992468,-96.398015
25216,"Durham, NH Urban Area","Durham, NH",33017,11993,2563,4.036,0.025,43.139235,-70.929903
25228,"Durham, NC Urban Area","Durham, NC",37063,391905,172582,183.355,1.307,35.966985,-78.937688
25237,"Duvall, WA Urban Area","Duvall, WA",53033,8270,2688,2.474,0.001,47.737651,-121.964424
25309,"Dyersburg, TN Urban Area","Dyersburg, TN",47045,16404,7621,12.976,0.088,36.045663,-89.383225
25390,"Eagle, CO Urban Area","Eagle, CO",08037,6919,2324,3.406,0.018,39.645064,-106.822397
25480,"Eagle Mountain, UT Urban Area","Eagle Mountain, UT",49049,11363,2930,2.021,0.0,40.309634,-112.011228
25498,"Eagle Pass, TX Urban Area","Eagle Pass, TX",48323,53680,18653,21.145,0.141,28.700079,-100.474047
25579,"Earlimart, CA Urban Area","Earlimart, CA",06107,7254,1887,1.35,0.0,35.883774,-119.270251
25598,"East Aurora, NY Urban Area","East Aurora, NY",36029,9542,4170,5.819,0.017,42.77019,-78.615811
25658,"East Hampton North--Springs--Northwest Harbor, NY Urban Area","East Hampton North, NY",36103,21614,16202,35.852,2.266,40.981411,-72.193604
25687,"East Liverpool, OH--WV--PA Urban Area","East Liverpool, OH",39029,21380,10745,15.526,0.629,40.644972,-80.578858
25714,"Eastman, GA Urban Area","Eastman, GA",13091,6300,2733,5.962,0.072,32.193868,-83.177877
25741,"Easton, MD Urban Area","Easton, MD",24041,18228,8196,11.15,0.133,38.770845,-76.070571
25768,"East Palestine, OH Urban Area","East Palestine, OH",39029,4727,2334,2.907,0.0,40.841613,-80.539724
25849,"East Stroudsburg--Stroudsburg, PA Urban Area","East Stroudsburg, PA",42089,48743,19937,38.937,0.315,41.010818,-75.234842
25876,"East Tawas, MI Urban Area","East Tawas, MI",26069,4655,3122,5.005,0.0,44.273921,-83.508635
25903,"East Troy, WI Urban Area","East Troy, WI",55127,5194,2578,4.141,0.638,42.79552,-88.398528
25930,"Eaton, CO Urban Area","Eaton, CO",08123,5800,2386,2.16,0.0,40.527435,-104.716851
25957,"Eaton, OH Urban Area","Eaton, OH",39135,7807,3736,4.494,0.001,39.749911,-84.635486
25984,"Eaton Rapids, MI Urban Area","Eaton Rapids, MI",26045,4842,2035,2.805,0.055,42.51142,-84.654426
26038,"Eau Claire, WI Urban Area","Eau Claire, WI",55035,105429,46502,62.496,3.951,44.8496,-91.459913
26065,"Ebensburg, PA Urban Area","Ebensburg, PA",42021,4728,2234,2.589,0.012,40.478698,-78.741113
26092,"Eden, NC Urban Area","Eden, NC",37157,15319,7659,14.235,0.016,36.504197,-79.748256
26119,"Edenton, NC Urban Area","Edenton, NC",37041,4409,2544,3.586,0.069,36.071606,-76.617043
26173,"Edgerton, WI Urban Area","Edgerton, WI",55105,8031,4053,6.19,0.191,42.838856,-89.055991
26227,"Edinboro, PA Urban Area","Edinboro, PA",42049,5925,2778,2.437,0.075,41.883992,-80.123253
26254,"Edna, TX Urban Area","Edna, TX",48239,5940,2570,3.695,0.0,28.974286,-96.650544
26275,"Edwards--Avon, CO Urban Area","Edwards, CO",08037,18638,11859,11.603,0.226,39.639076,-106.553834
26308,"Effingham, IL Urban Area","Effingham, IL",17049,13946,6298,13.576,0.029,39.125966,-88.531694
26362,"Elberton, GA Urban Area","Elberton, GA",13105,5561,2693,5.021,0.027,34.108838,-82.866255
26375,"Elburn, IL Urban Area","Elburn, IL",17089,6015,2368,3.565,0.0,41.887557,-88.459839
26389,"El Campo, TX Urban Area","El Campo, TX",48481,12791,5174,7.828,0.008,29.198508,-96.276623
26405,"El Centro, CA Urban Area","El Centro, CA",06025,76128,23411,19.352,0.018,32.802839,-115.560322
26422,"Eldersburg, MD Urban Area","Eldersburg, MD",24013,28315,10537,18.38,0.183,39.398706,-76.941698
26443,"Eldon, MO Urban Area","Eldon, MO",29131,4363,2175,3.338,0.0,38.350238,-92.57687
26470,"El Dorado, AR Urban Area","El Dorado, AR",05139,18274,8256,20.262,0.0,33.211502,-92.663028
26524,"El Dorado, KS Urban Area","El Dorado, KS",20015,12721,6109,7.446,0.008,37.819351,-96.866248
26659,"Elgin, TX Urban Area","Elgin, TX",48021,11168,4057,4.767,0.0,30.351259,-97.38511
26686,"Elizabeth City, NC Urban Area","Elizabeth City, NC",37139,24704,10638,16.516,0.009,36.298233,-76.226397
26750,"Elizabethtown--Radcliff, KY Urban Area","Elizabethtown, KY",21093,78076,33563,55.826,0.502,37.873754,-85.949265
26767,"Elk City, OK Urban Area","Elk City, OK",40009,11193,6072,9.013,0.0,35.408502,-99.407818
26794,"Elkhart, IN--MI Urban Area","Elkhart, IN",18039,147902,60484,94.939,3.123,41.662338,-85.924496
26821,"Elkhorn, WI Urban Area","Elkhorn, WI",55127,11631,5044,6.94,0.056,42.687332,-88.543002
26875,"Elkins, WV Urban Area","Elkins, WV",54083,11387,5302,7.121,0.0,38.935799,-79.855896
26902,"Elko, NV Urban Area","Elko, NV",32007,21304,9019,12.56,0.0,40.839773,-115.766306
26956,"Elkton, VA Urban Area","Elkton, VA",51165,5242,3038,4.805,0.025,38.402154,-78.617496
26983,"Ellensburg, WA Urban Area","Ellensburg, WA",53037,21368,9927,8.84,0.021,47.001086,-120.538461
27010,"Ellenville, NY Urban Area","Ellenville, NY",36111,6766,2803,3.303,0.03,41.725976,-74.386724
27037,"Ellijay, GA Urban Area","Ellijay, GA",13123,5370,3549,13.212,0.112,34.673133,-84.522596
27085,"Ellwood City, PA Urban Area","Ellwood City, PA",42073,12734,6569,7.36,0.125,40.852954,-80.280735
27118,"Elmira, NY Urban Area","Elmira, NY",36015,62817,29603,31.698,0.456,42.086405,-76.82518
27253,"El Paso, TX--NM Urban Area","El Paso, TX",48141,860432,318101,255.883,0.987,31.786147,-106.389782
27261,"El Paso de Robles (Paso Robles)--Atascadero, CA Urban Area","El Paso de Robles (Paso Robles), CA",06079,68513,27852,29.963,0.044,35.444573,-120.624475
27280,"El Reno, OK Urban Area","El Reno, OK",40017,14875,6256,8.715,0.005,35.520858,-97.956489
27290,"Elsa, TX Urban Area","Elsa, TX",48215,15186,5181,6.255,0.0,26.299313,-97.980961
27307,"Elwood, IN Urban Area","Elwood, IN",18095,9253,4300,4.632,0.0,40.272468,-85.837712
27361,"Ely, NV Urban Area","Ely, NV",32033,4279,2169,3.096,0.0,39.247316,-114.87507
27469,"Emmett, ID Urban Area","Emmett, ID",16045,10303,4048,5.73,0.079,43.87537,-116.496469
27523,"Emporia, KS Urban Area","Emporia, KS",20111,24107,11340,11.187,0.081,38.409579,-96.194519
27550,"Emporia, VA Urban Area","Emporia, VA",51595,6802,3209,6.542,0.059,36.69725,-77.544739
27631,"Enid, OK Urban Area","Enid, OK",40047,50590,22557,29.487,0.014,36.39856,-97.893218
27658,"Ennis, TX Urban Area","Ennis, TX",48139,20770,7668,12.418,0.349,32.328189,-96.631752
27685,"Enterprise, AL Urban Area","Enterprise, AL",01031,31569,13705,23.747,0.058,31.329219,-85.829648
27712,"Ephraim, UT Urban Area","Ephraim, UT",49039,5011,1559,1.746,0.0,39.357786,-111.582362
27739,"Ephrata, WA Urban Area","Ephrata, WA",53025,8162,3217,4.272,0.0,47.314246,-119.553286
27766,"Erie, PA Urban Area","Erie, PA",42049,188620,84115,73.339,0.23,42.088867,-80.112692
27793,"Erwin, TN Urban Area","Erwin, TN",47171,8822,4146,5.926,0.005,36.143997,-82.408735
27820,"Escalon, CA Urban Area","Escalon, CA",06077,7304,2924,1.988,0.0,37.792578,-120.99566
27847,"Escanaba, MI Urban Area","Escanaba, MI",26041,21904,10418,18.063,0.16,45.733032,-87.084194
27874,"Española, NM Urban Area","Española, NM",35039,24660,10836,20.137,0.163,36.012017,-106.047154
27901,"Estacada, OR Urban Area","Estacada, OR",41005,5502,1945,2.991,0.006,45.297043,-122.328629
27928,"Estes Park, CO Urban Area","Estes Park, CO",08069,8249,5947,12.15,0.271,40.359149,-105.529617
27955,"Estherville, IA Urban Area","Estherville, IA",19063,5790,2659,3.45,0.0,43.403517,-94.832865
28009,"Etowah, TN Urban Area","Etowah, TN",47107,4586,2290,4.505,0.0,35.338883,-84.528244
28063,"Eudora, KS Urban Area","Eudora, KS",20045,6062,2232,2.62,0.042,38.932378,-95.096848
28090,"Eufaula, AL--GA Urban Area","Eufaula, AL",01005,8554,4157,6.954,0.011,31.887533,-85.14468
28117,"Eugene, OR Urban Area","Eugene, OR",41039,270925,117088,73.485,0.064,44.069521,-123.085685
28144,"Eunice, LA Urban Area","Eunice, LA",22097,11634,5140,7.133,0.03,30.493373,-92.418098
28198,"Eureka, CA Urban Area","Eureka, CA",06023,46590,20693,18.795,1.459,40.775465,-124.166342
28225,"Eureka, IL Urban Area","Eureka, IL",17203,6024,2508,2.522,0.048,40.713988,-89.274949
28262,"Eureka, MO Urban Area","Eureka, MO",29189,14888,5180,9.335,0.017,38.491444,-90.643009
28306,"Evanston, WY Urban Area","Evanston, WY",56041,11843,5250,7.674,0.044,41.260088,-110.963739
28333,"Evansville, IN Urban Area","Evansville, IN",18163,206611,94683,112.753,1.124,38.007208,-87.526177
28360,"Evansville, WI Urban Area","Evansville, WI",55105,6369,2620,2.803,0.0,42.778401,-89.298617
28441,"Evergreen, CO Urban Area","Evergreen, CO",08059,9594,4171,9.46,0.085,39.645594,-105.336295
28495,"Excelsior Springs, MO Urban Area","Excelsior Springs, MO",29047,9997,4165,5.7,0.0,39.346037,-94.238117
28506,"Exeter, CA Urban Area","Exeter, CA",06107,10630,3581,2.87,0.0,36.294749,-119.148247
28511,"Exeter, NH Urban Area","Exeter, NH",33015,16111,7629,11.732,0.122,42.985696,-70.926615
28522,"Fabens, TX Urban Area","Fabens, TX",48141,4777,2054,1.691,0.023,31.505333,-106.154028
28549,"Fairbanks, AK Urban Area","Fairbanks, AK",02090,75130,31334,74.303,2.54,64.85531,-147.756204
28603,"Fairbury, NE Urban Area","Fairbury, NE",31095,3887,1951,2.36,0.004,40.144738,-97.176504
28657,"Fairfield, CA Urban Area","Fairfield, CA",06095,149632,49872,40.809,0.239,38.26206,-122.032386
28684,"Fairfield, IL Urban Area","Fairfield, IL",17191,4769,2625,3.262,0.025,38.380391,-88.369938
28711,"Fairfield, IA Urban Area","Fairfield, IA",19101,9246,4620,5.383,0.046,41.005895,-91.967453
28765,"Fairfield Glade, TN Urban Area","Fairfield Glade, TN",47035,9096,5276,9.635,0.4,36.009502,-84.885711
28766,"Fairhope--Daphne, AL Urban Area","Fairhope, AL",01003,76126,32548,59.065,0.26,30.620911,-87.904485
28846,"Fairmont, MN Urban Area","Fairmont, MN",27091,8575,4040,3.638,0.381,43.645881,-94.456578
28873,"Fairmont, WV Urban Area","Fairmont, WV",54049,33052,15733,20.188,0.704,39.464498,-80.158601
28981,"Fajardo, PR Urban Area","Fajardo, PR",72053,69123,38898,34.359,0.221,18.33623,-65.656006
28995,"Falcon, CO Urban Area","Falcon, CO",08041,20896,6370,8.476,0.0,38.963609,-104.605093
29008,"Falfurrias, TX Urban Area","Falfurrias, TX",48047,4419,2465,2.186,0.0,27.224195,-98.147155
29024,"Fallbrook, CA Urban Area","Fallbrook, CA",06073,42095,14254,26.026,0.028,33.353657,-117.225141
29035,"Fallon, NV Urban Area","Fallon, NV",32001,15740,7158,13.961,0.007,39.487781,-118.792129
29062,"Falls City, NE Urban Area","Falls City, NE",31147,4124,2030,3.353,0.005,40.062208,-95.599013
29089,"Fargo, ND--MN Urban Area","Fargo, ND",38017,217948,99515,77.731,0.114,46.858555,-96.826798
29116,"Faribault, MN Urban Area","Faribault, MN",27131,24024,9120,10.241,0.237,44.297461,-93.278929
29251,"Farmington, MO Urban Area","Farmington, MO",29187,32878,14212,18.053,0.04,37.853921,-90.51246
29278,"Farmington, NM Urban Area","Farmington, NM",35045,52352,19941,32.623,0.014,36.747223,-108.162366
29305,"Farmville, NC Urban Area","Farmville, NC",37147,4474,2279,2.948,0.0,35.594653,-77.591416
29332,"Farmville, VA Urban Area","Farmville, VA",51147,8646,3319,6.563,0.113,37.286016,-78.39096
29440,"Fayetteville, NC Urban Area","Fayetteville, NC",37051,325895,137928,195.924,2.05,35.052628,-78.97684
29467,"Fayetteville, TN Urban Area","Fayetteville, TN",47103,10704,4591,12.435,0.0,35.111264,-86.571838
29494,"Fayetteville--Springdale--Rogers, AR--MO Urban Area","Fayetteville, AR",05007,376319,151828,198.27,2.421,36.262667,-94.184323
29555,"Fenton, MI Urban Area","Fenton, MI",26049,37603,15980,29.665,5.564,42.796909,-83.751639
29575,"Fergus Falls, MN Urban Area","Fergus Falls, MN",27111,13209,6658,7.636,0.604,46.288649,-96.077117
29608,"Fernandina Beach--Yulee, FL Urban Area","Fernandina Beach, FL",12089,50368,25787,50.554,1.137,30.603798,-81.503427
29656,"Fernley, NV Urban Area","Fernley, NV",32019,18951,7156,10.597,0.0,39.602967,-119.235616
29683,"Ferriday, LA Urban Area","Ferriday, LA",22029,6263,2266,4.836,0.0,31.626058,-91.559291
29710,"Fillmore, CA Urban Area","Fillmore, CA",06111,16455,5173,2.633,0.0,34.401164,-118.918568
29737,"Findlay, OH Urban Area","Findlay, OH",39063,47329,21938,25.63,0.158,41.049732,-83.639702
29764,"Firebaugh, CA Urban Area","Firebaugh, CA",06019,8170,2375,2.488,0.055,36.851884,-120.451701
29769,"Fire Island, NY Urban Area","Fire Island, NY",36103,306,3690,2.864,0.051,40.64789,-73.147956
29775,"Firestone--Frederick, CO Urban Area","Firestone, CO",08123,36076,12458,15.216,0.195,40.139574,-104.959813
29791,"Fitzgerald, GA Urban Area","Fitzgerald, GA",13017,11060,5151,8.504,0.203,31.715424,-83.260472
29818,"Flagstaff, AZ Urban Area","Flagstaff, AZ",04005,78292,31950,29.263,0.03,35.201579,-111.618444
29846,"Flemington--Raritan, NJ Urban Area","Flemington, NJ",34019,25096,9684,18.394,0.023,40.505613,-74.848872
29872,"Flint, MI Urban Area","Flint, MI",26049,297301,140076,205.457,1.741,43.012172,-83.68054
29899,"Flora, IL Urban Area","Flora, IL",17025,4631,2369,3.185,0.0,38.670796,-88.480502
29953,"Florence, AL Urban Area","Florence, AL",01077,78761,38390,54.627,0.142,34.815178,-87.67165
29980,"Florence East, AZ Urban Area","Florence East, AZ",04021,11688,3235,2.655,0.0,33.031778,-111.386874
30034,"Florence, OR Urban Area","Florence, OR",41039,11620,6374,7.98,0.015,44.005913,-124.111493
30061,"Florence, SC Urban Area","Florence, SC",45041,92053,41228,68.038,0.566,34.204283,-79.809012
30073,"Florence West, AZ Urban Area","Florence West, AZ",04021,12724,5397,5.874,0.0,33.061888,-111.468282
30088,"Floresville, TX Urban Area","Floresville, TX",48493,6105,2520,3.853,0.006,29.14131,-98.156623
30171,"Foley--Gulf Shores, AL Urban Area","Foley, AL",01003,43097,28308,49.045,0.424,30.337676,-87.692771
30223,"Fond du Lac, WI Urban Area","Fond du Lac, WI",55039,54418,24685,24.69,0.313,43.779876,-88.445312
30232,"Fontana-on-Geneva Lake, WI Urban Area","Fontana, WI",55127,8785,7068,10.253,3.432,42.567167,-88.547583
30331,"Forest City--Spindale, NC Urban Area","Forest City, NC",37161,21373,9904,26.891,0.074,35.338887,-81.897738
30358,"Forest Lake, MN Urban Area","Forest Lake, MN",27163,22057,8947,14.013,4.39,45.273307,-92.96984
30439,"Forney, TX Urban Area","Forney, TX",48257,43137,14405,19.678,0.071,32.747542,-96.43847
30466,"Forrest City, AR Urban Area","Forrest City, AR",05123,9406,4309,7.014,0.02,35.013019,-90.785726
30493,"Forsyth, GA Urban Area","Forsyth, GA",13207,5287,2402,5.202,0.012,33.03924,-83.947879
30520,"Forsyth, MO Urban Area","Forsyth, MO",29213,7601,3784,6.597,0.017,36.710406,-93.175258
30547,"Fort Atkinson, WI Urban Area","Fort Atkinson, WI",55055,14132,6322,6.904,0.113,42.918337,-88.843686
30574,"Fort Bragg, CA Urban Area","Fort Bragg, CA",06045,10989,5662,9.808,0.137,39.421205,-123.795643
30628,"Fort Collins, CO Urban Area","Fort Collins, CO",08069,329326,140335,117.977,7.051,40.563092,-105.111884
30682,"Fort Dodge, IA Urban Area","Fort Dodge, IA",19187,24777,11270,13.615,0.199,42.50959,-94.18209
30736,"Fort Irwin, CA Urban Area","Fort Irwin, CA",06071,8967,3074,3.617,0.0,35.258999,-116.686841
30748,"Fort Leonard Wood--St. Robert--Waynesville, MO Urban Area","Fort Leonard Wood, MO",29169,29986,9702,26.177,0.008,37.756908,-92.126985
30755,"Fort Lupton, CO Urban Area","Fort Lupton, CO",08123,8204,2917,2.33,0.0,40.083141,-104.804927
30763,"Fort Madison, IA--IL Urban Area","Fort Madison, IA",19111,10545,5147,5.962,0.0,40.628968,-91.344105
30790,"Fort Meade, FL Urban Area","Fort Meade, FL",12105,4946,2690,2.319,0.026,27.750056,-81.795337
30817,"Fort Morgan, CO Urban Area","Fort Morgan, CO",08087,13561,5194,5.542,0.0,40.250463,-103.794183
30844,"Fort Payne, AL Urban Area","Fort Payne, AL",01049,7831,3648,8.646,0.012,34.451415,-85.719746
30871,"Fort Polk South, LA Urban Area","Fort Polk South, LA",22115,9976,3530,9.457,0.025,31.055871,-93.226486
30885,"Fort Rucker--Daleville, AL Urban Area","Fort Rucker, AL",01045,7137,2937,7.766,0.0,31.308064,-85.711351
30898,"Fort Scott, KS Urban Area","Fort Scott, KS",20011,7534,3857,5.103,0.006,37.826083,-94.702741
30925,"Fort Smith, AR--OK Urban Area","Fort Smith, AR",05131,126583,55718,73.973,0.324,35.376008,-94.362206
30952,"Fort Stockton, TX Urban Area","Fort Stockton, TX",48371,8187,3734,5.985,0.0,30.894435,-102.886612
30979,"Fortuna, CA Urban Area","Fortuna, CA",06023,12944,5472,5.821,0.0,40.587321,-124.145121
31033,"Fort Valley, GA Urban Area","Fort Valley, GA",13225,10338,4836,5.81,0.013,32.552211,-83.891307
31087,"Fort Wayne, IN Urban Area","Fort Wayne, IN",18003,334328,144292,163.595,0.27,41.097619,-85.147434
31114,"Fostoria, OH Urban Area","Fostoria, OH",39147,13828,6467,8.309,0.083,41.164226,-83.410851
31150,"Four Corners, FL Urban Area","Four Corners, FL",12105,96166,52776,84.483,4.056,28.234664,-81.677666
31195,"Frankenmuth, MI Urban Area","Frankenmuth, MI",26145,5066,2488,2.923,0.038,43.332753,-83.737571
31222,"Frankfort, IN Urban Area","Frankfort, IN",18023,16095,6796,7.486,0.0,40.280355,-86.525561
31249,"Frankfort, KY Urban Area","Frankfort, KY",21073,37133,17548,22.328,0.516,38.188228,-84.859577
31262,"Frankfort, MI Urban Area","Frankfort, MI",26019,2231,2589,4.237,0.051,44.63761,-86.227759
31276,"Franklin, KY Urban Area","Franklin, KY",21213,12316,4757,8.337,0.018,36.725705,-86.575694
31303,"Franklin, LA Urban Area","Franklin, LA",22101,10191,4984,6.197,0.061,29.797187,-91.505105
31330,"Franklin, NH Urban Area","Franklin, NH",33013,6987,3236,4.225,0.208,43.443804,-71.647589
31384,"Franklin, NC Urban Area","Franklin, NC",37113,9268,5322,13.965,0.318,35.177893,-83.380771
31411,"Franklin (Venango County), PA Urban Area","Franklin (Venango County), PA",42121,8727,4199,5.623,0.029,41.39412,-79.833473
31438,"Franklin, VA Urban Area","Franklin, VA",51620,8739,4106,6.439,0.043,36.682427,-76.933958
31478,"Fraser, CO Urban Area","Fraser, CO",08049,2528,5105,4.454,0.005,39.9253,-105.788415
31519,"Frederick, MD Urban Area","Frederick, MD",24021,177570,69105,80.292,0.68,39.406328,-77.363357
31573,"Fredericksburg, TX Urban Area","Fredericksburg, TX",48171,11876,6604,7.829,0.006,30.27382,-98.869249
31600,"Fredericksburg, VA Urban Area","Fredericksburg, VA",51177,168486,64718,89.619,1.221,38.284434,-77.497396
31627,"Fredericktown, MO Urban Area","Fredericktown, MO",29123,5005,2233,3.269,0.006,37.55872,-90.294904
31660,"Freeland, MI Urban Area","Freeland, MI",26145,7145,2150,8.46,0.007,43.531539,-84.102263
31668,"Freeland, PA Urban Area","Freeland, PA",42079,5496,2661,1.563,0.0,41.017365,-75.902799
31672,"Freeland, WA Urban Area","Freeland, WA",53029,7386,5639,12.077,0.134,48.008787,-122.543177
31681,"Freeport, IL Urban Area","Freeport, IL",17177,24031,12059,10.621,0.037,42.290173,-89.634888
31735,"Fremont, MI Urban Area","Fremont, MI",26123,5302,2277,3.832,0.062,43.465758,-85.951597
31762,"Fremont, NE Urban Area","Fremont, NE",31053,28595,12242,13.771,0.326,41.442028,-96.497273
31789,"Fremont, OH Urban Area","Fremont, OH",39143,22525,10615,13.395,0.364,41.348235,-83.117703
31843,"Fresno, CA Urban Area","Fresno, CA",06019,720875,247917,159.111,1.246,36.789045,-119.769
31852,"Friday Harbor, WA Urban Area","Friday Harbor, WA",53055,3660,2048,4.425,0.472,48.523964,-122.99517
31889,"Frisco, CO Urban Area","Frisco, CO",08117,3833,3886,2.153,0.0,39.57871,-106.093771
31924,"Front Royal, VA Urban Area","Front Royal, VA",51187,16179,6592,10.707,0.021,38.917107,-78.17676
31978,"Frostproof, FL Urban Area","Frostproof, FL",12105,7512,3682,7.493,1.935,27.732147,-81.558243
32032,"Fulton, KY--TN Urban Area","Fulton, KY",21075,4675,2368,3.156,0.018,36.504438,-88.879996
32086,"Fulton, MO Urban Area","Fulton, MO",29027,12166,3761,8.671,0.091,38.850805,-91.952188
32092,"Fulton, NY Urban Area","Fulton, NY",36075,12574,5930,5.732,0.29,43.307089,-76.397503
32113,"Gadsden, AL Urban Area","Gadsden, AL",01055,58420,27087,61.209,2.029,33.985171,-86.027569
32140,"Gaffney, SC Urban Area","Gaffney, SC",45021,18927,8792,15.427,0.048,35.076849,-81.65191
32167,"Gainesville, FL Urban Area","Gainesville, FL",12001,214508,95884,87.697,1.345,29.656213,-82.387728
32194,"Gainesville, GA Urban Area","Gainesville, GA",13139,167004,63685,251.664,11.57,34.233735,-83.86262
32221,"Gainesville, TX Urban Area","Gainesville, TX",48097,16733,6941,9.555,0.01,33.63744,-97.138935
32248,"Galax, VA Urban Area","Galax, VA",51640,6261,3037,6.621,0.026,36.66564,-80.914308
32329,"Galesburg, IL Urban Area","Galesburg, IL",17095,34016,16158,21.923,0.055,40.944688,-90.359115
32356,"Galion, OH Urban Area","Galion, OH",39033,11492,5723,6.414,0.016,40.734572,-82.790333
32383,"Galliano--Larose--Cut Off, LA Urban Area","Galliano, LA",22057,19820,8789,18.698,0.367,29.489474,-90.330724
32437,"Gallup, NM Urban Area","Gallup, NM",35031,25352,8386,13.678,0.0,35.521575,-108.738691
32451,"Galt, CA Urban Area","Galt, CA",06067,26925,8998,7.087,0.0,38.265752,-121.307562
32491,"Galveston--Texas City, TX Urban Area","Galveston, TX",48167,192217,93737,108.981,3.065,29.364635,-94.997589
32518,"Garden City, KS Urban Area","Garden City, KS",20055,30606,11621,12.749,0.026,37.975023,-100.853359
32572,"Gardnerville, NV Urban Area","Gardnerville, NV",32005,21516,9198,12.679,0.019,38.930888,-119.723951
32653,"Gastonia, NC Urban Area","Gastonia, NC",37071,177060,75763,124.579,1.333,35.258509,-81.130167
32707,"Gatesville, TX Urban Area","Gatesville, TX",48099,15208,3608,10.175,0.012,31.438289,-97.723184
32734,"Gaylord--Bagley, MI Urban Area","Gaylord, MI",26137,8426,5030,10.26,3.314,44.987582,-84.685732
32761,"Geneseo, IL Urban Area","Geneseo, IL",17073,6264,3255,3.757,0.0,41.450356,-90.154315
32788,"Geneseo, NY Urban Area","Geneseo, NY",36051,8051,2425,2.411,0.0,42.798943,-77.805341
32842,"Geneva, NY Urban Area","Geneva, NY",36099,29728,14090,16.759,0.29,42.830821,-76.984254
32850,"Geneva, OH Urban Area","Geneva, OH",39007,6911,3178,4.833,0.0,41.803081,-80.935585
32869,"Genoa, IL Urban Area","Genoa, IL",17037,4529,1867,2.195,0.05,42.092376,-88.698435
32950,"Georgetown, DE Urban Area","Georgetown, DE",10005,10188,3011,4.933,0.0,38.688833,-75.38365
32977,"Georgetown, KY Urban Area","Georgetown, KY",21209,38637,15645,15.061,0.152,38.213422,-84.550322
33031,"Georgetown, SC Urban Area","Georgetown, SC",45043,10830,5483,9.246,0.496,33.370457,-79.299928
33091,"Germantown, OH Urban Area","Germantown, OH",39113,5716,2304,2.781,0.0,39.627735,-84.368267
33139,"Gettysburg--Cumberland, PA Urban Area","Gettysburg, PA",42001,16334,6200,8.271,0.239,39.831233,-77.225628
33220,"Gillespie, IL Urban Area","Gillespie, IL",17117,5119,2589,2.84,0.0,39.131514,-89.817897
33247,"Gillette, WY Urban Area","Gillette, WY",56005,33935,14677,19.652,0.028,44.275187,-105.496025
33301,"Gilmer, TX Urban Area","Gilmer, TX",48459,5191,2215,4.091,0.013,32.730252,-94.946968
33328,"Gilroy--Morgan Hill, CA Urban Area","Gilroy, CA",06085,112982,35373,42.54,0.0,37.087699,-121.613669
33436,"Glasgow, KY Urban Area","Glasgow, KY",21009,14952,6868,11.798,0.025,37.002522,-85.922295
33490,"Glencoe, MN Urban Area","Glencoe, MN",27085,5712,2302,3.194,0.007,44.769566,-94.151027
33517,"Glendive, MT Urban Area","Glendive, MT",30021,6622,3077,5.426,0.012,47.095795,-104.756107
33598,"Glens Falls, NY Urban Area","Glens Falls, NY",36113,72288,35883,51.618,3.015,43.342244,-73.660113
33625,"Glenwood, IA Urban Area","Glenwood, IA",19129,5189,2342,2.403,0.012,41.046788,-95.744376
33640,"Glenwood, MN Urban Area","Glenwood, MN",27121,4018,2329,4.242,0.0,45.65448,-95.408415
33652,"Glenwood Springs, CO Urban Area","Glenwood Springs, CO",08045,11023,4523,5.461,0.0,39.54376,-107.334895
33679,"Globe, AZ Urban Area","Globe, AZ",04007,12330,6479,8.139,0.0,33.390888,-110.813884
33733,"Gloversville, NY Urban Area","Gloversville, NY",36035,25809,13205,15.536,0.01,43.053464,-74.325471
33742,"Gold Canyon, AZ Urban Area","Gold Canyon, AZ",04021,9791,6492,7.869,0.0,33.363274,-111.452188
33814,"Goldsboro, NC Urban Area","Goldsboro, NC",37191,54193,26296,53.16,0.157,35.379867,-77.983021
33841,"Gonzales, CA Urban Area","Gonzales, CA",06053,8581,2377,1.542,0.003,36.509642,-121.439172
33868,"Gonzales, TX Urban Area","Gonzales, TX",48177,6744,2865,4.356,0.0,29.511832,-97.443827
33922,"Goodland, KS Urban Area","Goodland, KS",20181,3908,2218,2.794,0.0,39.344578,-101.715009
33960,"Goodyear South, AZ Urban Area","Goodyear South, AZ",04013,15981,6621,9.598,0.0,33.340716,-112.443851
34042,"Governors Club, NC Urban Area","Governors Club, NC",37037,4567,2111,3.622,0.01,35.849325,-79.040268
34111,"Grafton, WV Urban Area","Grafton, WV",54091,4454,2197,3.484,0.131,39.337188,-80.031236
34122,"Grafton--Port Washington--Cedarburg, WI Urban Area","Grafton, WI",55089,44555,20080,23.105,0.359,43.336112,-87.94857
34138,"Graham, TX Urban Area","Graham, TX",48503,8633,3783,4.701,0.0,33.100881,-98.577806
34165,"Granbury, TX Urban Area","Granbury, TX",48221,28987,14303,21.866,1.832,32.414489,-97.780002
34219,"Grand Forks, ND--MN Urban Area","Grand Forks, ND",38035,67935,31236,26.484,0.093,47.914616,-97.066567
34246,"Grand Island, NE Urban Area","Grand Island, NE",31079,54364,21806,29.602,0.268,40.924841,-98.356972
34273,"Grand Junction, CO Urban Area","Grand Junction, CO",08077,136674,58655,75.608,1.373,39.089062,-108.567452
34286,"Grand Lake, CO Urban Area","Grand Lake, CO",08049,1586,2946,5.378,0.058,40.233516,-105.856083
34300,"Grand Rapids, MI Urban Area","Grand Rapids, MI",26081,606484,243705,274.359,6.138,42.942436,-85.659628
34327,"Grand Rapids, MN Urban Area","Grand Rapids, MN",27061,10300,4669,10.454,0.83,47.224546,-93.532395
34381,"Grandview, WA Urban Area","Grandview, WA",53077,11503,3434,4.125,0.0,46.256917,-119.910338
34470,"Granite Falls, WA Urban Area","Granite Falls, WA",53061,6807,2791,3.097,0.087,48.080961,-121.969962
34489,"Grants, NM Urban Area","Grants, NM",35006,10011,4241,6.145,0.0,35.162054,-107.854552
34516,"Grants Pass, OR Urban Area","Grants Pass, OR",41033,55269,24381,30.417,0.805,42.438921,-123.311208
34543,"Grantsville, UT Urban Area","Grantsville, UT",49045,9353,2784,4.394,0.0,40.589734,-112.450802
34597,"Grass Valley, CA Urban Area","Grass Valley, CA",06057,37354,17914,29.652,0.021,39.192381,-121.057646
34651,"Grayson, KY Urban Area","Grayson, KY",21043,4942,2398,5.202,0.088,38.333895,-82.935811
34705,"Great Bend, KS Urban Area","Great Bend, KS",20009,14805,7161,6.241,0.104,38.365901,-98.778957
34759,"Great Falls, MT Urban Area","Great Falls, MT",30013,67261,30595,30.305,0.705,47.502447,-111.282523
34786,"Greeley, CO Urban Area","Greeley, CO",08123,136601,49718,37.299,0.143,40.407553,-104.730887
34813,"Green Bay, WI Urban Area","Green Bay, WI",55009,223864,96356,113.658,2.848,44.50246,-88.039886
34840,"Greencastle, IN Urban Area","Greencastle, IN",18133,10123,3726,4.758,0.051,39.641841,-86.846339
34876,"Greendale--Lawrenceburg--Hidden Valley, IN--OH Urban Area","Greendale, IN",18029,20492,8635,18.771,0.459,39.124023,-84.861101
34894,"Greeneville, TN Urban Area","Greeneville, TN",47059,22322,9477,21.97,0.005,36.163908,-82.819666
34921,"Greenfield, CA Urban Area","Greenfield, CA",06053,18998,4409,2.138,0.0,36.32261,-121.245177
34975,"Greenfield, MA Urban Area","Greenfield, MA",25011,22185,10896,14.251,0.097,42.608294,-72.561715
35002,"Greenfield, OH Urban Area","Greenfield, OH",39071,4550,2186,1.703,0.0,39.350294,-83.390736
35083,"Green River, WY Urban Area","Green River, WY",56037,11724,4896,5.559,0.08,41.519548,-109.468996
35164,"Greensboro, NC Urban Area","Greensboro, NC",37081,337063,149697,169.307,2.174,36.080222,-79.833937
35191,"Greensburg, IN Urban Area","Greensburg, IN",18031,11484,5270,8.747,0.035,39.34888,-85.501758
35245,"Green Valley, AZ Urban Area","Green Valley, AZ",04019,36412,23437,20.165,0.015,31.866988,-110.990056
35272,"Greenville, AL Urban Area","Greenville, AL",01013,5307,2694,5.607,0.0,31.834026,-86.627146
35299,"Greenville, IL Urban Area","Greenville, IL",17005,6856,2505,2.986,0.0,38.887645,-89.402676
35309,"Greenville, KY Urban Area","Greenville, KY",21177,5610,2903,5.46,0.097,37.216897,-87.172015
35326,"Greenville, MI Urban Area","Greenville, MI",26117,10887,4222,6.643,0.122,43.180285,-85.264773
35353,"Greenville, MS Urban Area","Greenville, MS",28151,29163,13891,16.786,0.023,33.398811,-91.041757
35380,"Greenville, NC Urban Area","Greenville, NC",37147,121120,57739,66.378,0.351,35.577899,-77.36578
35407,"Greenville, OH Urban Area","Greenville, OH",39037,13045,6342,6.653,0.062,40.104708,-84.62145
35434,"Greenville, PA Urban Area","Greenville, PA",42085,10721,4596,7.932,0.011,41.397006,-80.389358
35461,"Greenville, SC Urban Area","Greenville, SC",45045,386699,171903,262.168,2.23,34.863762,-82.397044
35488,"Greenville, TX Urban Area","Greenville, TX",48231,27122,11452,17.303,0.024,33.112637,-96.102347
35542,"Greenwood, AR Urban Area","Greenwood, AR",05131,9160,4013,6.612,0.143,35.217094,-94.261301
35569,"Greenwood, MS Urban Area","Greenwood, MS",28083,20178,8959,10.677,0.028,33.515505,-90.175915
35596,"Greenwood, SC Urban Area","Greenwood, SC",45047,42132,18846,35.519,0.258,34.200708,-82.16992
35623,"Grenada, MS Urban Area","Grenada, MS",28043,10508,5262,7.121,0.0,33.765356,-89.808409
35677,"Gridley, CA Urban Area","Gridley, CA",06007,8352,3045,3.98,0.0,39.359231,-121.698567
35688,"Griffin, GA Urban Area","Griffin, GA",13255,38109,16003,27.914,0.379,33.244647,-84.274797
35704,"Grinnell, IA Urban Area","Grinnell, IA",19157,9217,3867,4.334,0.041,41.74279,-92.724935
35716,"Grissom AFB, IN Urban Area","Grissom AFB, IN",18103,4306,1369,4.306,0.003,40.657128,-86.145425
35785,"Grove, OK Urban Area","Grove, OK",40041,8023,4358,10.187,0.004,36.58898,-94.7867
35812,"Grove City, PA Urban Area","Grove City, PA",42085,9807,3394,6.077,0.003,41.152357,-80.085363
35839,"Guadalupe, CA Urban Area","Guadalupe, CA",06083,8272,2238,1.142,0.004,34.964929,-120.573127
35852,"Guánica, PR Urban Area","Guánica, PR",72055,8224,5364,2.901,0.003,17.965471,-66.939216
35866,"Guayama, PR Urban Area","Guayama, PR",72109,51545,26869,21.766,0.134,17.991631,-66.051477
35920,"Gulfport--Biloxi, MS Urban Area","Gulfport, MS",28047,237099,107331,168.637,12.005,30.405084,-89.042203
35974,"Gun Barrel City, TX Urban Area","Gun Barrel City, TX",48213,18425,9665,18.406,0.024,32.272461,-96.114677
36001,"Gunnison, CO Urban Area","Gunnison, CO",08051,7194,3736,3.656,0.005,38.54055,-106.9385
36055,"Gustine, CA Urban Area","Gustine, CA",06047,5948,2417,1.164,0.0,37.253699,-121.003968
36082,"Guthrie, OK Urban Area","Guthrie, OK",40083,9303,3642,6.835,0.0,35.872228,-97.419973
36109,"Guymon, OK Urban Area","Guymon, OK",40139,12419,4656,4.815,0.0,36.689903,-101.475838
36136,"Gypsum, CO Urban Area","Gypsum, CO",08037,9238,2822,5.777,0.112,39.640476,-106.946081
36190,"Hagerstown, MD--WV--PA--VA Urban Area","Hagerstown, MD",54003,196568,80991,120.769,0.076,39.685014,-77.726496
36217,"Hailey, ID Urban Area","Hailey, ID",16013,12051,4699,5.269,0.005,43.502129,-114.290412
36271,"Half Moon Bay, CA Urban Area","Half Moon Bay, CA",06081,21666,8815,8.347,0.0,37.460503,-122.44367
36384,"Hamburg--Vernon--Highland Lakes, NJ Urban Area","Hamburg, NJ",34037,27379,13439,21.806,0.954,41.197847,-74.48458
36406,"Hamilton, MT Urban Area","Hamilton, MT",30081,7758,3966,3.979,0.004,46.23891,-114.15407
36514,"Hammond, LA Urban Area","Hammond, LA",22105,77063,32393,76.42,0.277,30.484827,-90.476454
36541,"Hammonton, NJ Urban Area","Hammonton, NJ",34001,12453,5443,8.263,0.144,39.637221,-74.793248
36568,"Hampshire, IL Urban Area","Hampshire, IL",17089,6382,1978,2.725,0.0,42.094122,-88.517971
36585,"Hampstead, NC Urban Area","Hampstead, NC",37141,22577,16053,31.449,0.223,34.412168,-77.606311
36595,"Hampstead--Manchester, MD Urban Area","Hampstead, MD",24013,15094,6137,7.884,0.01,39.627344,-76.860088
36703,"Hanford, CA Urban Area","Hanford, CA",06031,67207,22188,18.231,0.0,36.331388,-119.659017
36730,"Hannibal, MO Urban Area","Hannibal, MO",29127,17426,8008,10.6,0.017,39.709099,-91.389416
36784,"Hanover, PA Urban Area","Hanover, PA",42133,56409,24145,25.71,0.046,39.80299,-76.989774
36838,"Harlan, IA Urban Area","Harlan, IA",19165,4831,2392,2.598,0.0,41.650583,-95.326029
36865,"Harlan, KY Urban Area","Harlan, KY",21095,5314,2853,4.802,0.231,36.855334,-83.344548
36892,"Harlingen, TX Urban Area","Harlingen, TX",48061,121417,47950,54.157,0.727,26.184437,-97.716275
36946,"Harriman--Kingston--Rockwood, TN Urban Area","Harriman, TN",47145,22980,10945,30.492,0.153,35.919399,-84.537943
36973,"Harrington, DE Urban Area","Harrington, DE",10001,4874,1940,3.361,0.007,38.922467,-75.56445
37000,"Harrisburg, IL Urban Area","Harrisburg, IL",17165,8501,4096,5.291,0.031,37.73503,-88.547426
37081,"Harrisburg, PA Urban Area","Harrisburg, PA",42043,491810,212599,250.25,11.295,40.246448,-76.877022
37091,"Harrisburg, SD Urban Area","Harrisburg, SD",46083,7089,2745,2.446,0.0,43.431651,-96.705555
37108,"Harrison, AR Urban Area","Harrison, AR",05009,13965,6681,12.39,0.029,36.245126,-93.119068
37145,"Harrison, OH--IN Urban Area","Harrison, OH",39061,15253,6346,7.452,0.029,39.256312,-84.784563
37162,"Harrisonburg, VA Urban Area","Harrisonburg, VA",51660,73439,27017,31.103,0.074,38.419421,-78.886787
37189,"Harrisonville, MO Urban Area","Harrisonville, MO",29037,9473,4131,6.833,0.035,38.648541,-94.350536
37216,"Harrodsburg, KY Urban Area","Harrodsburg, KY",21167,10042,4820,6.527,0.016,37.76662,-84.850115
37243,"Hartford, CT Urban Area","Hartford, CT",09003,976179,424745,535.927,9.128,41.770271,-72.70287
37297,"Hartford, WI Urban Area","Hartford, WI",55131,24194,10591,14.874,1.549,43.320292,-88.378037
37324,"Hartford City, IN Urban Area","Hartford City, IN",18009,5897,3120,3.521,0.019,40.453228,-85.371784
37351,"Hartselle, AL Urban Area","Hartselle, AL",01103,16291,6937,13.908,0.053,34.43215,-86.936707
