GEOID,Name,Short Name,Primary County GEOID,Population,Housing Units,Land Area,Water Area,Latitude,Longitude
00037,"Abbeville, LA Urban Area","Abbeville, LA",22113,17742,8938,11.129,0.131,29.96865,-92.095225
00064,"Abbeville, SC Urban Area","Abbeville, SC",45001,5084,2358,4.948,0.002,34.176729,-82.382945
00145,"Aberdeen, SD Urban Area","Aberdeen, SD",46013,27849,13245,13.895,0.071,45.463204,-98.468811
00172,"Aberdeen, WA Urban Area","Aberdeen, WA",53027,27286,11611,10.972,0.696,46.974594,-123.831816
00253,"Abilene, KS Urban Area","Abilene, KS",20041,6665,3351,3.64,0.001,38.92106,-97.220754
00280,"Abilene, TX Urban Area","Abilene, TX",48441,119007,51852,61.973,0.392,32.42579,-99.74988
00388,"Ada, OH Urban Area","Ada, OH",39065,4553,1767,2.095,0.0,40.767953,-83.825064
00415,"Ada, OK Urban Area","Ada, OK",40123,17311,8469,14.25,0.012,34.775053,-96.673796
00442,"Adairsville, GA Urban Area","Adairsville, GA",13015,5444,1748,5.351,0.0,34.368886,-84.93652
00469,"Adel, GA Urban Area","Adel, GA",13075,6977,3118,6.111,0.066,31.145787,-83.427248
00496,"Adel, IA Urban Area","Adel, IA",19049,5459,2150,2.743,0.006,41.61053,-94.023973
00550,"Adjuntas, PR Urban Area","Adjuntas, PR",72001,8078,3536,4.863,0.0,18.16311,-66.720634
00577,"Adrian, MI Urban Area","Adrian, MI",26091,29187,12218,13.375,0.149,41.899205,-84.04018
00631,"Aguadilla--Isabela--San Sebastián, PR Urban Area","Aguadilla, PR",72005,232443,112538,187.321,0.143,18.391426,-67.091325
00658,"Ahoskie, NC Urban Area","Ahoskie, NC",37091,4754,2438,3.326,0.0,36.286472,-76.983542
00660,"Aibonito, PR Urban Area","Aibonito, PR",72009,19535,8709,13.305,0.025,18.13458,-66.275739
00766,"Akron, OH Urban Area","Akron, OH",39153,539350,252905,300.637,5.82,41.073342,-81.495355
00820,"Alamogordo, NM Urban Area","Alamogordo, NM",35035,30707,15449,13.731,0.002,32.892453,-105.952133
00847,"Alamosa, CO Urban Area","Alamosa, CO",08003,10428,4505,7.685,0.015,37.464471,-105.875242
00901,"Albany, GA Urban Area","Albany, GA",13095,84302,39536,66.507,0.736,31.586505,-84.172328
00955,"Albany, OR Urban Area","Albany, OR",41043,62192,24492,23.049,0.074,44.635118,-123.093403
00970,"Albany--Schenectady, NY Urban Area","Albany, NY",36001,594848,274163,271.303,5.434,42.742965,-73.799324
00982,"Albemarle, NC Urban Area","Albemarle, NC",37167,16779,8354,16.661,0.018,35.379959,-80.188772
01009,"Albert Lea, MN Urban Area","Albert Lea, MN",27047,18046,8518,10.797,0.539,43.653783,-93.365114
01036,"Albertville, AL Urban Area","Albertville, AL",01095,38371,15380,34.843,0.237,34.269468,-86.217373
01090,"Albion, MI Urban Area","Albion, MI",26025,8031,3128,4.691,0.053,42.249581,-84.755351
01117,"Albion, NY Urban Area","Albion, NY",36073,6978,2990,2.945,0.0,43.24579,-78.193578
01171,"Albuquerque, NM Urban Area","Albuquerque, NM",35001,770082,337882,263.072,2.689,35.131816,-106.623826
01252,"Alexander City, AL Urban Area","Alexander City, AL",01123,8472,4324,9.79,0.014,32.943492,-85.962142
01273,"Alexandria, IN Urban Area","Alexandria, IN",18095,6064,3136,3.804,0.005,40.257609,-85.679057
01279,"Alexandria, LA Urban Area","Alexandria, LA",22079,76791,35731,64.711,0.715,31.3237,-92.447707
01306,"Alexandria, MN Urban Area","Alexandria, MN",27041,19301,10233,22.572,7.309,45.891937,-95.378886
01387,"Algona, IA Urban Area","Algona, IA",19109,5406,2702,3.352,0.006,43.073988,-94.228673
01414,"Alice, TX Urban Area","Alice, TX",48249,19464,7517,10.031,0.0,27.750622,-98.07342
01441,"Allegan, MI Urban Area","Allegan, MI",26005,6804,2707,6.879,0.879,42.536282,-85.850898
01450,"Allendale, MI Urban Area","Allendale, MI",26139,23377,7448,10.545,0.061,42.964159,-85.929201
01495,"Allentown--Bethlehem, PA--NJ Urban Area","Allentown, PA",42077,625350,252956,261.546,3.592,40.639158,-75.414498
01522,"Alliance, NE Urban Area","Alliance, NE",31013,7879,3888,4.905,0.012,42.09978,-102.873281
01549,"Alliance, OH Urban Area","Alliance, OH",39151,31274,14323,17.254,0.089,40.913518,-81.097902
01630,"Alma--St. Louis, MI Urban Area","Alma, MI",26057,17033,5460,9.035,0.213,43.390674,-84.641499
01684,"Alpena, MI Urban Area","Alpena, MI",26007,15359,8035,12.709,0.769,45.04959,-83.453573
01701,"Alpine, CA Urban Area","Alpine, CA",06073,14654,5250,9.846,0.001,32.825726,-116.781139
01711,"Alpine, TX Urban Area","Alpine, TX",48043,6286,3792,4.287,0.0,30.360219,-103.667414
01738,"Altavista, VA Urban Area","Altavista, VA",51031,4644,2169,5.941,0.063,37.113134,-79.291707
01765,"Alton, IL Urban Area","Alton, IL",17119,79622,37952,59.658,0.951,38.898528,-90.121266
01792,"Altoona, PA Urban Area","Altoona, PA",42013,73939,35046,37.012,0.062,40.477649,-78.398538
01846,"Altus, OK Urban Area","Altus, OK",40065,18811,9139,15.657,0.203,34.657061,-99.309046
01873,"Alva, OK Urban Area","Alva, OK",40151,5150,2617,3.646,0.0,36.799658,-98.665505
01900,"Alvarado, TX Urban Area","Alvarado, TX",48251,4973,1856,3.044,0.015,32.412336,-97.216697
01927,"Amarillo, TX Urban Area","Amarillo, TX",48375,205613,88626,83.993,0.687,35.192028,-101.846942
02008,"Americus, GA Urban Area","Americus, GA",13261,17216,7654,10.979,0.06,32.077399,-84.219732
02062,"Ames, IA Urban Area","Ames, IA",19169,65725,27550,22.357,0.081,42.02461,-93.629124
02103,"Amherst Town--Northampton--Easthampton Town, MA Urban Area","Amherst Town, MA",25015,84946,34870,54.652,0.668,42.275255,-72.653406
02143,"Amory, MS Urban Area","Amory, MS",28095,6304,3078,5.606,0.011,33.983635,-88.478932
02170,"Amsterdam, NY Urban Area","Amsterdam, NY",36057,21395,10986,10.055,0.325,42.952606,-74.192053
02197,"Anaconda-Deer Lodge County, MT Urban Area","Anaconda, MT",30023,6664,3928,2.61,0.0,46.132279,-112.96175
02224,"Anacortes, WA Urban Area","Anacortes, WA",53057,18693,9037,9.858,0.351,48.491868,-122.639049
02251,"Anadarko, OK Urban Area","Anadarko, OK",40015,4970,2189,2.105,0.0,35.071102,-98.24162
02278,"Anamosa, IA Urban Area","Anamosa, IA",19105,5434,2059,2.647,0.003,42.110052,-91.27386
02305,"Anchorage, AK Urban Area","Anchorage, AK",02020,249129,102702,91.689,1.072,61.169584,-149.854154
02332,"Anchorage Northeast, AK Urban Area","Anchorage Northeast, AK",02020,29158,11743,17.683,0.184,61.325491,-149.537602
02359,"Andalusia, AL Urban Area","Andalusia, AL",01039,6085,3207,6.863,0.04,31.305196,-86.479475
02386,"Anderson, IN Urban Area","Anderson, IN",18095,80252,37297,52.17,0.153,40.086247,-85.676223
02420,"Anderson--Clemson, SC Urban Area","Anderson, SC",45007,118281,51230,95.94,2.827,34.553063,-82.696322
02467,"Andrews, TX Urban Area","Andrews, TX",48003,15156,5920,9.515,0.012,32.323743,-102.541184
02500,"Angleton, TX Urban Area","Angleton, TX",48039,20317,8863,10.948,0.019,29.170738,-95.428262
02548,"Angola, IN Urban Area","Angola, IN",18151,13037,6938,12.428,2.279,41.670453,-85.030874
02575,"Anna, IL Urban Area","Anna, IL",17181,6068,2858,4.429,0.022,37.461878,-89.248104
02602,"Ann Arbor, MI Urban Area","Ann Arbor, MI",26161,314278,137848,143.455,5.152,42.237327,-83.649391
02629,"Anniston--Oxford, AL Urban Area","Anniston, AL",01015,78285,36090,78.896,0.428,33.668326,-85.833914
02656,"Antigo, WI Urban Area","Antigo, WI",55067,8258,4448,4.848,0.046,45.142639,-89.153197
02683,"Antioch, CA Urban Area","Antioch, CA",06013,327263,105608,73.347,0.787,37.985757,-121.79064
02764,"Appleton, WI Urban Area","Appleton, WI",55087,232870,100324,107.775,4.116,44.250467,-88.409398
02791,"Arab, AL Urban Area","Arab, AL",01095,7809,3257,8.695,0.108,34.330357,-86.500846
02818,"Aransas Pass--Port Aransas--Ingleside, TX Urban Area","Aransas Pass, TX",48409,22569,14660,24.644,0.221,27.901076,-97.153623
02912,"Arcadia, FL Urban Area","Arcadia, FL",12027,16242,7586,10.004,0.006,27.208552,-81.852524
02930,"Arcata, CA Urban Area","Arcata, CA",06023,19429,8734,7.928,0.046,40.877492,-124.078895
03007,"Ardmore, OK Urban Area","Ardmore, OK",40019,21261,9809,15.019,0.139,34.177688,-97.13738
03034,"Arecibo, PR Urban Area","Arecibo, PR",72065,125368,57529,75.493,0.096,18.454313,-66.810062
03088,"Arizona City, AZ Urban Area","Arizona City, AZ",04021,8305,4239,4.339,0.077,32.749832,-111.673175
03115,"Arkadelphia, AR Urban Area","Arkadelphia, AR",05019,10084,4189,6.2,0.0,34.126249,-93.068945
03142,"Arkansas City, KS Urban Area","Arkansas City, KS",20035,11745,5519,6.832,0.0,37.065618,-97.040529
03158,"Arlington, TN Urban Area","Arlington, TN",47157,14124,4664,7.675,0.034,35.284261,-89.665147
03196,"Arroyo Grande--Grover Beach--Pismo Beach, CA Urban Area","Arroyo Grande, CA",06079,51111,25873,17.075,0.061,35.123896,-120.604569
03223,"Artesia, NM Urban Area","Artesia, NM",35015,14304,6362,6.849,0.007,32.843287,-104.40931
03250,"Arvin, CA Urban Area","Arvin, CA",06029,19342,4585,2.345,0.0,35.203159,-118.832837
03262,"Asbury Lake--Middleburg, FL Urban Area","Asbury Lake, FL",12019,23236,9948,23.003,0.27,30.060172,-81.852388
03277,"Ashburn, GA Urban Area","Ashburn, GA",13287,4798,2021,4.247,0.042,31.696905,-83.647136
03331,"Asheboro, NC Urban Area","Asheboro, NC",37151,37443,16354,27.421,0.122,35.734505,-79.812027
03358,"Asheville, NC Urban Area","Asheville, NC",37021,295054,143788,248.585,1.904,35.509787,-82.522474
03385,"Ashland, OH Urban Area","Ashland, OH",39005,19185,8895,9.852,0.036,40.865865,-82.318339
03395,"Ashland, PA Urban Area","Ashland, PA",42107,4402,2683,1.419,0.0,40.793666,-76.284347
03412,"Ashland, WI Urban Area","Ashland, WI",55003,7079,3545,4.223,0.001,46.587261,-90.877925
03466,"Ashtabula, OH Urban Area","Ashtabula, OH",39007,27313,14044,21.69,0.18,41.871766,-80.815232
03493,"Ashville, OH Urban Area","Ashville, OH",39129,7412,2754,3.807,0.0,39.714159,-82.974496
03520,"Aspen, CO Urban Area","Aspen, CO",08097,7299,6372,5.212,0.0,39.198226,-106.84115
03547,"Astoria, OR Urban Area","Astoria, OR",41007,15948,7482,9.669,0.13,46.190059,-123.810292
03601,"Atchison, KS Urban Area","Atchison, KS",20005,10746,4245,5.385,0.044,39.565798,-95.13284
03655,"Athens, AL Urban Area","Athens, AL",01083,25167,11501,20.092,0.115,34.797624,-86.962366
03682,"Athens, OH Urban Area","Athens, OH",39009,26311,10059,9.453,0.144,39.332266,-82.104873
03709,"Athens, TN Urban Area","Athens, TN",47107,15568,7372,15.473,0.0,35.452502,-84.609521
03736,"Athens, TX Urban Area","Athens, TX",48213,12342,4850,9.32,0.025,32.198133,-95.849966
03763,"Athens-Clarke County, GA Urban Area","Athens, GA",13059,144727,61888,91.847,0.937,33.944601,-83.396107
03790,"Athol, MA Urban Area","Athol, MA",25027,13803,6159,10.611,0.461,42.599692,-72.237254
03817,"Atlanta, GA Urban Area","Atlanta, GA",13121,5152073,2068065,2450.521,36.379,33.834858,-84.337701
03844,"Atlanta, TX Urban Area","Atlanta, TX",48067,4948,2460,6.809,0.038,33.13,-94.169682
03871,"Atlantic, IA Urban Area","Atlantic, IA",19029,6571,3426,4.492,0.044,41.397778,-95.009637
03904,"Atlantic City--Ocean City--Villas, NJ Urban Area","Atlantic City, NJ",34001,296056,201191,162.875,4.106,39.239372,-74.66394
03925,"Atmore, AL Urban Area","Atmore, AL",01053,6314,3298,5.104,0.02,31.025074,-87.488688
03957,"Atoka, TN Urban Area","Atoka, TN",47167,13152,5175,9.925,0.028,35.436176,-89.777209
04021,"Aubrey, TX Urban Area","Aubrey, TX",48121,6050,2465,2.74,0.004,33.290517,-96.98788
04033,"Auburn, AL Urban Area","Auburn, AL",01081,103995,46470,61.156,0.569,32.611382,-85.452135
04060,"Auburn, IN Urban Area","Auburn, IN",18033,20425,8898,9.883,0.0,41.361557,-85.075974
04114,"Auburn, NY Urban Area","Auburn, NY",36011,30546,15230,13.139,0.082,42.922279,-76.558539
04130,"Auburn, CA Urban Area","Auburn, CA",06061,32425,14085,17.239,0.009,38.925771,-121.080791
04146,"Au Gres, MI Urban Area","Au Gres, MI",26011,1878,2164,3.963,0.065,44.043392,-83.689549
04168,"Augusta, KS Urban Area","Augusta, KS",20015,9252,3875,3.716,0.268,37.694382,-96.973186
04195,"Augusta, ME Urban Area","Augusta, ME",23011,24858,12940,21.918,0.723,44.323856,-69.807516
04222,"Augusta-Richmond County, GA--SC Urban Area","Augusta, GA",13245,430939,187263,273.292,2.224,33.485271,-82.001784
04276,"Aurora, MO Urban Area","Aurora, MO",29109,7878,3693,5.278,0.016,36.965645,-93.720407
04357,"Austin, MN Urban Area","Austin, MN",27099,25531,10769,10.047,0.098,43.668767,-92.976697
04384,"Austin, TX Urban Area","Austin, TX",48453,1855197,808591,619.621,4.895,30.380036,-97.765795
04438,"Avalon, CA Urban Area","Avalon, CA",06037,3290,1832,1.189,0.0,33.34166,-118.329744
04465,"Avenal, CA Urban Area","Avenal, CA",06031,12824,2937,3.629,0.0,36.000567,-120.132966
04587,"Aztec, NM Urban Area","Aztec, NM",35045,7327,3247,6.783,0.102,36.828868,-108.000173
04627,"Bainbridge, GA Urban Area","Bainbridge, GA",13087,12472,6022,10.676,0.237,30.906213,-84.572652
04654,"Baker City, OR Urban Area","Baker City, OR",41001,10066,4724,4.479,0.0,44.780684,-117.83368
04681,"Bakersfield, CA Urban Area","Bakersfield, CA",06029,574397,187970,132.121,0.983,35.365109,-119.049231
04843,"Baltimore, MD Urban Area","Baltimore, MD",24005,2201888,948420,654.935,21.539,39.23648,-76.642499
04924,"Bandon, OR Urban Area","Bandon, OR",41011,4442,2777,4.867,0.016,43.106208,-124.420961
04951,"Bangor, ME Urban Area","Bangor, ME",23019,62028,28584,51.116,1.862,44.798865,-68.806636
05005,"Baraboo, WI Urban Area","Baraboo, WI",55111,13924,6773,6.764,0.083,43.46854,-89.748766
05032,"Barbourville, KY Urban Area","Barbourville, KY",21121,5653,2678,5.297,0.028,36.860167,-83.870451
05040,"Barceloneta--Florida--Bajadero, PR Urban Area","Barceloneta, PR",72013,65521,29191,41.701,0.028,18.41848,-66.606724
05059,"Bardstown, KY Urban Area","Bardstown, KY",21179,18237,8041,13.37,0.105,37.830694,-85.459261
05113,"Barnesville, GA Urban Area","Barnesville, GA",13171,6668,2857,5.814,0.042,33.056346,-84.160191
05167,"Barnstable Town, MA Urban Area","Barnstable Town, MA",25001,303710,196034,341.279,34.86,41.627072,-70.61661
05221,"Barre--Montpelier, VT Urban Area","Barre, VT",50023,20644,10247,14.39,0.16,44.212909,-72.526918
05302,"Barstow, CA Urban Area","Barstow, CA",06071,29904,11921,12.382,0.0,34.886704,-117.032814
05329,"Bartlesville, OK Urban Area","Bartlesville, OK",40147,39594,17912,19.761,0.012,36.74927,-95.943864
05383,"Bartow, FL Urban Area","Bartow, FL",12105,18570,7388,7.914,0.258,27.890152,-81.838405
05410,"Basalt, CO Urban Area","Basalt, CO",08037,8194,3688,3.642,0.027,39.38358,-107.080731
05437,"Bastrop, LA Urban Area","Bastrop, LA",22067,12065,5639,10.328,0.041,32.776054,-91.911145
05464,"Bastrop, TX Urban Area","Bastrop, TX",48021,20940,8460,18.131,0.24,30.10718,-97.344734
05491,"Batavia, NY Urban Area","Batavia, NY",36037,17157,8607,8.069,0.046,43.002881,-78.176038
05518,"Batesburg-Leesville, SC Urban Area","Batesburg, SC",45063,4841,2446,5.6,0.063,33.908796,-81.529076
05545,"Batesville, AR Urban Area","Batesville, AR",05063,11221,5020,7.843,0.009,35.779394,-91.630531
05572,"Batesville, IN Urban Area","Batesville, IN",18137,7678,3120,5.474,0.068,39.30081,-85.215672
05599,"Batesville, MS Urban Area","Batesville, MS",28107,5927,2550,6.28,0.0,34.319332,-89.94112
05653,"Bath, NY Urban Area","Bath, NY",36101,6355,3465,2.905,0.095,42.339846,-77.312811
05680,"Baton Rouge, LA Urban Area","Baton Rouge, LA",22033,634486,276872,396.341,4.367,30.410839,-91.032862
05707,"Battle Creek, MI Urban Area","Battle Creek, MI",26025,76134,34747,47.332,1.602,42.313131,-85.20252
05734,"Battlement Mesa, CO Urban Area","Battlement Mesa, CO",08045,6642,2811,3.064,0.022,39.442496,-108.043023
05788,"Baxley, GA Urban Area","Baxley, GA",13001,5752,2746,6.259,0.005,31.771186,-82.346883
05842,"Bayard, NM Urban Area","Bayard, NM",35017,5137,2685,3.114,0.025,32.695934,-108.118383
05869,"Bay City, MI Urban Area","Bay City, MI",26017,67831,33061,39.932,1.139,43.608667,-83.890414
05896,"Bay City, TX Urban Area","Bay City, TX",48321,19196,8867,10.414,0.016,28.985126,-95.951212
05923,"Bay Minette, AL Urban Area","Bay Minette, AL",01003,8050,3305,6.955,0.055,30.881721,-87.777638
05935,"Bayside Gardens--Manzanita, OR Urban Area","Bayside Gardens, OR",41057,2811,3039,2.981,0.001,45.71741,-123.918666
05958,"Bealeton, VA Urban Area","Bealeton, VA",51061,5436,1821,4.369,0.008,38.571106,-77.769645
05977,"Beardstown, IL Urban Area","Beardstown, IL",17017,6236,2388,2.139,0.037,40.011448,-90.425261
06004,"Beatrice, NE Urban Area","Beatrice, NE",31067,12233,6105,8.691,0.065,40.274298,-96.744552
06031,"Beaufort--Port Royal, SC Urban Area","Beaufort, SC",45013,54015,22517,43.76,0.548,32.430552,-80.714653
06058,"Beaumont, TX Urban Area","Beaumont, TX",48245,144707,66732,96.099,1.474,30.110762,-94.129316
06085,"Beaver Dam, KY Urban Area","Beaver Dam, KY",21183,5394,2172,3.402,0.009,37.406682,-86.87647
06112,"Beaver Dam, WI Urban Area","Beaver Dam, WI",55027,18645,8984,9.384,0.028,43.471648,-88.82927
06139,"Beckley, WV Urban Area","Beckley, WV",54081,56311,27437,53.636,0.167,37.789184,-81.229955
06166,"Bedford, IN Urban Area","Bedford, IN",18093,14197,7173,8.508,0.001,38.862636,-86.498249
06193,"Bedford, PA Urban Area","Bedford, PA",42009,4164,2237,3.838,0.104,40.032726,-78.508804
06220,"Bedford, VA Urban Area","Bedford, VA",51019,7479,3596,8.576,0.012,37.339142,-79.524904
06247,"Beebe, AR Urban Area","Beebe, AR",05145,6923,3119,4.474,0.0,35.07041,-91.89251
06274,"Beeville, TX Urban Area","Beeville, TX",48025,13413,5769,6.313,0.0,28.406366,-97.748367
06290,"Bel Air--Aberdeen, MD Urban Area","Bel Air, MD",24025,216106,86885,107.198,1.396,39.510202,-76.286724
06301,"Belding, MI Urban Area","Belding, MI",26067,5712,2181,2.908,0.06,43.09647,-85.234104
06335,"Belfair, WA Urban Area","Belfair, WA",53045,5454,3139,5.349,0.001,47.445989,-122.8604
06355,"Belfast, ME Urban Area","Belfast, ME",23027,4439,3003,3.522,0.018,44.41684,-68.99446
06382,"Belgrade, MT Urban Area","Belgrade, MT",30031,19429,7984,13.349,0.041,45.7759,-111.18265
06436,"Bellefontaine, OH Urban Area","Bellefontaine, OH",39091,13950,6912,6.211,0.0,40.359387,-83.753111
06463,"Bellefonte, PA Urban Area","Bellefonte, PA",42027,15623,6538,7.84,0.0,40.911329,-77.786548
06490,"Belle Fourche, SD Urban Area","Belle Fourche, SD",46019,4864,2291,2.86,0.0,44.665885,-103.850796
06517,"Belle Glade, FL Urban Area","Belle Glade, FL",12099,22597,7226,7.21,0.0,26.683623,-80.67831
06571,"Belle Plaine, MN Urban Area","Belle Plaine, MN",27139,6963,2571,3.549,0.0,44.61807,-93.759712
06625,"Bellevue, OH Urban Area","Bellevue, OH",39143,8429,3846,4.47,0.07,41.277074,-82.84458
06652,"Bellingham, WA Urban Area","Bellingham, WA",53073,130771,59068,50.132,2.915,48.773005,-122.480881
06679,"Bellows Falls, VT--NH Urban Area","Bellows Falls, VT",50025,3802,2063,2.421,0.046,43.131472,-72.449764
06760,"Beloit, WI--IL Urban Area","Beloit, WI",55105,63516,25535,31.936,0.836,42.503862,-89.027523
06770,"Belterra, TX Urban Area","Belterra, TX",48209,11166,3549,3.359,0.0,30.188169,-97.987033
06779,"Belton, SC Urban Area","Belton, SC",45007,4898,1966,4.562,0.011,34.527111,-82.49847
06841,"Bemidji, MN Urban Area","Bemidji, MN",27007,14626,6855,14.459,1.045,47.48452,-94.89423
06868,"Bend, OR Urban Area","Bend, OR",41017,109902,49901,42.407,0.304,44.050969,-121.31822
06895,"Bennettsville, SC Urban Area","Bennettsville, SC",45069,8407,4599,7.47,0.494,34.621515,-79.684769
06922,"Bennington, VT Urban Area","Bennington, VT",50003,13266,5921,11.633,0.116,42.899989,-73.204499
06949,"Benson, AZ Urban Area","Benson, AZ",04003,4008,2521,2.714,0.002,31.961786,-110.294175
07030,"Benton, IL Urban Area","Benton, IL",17055,7642,3832,4.982,0.02,38.000944,-88.919648
07057,"Benton, KY Urban Area","Benton, KY",21157,4710,2235,4.127,0.055,36.851835,-88.359536
07084,"Benton, LA Urban Area","Benton, LA",22015,4392,1788,4.476,0.007,32.672625,-93.725459
07138,"Benton Harbor--Lincoln--St. Joseph, MI Urban Area","Benton Harbor, MI",26021,62731,31435,52.528,1.244,42.052276,-86.480381
07165,"Berea, KY Urban Area","Berea, KY",21151,16978,6567,11.478,0.052,37.583562,-84.293019
07192,"Berlin, NH Urban Area","Berlin, NH",33007,9994,5294,4.944,0.174,44.482025,-71.16291
07219,"Berlin, WI Urban Area","Berlin, WI",55047,5063,2470,3.455,0.013,43.970639,-88.947368
07300,"Berryville, AR Urban Area","Berryville, AR",05015,4941,2117,4.182,0.0,36.369166,-93.563263
07381,"Bethel, AK Urban Area","Bethel, AK",02050,4794,1930,15.0,0.252,60.7653,-161.804893
07472,"Beverly Hills--Homosassa Springs--Pine Ridge, FL Urban Area","Beverly Hills, FL",12017,99544,52145,118.827,3.69,28.892909,-82.443778
07508,"Big Bear, CA Urban Area","Big Bear, CA",06071,16187,21296,15.929,0.214,34.244205,-116.854109
07530,"Big Lake, MN Urban Area","Big Lake, MN",27141,12220,4115,5.424,0.821,45.339948,-93.745209
07597,"Big Pine Key, FL Urban Area","Big Pine Key, FL",12087,8952,6118,8.463,0.254,24.661751,-81.414396
07624,"Big Rapids, MI Urban Area","Big Rapids, MI",26107,10776,4805,7.343,0.059,43.692418,-85.481129
07651,"Big Spring, TX Urban Area","Big Spring, TX",48227,26553,11325,20.643,0.234,32.244288,-101.461699
07678,"Big Stone Gap, VA Urban Area","Big Stone Gap, VA",51195,6674,2636,6.581,0.089,36.864971,-82.764885
07705,"Billings, MT Urban Area","Billings, MT",30111,129337,57870,54.7,0.137,45.787459,-108.53712
07732,"Binghamton, NY Urban Area","Binghamton, NY",36007,152898,71962,69.729,3.066,42.10852,-75.964231
07759,"Birch Bay, WA Urban Area","Birch Bay, WA",53073,16768,8583,13.056,0.152,48.947603,-122.735883
07770,"Birdsboro--Amity, PA Urban Area","Birdsboro, PA",42011,16870,6643,8.562,0.011,40.265603,-75.749569
07786,"Birmingham, AL Urban Area","Birmingham, AL",01073,774698,349875,509.272,3.591,33.475252,-86.784185
07813,"Bisbee, AZ Urban Area","Bisbee, AZ",04003,4574,3046,3.153,0.0,31.403482,-109.92094
07840,"Bishop, CA Urban Area","Bishop, CA",06027,11396,5314,5.49,0.007,37.365976,-118.415939
07921,"Bismarck, ND Urban Area","Bismarck, ND",38015,98700,46207,41.854,0.404,46.819848,-100.801005
07948,"Blackfoot, ID Urban Area","Blackfoot, ID",16011,14523,5458,7.513,0.177,43.198466,-112.359362
07975,"Black River Falls, WI Urban Area","Black River Falls, WI",55053,4289,2139,3.704,0.003,44.296885,-90.849189
08002,"Blacksburg--Christiansburg, VA Urban Area","Blacksburg, VA",51121,71691,29706,33.979,0.052,37.185325,-80.41322
08083,"Blackwell, OK Urban Area","Blackwell, OK",40071,5886,3089,3.844,0.007,36.800234,-97.291627
08137,"Blair, NE Urban Area","Blair, NE",31177,8022,3645,8.181,0.0,41.536927,-96.122542
08164,"Blairsville, PA Urban Area","Blairsville, PA",42063,5937,3225,5.221,0.002,40.443953,-79.264054
08353,"Bloomfield, NM Urban Area","Bloomfield, NM",35045,7549,3182,6.248,0.034,36.715582,-107.975039
08380,"Bloomington, IN Urban Area","Bloomington, IN",18105,109904,51364,43.036,0.005,39.166091,-86.552907
08407,"Bloomington--Normal, IL Urban Area","Bloomington, IL",17113,134278,60058,50.362,0.221,40.493771,-88.978991
08434,"Bloomsburg--Berwick, PA Urban Area","Bloomsburg, PA",42037,40149,18491,20.745,0.535,41.027288,-76.36377
08470,"Blowing Rock, NC Urban Area","Blowing Rock, NC",37189,858,1880,3.199,0.044,36.129182,-81.666326
08515,"Bluefield, WV--VA Urban Area","Bluefield, WV",54055,41564,20869,38.699,0.139,37.269528,-81.255889
08542,"Bluffton, IN Urban Area","Bluffton, IN",18179,10393,4813,6.504,0.077,40.751443,-85.162221
08601,"Bluffton East--Hilton Head Island, SC Urban Area","Bluffton East, SC",45013,69692,44776,63.241,1.821,32.253775,-80.867672
08607,"Bluffton West, SC Urban Area","Bluffton West, SC",45013,34102,15632,23.305,0.034,32.271051,-80.966117
08623,"Blythe, CA--AZ Urban Area","Blythe, CA",06065,11803,5063,6.201,0.043,33.609113,-114.579244
08650,"Blytheville, AR Urban Area","Blytheville, AR",05093,15765,7907,14.532,0.0,35.931893,-89.917459
08704,"Boerne, TX Urban Area","Boerne, TX",48259,19978,8033,9.651,0.0,29.779302,-98.718712
08731,"Bogalusa, LA Urban Area","Bogalusa, LA",22117,10698,5233,10.903,0.03,30.780619,-89.86476
08785,"Boise City, ID Urban Area","Boise City, ID",16001,441221,183449,139.23,1.939,43.617616,-116.301508
08812,"Bolivar, MO Urban Area","Bolivar, MO",29167,10402,4539,5.916,0.008,37.606027,-93.414705
08866,"Bolivar, TN Urban Area","Bolivar, TN",47069,5680,2606,4.741,0.0,35.264176,-89.000544
08920,"Bonham, TX Urban Area","Bonham, TX",48147,8127,3538,5.029,0.0,33.587318,-96.181486
08974,"Bonita Springs--Estero, FL Urban Area","Bonita Springs, FL",12021,434792,286678,242.959,21.019,26.23611,-81.746589
09005,"Bonne Terre, MO Urban Area","Bonne Terre, MO",29187,6387,1953,2.202,0.021,37.922602,-90.546587
09028,"Boone, IA Urban Area","Boone, IA",19015,12193,5701,7.609,0.001,42.056076,-93.875484
09055,"Boone, NC Urban Area","Boone, NC",37189,26500,10327,18.187,0.068,36.213842,-81.665197
09109,"Booneville, MS Urban Area","Booneville, MS",28117,5904,2647,6.37,0.01,34.661137,-88.555919
09163,"Boonville, IN Urban Area","Boonville, IN",18173,6474,3065,2.829,0.013,38.046847,-87.270935
09190,"Boonville, MO Urban Area","Boonville, MO",29053,7701,3240,5.824,0.022,38.961439,-92.746203
09200,"Boothbay Harbor, ME Urban Area","Boothbay Harbor, ME",23015,3120,3740,11.226,4.181,43.835485,-69.622164
09217,"Borger, TX Urban Area","Borger, TX",48233,13085,6369,9.417,0.02,35.666797,-101.399608
09271,"Boston, MA--NH Urban Area","Boston, MA",25017,4355159,1806643,1655.887,71.69,42.378999,-71.142344
09298,"Boulder, CO Urban Area","Boulder, CO",08013,119355,52846,25.449,0.253,40.023878,-105.243811
09325,"Boulder City, NV Urban Area","Boulder City, NV",32003,13953,7034,5.724,0.0,35.973364,-114.840711
09352,"Bowie, TX Urban Area","Bowie, TX",48337,5433,2542,4.315,0.018,33.560626,-97.84825
09379,"Bowling Green, KY Urban Area","Bowling Green, KY",21227,101122,43402,52.176,0.293,36.963135,-86.440824
09433,"Bowling Green, OH Urban Area","Bowling Green, OH",39173,30311,12821,11.338,0.064,41.374021,-83.65123
09460,"Box Elder, SD Urban Area","Box Elder, SD",46103,12388,4424,6.083,0.0,44.147281,-103.065446
09487,"Boyne City, MI Urban Area","Boyne City, MI",26029,4133,2708,5.316,0.066,45.206022,-85.000772
09514,"Bozeman, MT Urban Area","Bozeman, MT",30031,61676,27575,21.393,0.053,45.677082,-111.055647
09536,"Bradenton--Sarasota--Venice, FL Urban Area","Bradenton, FL",12115,804106,461128,404.282,39.55,27.28683,-82.457015
09541,"Bradford, PA--NY Urban Area","Bradford, PA",42083,11069,4723,5.743,0.112,41.963843,-78.641214
09568,"Brady, TX Urban Area","Brady, TX",48307,4835,2350,2.926,0.008,31.129823,-99.337175
09622,"Brainerd, MN Urban Area","Brainerd, MN",27035,20957,9653,16.139,1.006,46.361308,-94.214063
09649,"Brandon, SD Urban Area","Brandon, SD",46099,11031,4229,4.682,0.003,43.593329,-96.580853
09676,"Branson, MO Urban Area","Branson, MO",29213,28661,16251,34.834,0.443,36.64692,-93.247916
09703,"Brattleboro, VT Urban Area","Brattleboro, VT",50025,10487,5252,5.727,0.039,42.858719,-72.574444
09730,"Brawley, CA Urban Area","Brawley, CA",06025,26845,8546,4.763,0.0,32.977834,-115.535864
09757,"Brazil, IN Urban Area","Brazil, IN",18021,10631,4963,6.603,0.019,39.523118,-87.117042
09801,"Breaux Bridge, LA Urban Area","Breaux Bridge, LA",22099,17288,7281,21.265,0.308,30.28917,-91.874349
09811,"Breckenridge, CO Urban Area","Breckenridge, CO",08117,8869,10522,11.15,0.0,39.48617,-106.03932
09838,"Breckenridge, TX Urban Area","Breckenridge, TX",48429,5381,2658,4.847,0.004,32.756761,-98.905695
09865,"Breese, IL Urban Area","Breese, IL",17027,4373,1920,2.343,0.0,38.615243,-89.524393
09892,"Bremen, GA Urban Area","Bremen, GA",13143,7795,3111,7.376,0.008,33.715927,-85.142396
09946,"Bremerton, WA Urban Area","Bremerton, WA",53035,227309,94294,146.91,31.859,47.61591,-122.62618
09973,"Brenham, TX Urban Area","Brenham, TX",48477,17631,7820,10.264,0.031,30.164008,-96.398815
10027,"Brevard, NC Urban Area","Brevard, NC",37175,12988,6840,13.821,0.004,35.236962,-82.722868
10081,"Brewton, AL Urban Area","Brewton, AL",01053,7179,3127,6.258,0.02,31.105736,-87.069116
10162,"Bridgeport--Stamford, CT--NY Urban Area","Bridgeport, CT",09001,915887,366596,397.292,10.881,41.210462,-73.312649
10189,"Bridgeton, NJ Urban Area","Bridgeton, NJ",34011,35491,11272,12.164,0.186,39.438984,-75.229576
10243,"Brigham City, UT Urban Area","Brigham City, UT",49003,26444,9158,10.136,0.002,41.48781,-112.022274
10351,"Bristol, TN--VA Urban Area","Bristol, TN",47163,71042,33916,68.687,0.178,36.607403,-82.1467
10405,"Broadway--Timberville, VA Urban Area","Broadway, VA",51165,7280,3165,3.599,0.029,38.615845,-78.789572
10418,"Brockport, NY Urban Area","Brockport, NY",36055,12456,5167,6.424,0.054,43.21835,-77.935981
10567,"Brookfield, MO Urban Area","Brookfield, MO",29115,3869,2113,3.213,0.009,39.783508,-93.076913
10594,"Brookhaven, MS Urban Area","Brookhaven, MS",28085,10404,5046,10.035,0.023,31.586126,-90.445631
10621,"Brookings, OR Urban Area","Brookings, OR",41015,11707,5956,7.15,0.127,42.053122,-124.273328
10648,"Brookings, SD Urban Area","Brookings, SD",46011,23983,9972,11.098,0.0,44.301369,-96.786554
10729,"Brooksville, FL Urban Area","Brooksville, FL",12053,12449,6879,8.351,0.099,28.554493,-82.389931
10783,"Brookville, OH Urban Area","Brookville, OH",39113,6379,2741,4.076,0.0,39.840459,-84.413995
10810,"Brookville, PA Urban Area","Brookville, PA",42065,4380,2117,3.64,0.082,41.16113,-79.078754
10837,"Brownfield, TX Urban Area","Brownfield, TX",48445,8084,3585,4.357,0.012,33.177597,-102.272499
10891,"Browns Mills, NJ Urban Area","Browns Mills, NJ",34005,28636,9399,17.328,0.569,40.029203,-74.615661
10945,"Brownsville, TN Urban Area","Brownsville, TN",47075,9357,4261,7.387,0.0,35.595303,-89.257588
10972,"Brownsville, TX Urban Area","Brownsville, TX",48061,220273,73810,62.102,2.418,25.955911,-97.476682
10999,"Brownwood, TX Urban Area","Brownwood, TX",48049,21494,9586,13.539,0.0,31.706538,-98.974376
11026,"Brunswick--St. Simons, GA Urban Area","Brunswick, GA",13127,71623,35188,59.007,1.335,31.202499,-81.494876
11040,"Brunswick, ME Urban Area","Brunswick, ME",23005,32461,15071,26.757,1.548,43.915736,-69.91062
11053,"Brunswick, MD Urban Area","Brunswick, MD",24021,8434,3482,3.64,0.002,39.320089,-77.622161
11080,"Brush, CO Urban Area","Brush, CO",08087,5595,2201,2.52,0.0,40.257329,-103.63035
11107,"Bryan, OH Urban Area","Bryan, OH",39171,9193,4490,5.076,0.007,41.470289,-84.547443
11127,"Buchanan, MI Urban Area","Buchanan, MI",26021,5514,2594,4.151,0.053,41.828632,-86.35307
11134,"Buckeye, AZ Urban Area","Buckeye, AZ",04013,23994,7788,7.782,0.0,33.385281,-112.582651
11139,"Buckeye North, AZ Urban Area","Buckeye North, AZ",04013,8416,4259,2.81,0.0,33.671695,-112.623036
11161,"Buckhannon, WV Urban Area","Buckhannon, WV",54097,8168,3525,6.511,0.0,38.981818,-80.228055
11215,"Bucyrus, OH Urban Area","Bucyrus, OH",39033,11784,5590,6.856,0.0,40.803787,-82.97168
11235,"Buellton, CA Urban Area","Buellton, CA",06083,5090,2230,1.593,0.001,34.615497,-120.194237
11242,"Buena Vista, CO Urban Area","Buena Vista, CO",08015,5016,1916,5.138,0.034,38.831576,-106.132975
11269,"Buena Vista, VA Urban Area","Buena Vista, VA",51530,6515,2863,4.046,0.001,37.736015,-79.352678
11296,"Buffalo, MN Urban Area","Buffalo, MN",27171,16668,6589,8.181,1.21,45.183812,-93.8544
11350,"Buffalo, NY Urban Area","Buffalo, NY",36029,945285,443690,340.502,3.067,42.931099,-78.81206
11377,"Buffalo, WY Urban Area","Buffalo, WY",56019,4921,2490,3.283,0.0,44.352445,-106.699723
11420,"Buies Creek--Lillington, NC Urban Area","Buies Creek, NC",37085,7499,2742,7.141,0.043,35.398037,-78.815763
11431,"Bullhead City, AZ--NV Urban Area","Bullhead City, AZ",04015,54271,30074,35.394,0.559,35.134325,-114.533998
11593,"Burkburnett, TX Urban Area","Burkburnett, TX",48485,10865,4822,6.482,0.0,34.083138,-98.568509
11620,"Burley, ID Urban Area","Burley, ID",16031,18224,6575,9.546,0.695,42.549818,-113.779147
11674,"Burlington, IA--IL Urban Area","Burlington, IA",19057,27959,14416,21.116,0.087,40.80986,-91.153426
11728,"Burlington, NC Urban Area","Burlington, NC",37001,149283,64203,92.018,0.792,36.076328,-79.418004
11755,"Burlington, VT Urban Area","Burlington, VT",50007,119429,52716,62.014,0.996,44.470147,-73.152262
11782,"Burlington, WI Urban Area","Burlington, WI",55101,23445,10590,12.709,1.233,42.704405,-88.251596
11809,"Burnet, TX Urban Area","Burnet, TX",48053,5486,2272,3.571,0.021,30.763227,-98.22729
11863,"Burns, OR Urban Area","Burns, OR",41025,4168,2041,3.019,0.0,43.588459,-119.053909
11872,"Burnt Store Marina, FL Urban Area","Burnt Store Marina, FL",12015,4279,3352,4.265,0.319,26.778028,-82.041061
11890,"Bushnell, FL Urban Area","Bushnell, FL",12119,4463,2128,2.823,0.0,28.667913,-82.116845
11998,"Butler, PA Urban Area","Butler, PA",42019,38512,19142,28.463,0.147,40.863328,-79.924443
12052,"Butte-Silver Bow, MT Urban Area","Butte, MT",30093,30559,15172,15.287,0.0,45.983808,-112.517161
12079,"Byron, IL Urban Area","Byron, IL",17141,5461,2230,3.323,0.26,42.129933,-89.26148
12106,"Byron, MN Urban Area","Byron, MN",27109,6548,2478,3.087,0.0,44.037088,-92.640263
12160,"Cadillac, MI Urban Area","Cadillac, MI",26165,12953,6480,10.862,1.945,44.251175,-85.419953
12241,"Cairo, GA Urban Area","Cairo, GA",13131,10287,4283,8.013,0.089,30.876065,-84.204737
12430,"Calexico, CA Urban Area","Calexico, CA",06025,38032,11660,5.41,0.0,32.680886,-115.493918
12457,"Calhoun, GA Urban Area","Calhoun, GA",13129,23564,9368,20.391,0.055,34.496892,-84.936553
12538,"California--Brownsville, PA Urban Area","California, PA",42125,10537,4663,6.05,0.492,40.023431,-79.89826
12646,"Calistoga, CA Urban Area","Calistoga, CA",06055,5159,2275,2.287,0.018,38.582774,-122.583825
12655,"Calumet, MI Urban Area","Calumet, MI",26061,4761,2923,2.484,0.014,47.241358,-88.449228
12754,"Camarillo, CA Urban Area","Camarillo, CA",06111,76140,29874,22.479,0.017,34.22539,-119.037376
12781,"Cambria, CA Urban Area","Cambria, CA",06079,5842,4034,2.735,0.0,35.558909,-121.090462
12808,"Cambridge, MD Urban Area","Cambridge, MD",24019,14852,7404,8.651,0.14,38.559952,-76.066543
12835,"Cambridge, MN Urban Area","Cambridge, MN",27059,10510,4586,5.941,0.228,45.561011,-93.220892
12862,"Cambridge, OH Urban Area","Cambridge, OH",39059,14254,7323,10.976,0.05,40.004374,-81.580224
12916,"Camden, AR Urban Area","Camden, AR",05103,9473,5077,11.05,0.0,33.585707,-92.856741
12943,"Camden, ME Urban Area","Camden, ME",23013,4697,2886,4.067,0.119,44.208087,-69.076502
13010,"Camden--Lugoff, SC Urban Area","Camden, SC",45055,31941,13870,34.638,0.257,34.223534,-80.684964
13024,"Camdenton, MO Urban Area","Camdenton, MO",29029,5456,3273,8.87,0.0,38.004673,-92.775267
13051,"Cameron, MO Urban Area","Cameron, MO",29049,8692,3188,4.507,0.033,39.743908,-94.237341
13078,"Cameron, TX Urban Area","Cameron, TX",48331,5184,1841,3.502,0.0,30.858984,-96.976909
13132,"Camilla, GA Urban Area","Camilla, GA",13205,5209,2445,4.744,0.013,31.227906,-84.207175
13159,"Campbellsville, KY Urban Area","Campbellsville, KY",21217,12986,5812,8.491,0.119,37.352554,-85.346495
13170,"Camp Verde, AZ Urban Area","Camp Verde, AZ",04025,5853,2513,5.202,0.0,34.606694,-111.887004
13186,"Canajoharie--Fort Plain, NY Urban Area","Canajoharie, NY",36057,5414,2851,4.019,0.145,42.89908,-74.567869
13213,"Canandaigua, NY Urban Area","Canandaigua, NY",36069,18455,9854,13.071,0.041,42.871921,-77.286733
13217,"Canastota, NY Urban Area","Canastota, NY",36053,5661,2708,3.766,0.005,43.076486,-75.741235
13221,"Canby, OR Urban Area","Canby, OR",41005,18601,7224,5.898,0.002,45.268531,-122.686316
13267,"Cañon City, CO Urban Area","Cañon City, CO",08043,24566,11418,15.919,0.012,38.441886,-105.220899
13294,"Canton, IL Urban Area","Canton, IL",17057,13047,6019,5.423,0.0,40.562606,-90.033003
13321,"Canton, MS Urban Area","Canton, MS",28089,25467,11194,23.707,1.547,32.538591,-90.12816
13348,"Canton, NY Urban Area","Canton, NY",36089,6809,2098,2.218,0.092,44.596942,-75.167841
13361,"Canton, NC Urban Area","Canton, NC",37087,9211,4221,8.872,0.006,35.53074,-82.846398
13375,"Canton, OH Urban Area","Canton, OH",39151,294453,133857,180.194,1.251,40.844054,-81.42373
13456,"Canyon, TX Urban Area","Canyon, TX",48381,17064,6614,7.324,0.026,34.993015,-101.923302
13483,"Canyon Lake, TX Urban Area","Canyon Lake, TX",48091,8215,4427,9.235,0.015,29.864483,-98.277394
13510,"Cape Coral, FL Urban Area","Cape Coral, FL",12071,628103,328809,331.801,39.273,26.607991,-81.853564
13537,"Cape Girardeau, MO--IL Urban Area","Cape Girardeau, MO",29031,56340,25193,31.217,0.047,37.337865,-89.58556
13564,"Carbondale, CO Urban Area","Carbondale, CO",08045,8214,3595,2.638,0.0,39.400993,-107.220099
13591,"Carbondale, IL Urban Area","Carbondale, IL",17077,31082,17733,21.665,0.496,37.743258,-89.256334
13699,"Carlinville, IL Urban Area","Carlinville, IL",17117,5662,2418,2.987,0.0,39.279489,-89.880348
13807,"Carlsbad, NM Urban Area","Carlsbad, NM",35015,33241,15273,19.475,0.254,32.40079,-104.241012
13861,"Carmi, IL Urban Area","Carmi, IL",17193,5158,2609,2.647,0.02,38.086462,-88.17157
13915,"Caro, MI Urban Area","Caro, MI",26157,5438,2642,4.543,0.0,43.495467,-83.390196
13969,"Carrizo Springs, TX Urban Area","Carrizo Springs, TX",48127,6404,2742,4.237,0.013,28.525366,-99.85476
13996,"Carroll, IA Urban Area","Carroll, IA",19027,10156,4761,4.967,0.0,42.068219,-94.865401
14023,"Carrollton, GA Urban Area","Carrollton, GA",13045,38288,14720,34.417,0.623,33.5888,-85.063237
14050,"Carrollton, KY Urban Area","Carrollton, KY",21041,5596,2316,3.516,0.024,38.679621,-85.165764
14158,"Carson City, NV Urban Area","Carson City, NV",32510,60931,26886,26.185,0.065,39.15537,-119.754
14185,"Cartersville, GA Urban Area","Cartersville, GA",13015,52844,21845,44.422,0.035,34.202636,-84.817404
14266,"Carthage, MO Urban Area","Carthage, MO",29097,16245,6488,8.584,0.0,37.166033,-94.320261
14293,"Carthage, NY Urban Area","Carthage, NY",36045,5448,2712,2.479,0.001,43.982927,-75.617382
14347,"Carthage, TX Urban Area","Carthage, TX",48365,6430,3100,7.46,0.006,32.157382,-94.344165
14374,"Caruthersville, MO Urban Area","Caruthersville, MO",29155,5130,2523,3.25,0.001,36.184098,-89.665647
14401,"Casa Grande, AZ Urban Area","Casa Grande, AZ",04021,53442,23143,21.465,0.0,32.901888,-111.738048
14482,"Casper, WY Urban Area","Casper, WY",56025,67353,31438,27.878,0.331,42.839148,-106.336707
14563,"Castle Rock, CO Urban Area","Castle Rock, CO",08035,89887,33060,35.706,0.006,39.39969,-104.865046
14600,"Castroville--Prunedale, CA Urban Area","Castroville, CA",06053,12265,3052,3.38,0.086,36.77401,-121.734989
14644,"Catskill, NY Urban Area","Catskill, NY",36039,6961,3616,6.422,0.087,42.212825,-73.869612
14698,"Cedar City, UT Urban Area","Cedar City, UT",49021,42302,14645,18.298,0.0,37.702494,-113.071088
14752,"Cedar Rapids, IA Urban Area","Cedar Rapids, IA",19113,193245,87281,86.03,0.941,41.989546,-91.666429
14806,"Cedartown, GA Urban Area","Cedartown, GA",13233,12624,4967,9.57,0.029,34.016565,-85.249558
14860,"Celina, OH Urban Area","Celina, OH",39107,12334,5638,6.087,0.07,40.553346,-84.557344
14887,"Center, TX Urban Area","Center, TX",48419,4963,2124,6.782,0.007,31.790405,-94.175234
14914,"Centerville, IA Urban Area","Centerville, IA",19007,5319,2896,3.48,0.027,40.729839,-92.872033
14960,"Central City, KY Urban Area","Central City, KY",21177,5513,2111,4.279,0.003,37.292742,-87.123554
15022,"Centralia, IL Urban Area","Centralia, IL",17121,15120,7348,9.813,0.023,38.526066,-89.129354
15076,"Centralia, WA Urban Area","Centralia, WA",53041,42842,17078,30.389,0.313,46.727959,-122.980673
15130,"Chadron, NE Urban Area","Chadron, NE",31045,5051,2336,2.305,0.0,42.827686,-103.00432
15184,"Chambersburg, PA Urban Area","Chambersburg, PA",42055,51609,22603,34.675,0.009,39.942614,-77.631496
15211,"Champaign, IL Urban Area","Champaign, IL",17019,147544,69951,46.524,0.377,40.106338,-88.247566
15265,"Chanute, KS Urban Area","Chanute, KS",20133,8586,4079,5.798,0.011,37.674203,-95.462214
15300,"Chapin, SC Urban Area","Chapin, SC",45063,5351,1961,6.323,0.01,34.148431,-81.33806
15319,"Chardon, OH Urban Area","Chardon, OH",39055,6679,2739,5.224,0.019,41.579289,-81.20906
15373,"Charles City, IA Urban Area","Charles City, IA",19067,7378,3638,4.083,0.069,43.062058,-92.671271
15400,"Charleston, IL Urban Area","Charleston, IL",17029,17209,8388,7.753,0.0,39.484983,-88.176072
15481,"Charleston, WV Urban Area","Charleston, WV",54039,139049,71000,92.922,7.965,38.355031,-81.665738
15508,"Charleston, SC Urban Area","Charleston, SC",45019,696066,312690,339.063,6.96,32.915567,-80.023707
15535,"Charlestown, IN Urban Area","Charlestown, IN",18019,6064,2706,4.026,0.014,38.445253,-85.665576
15589,"Charlestown, RI Urban Area","Charlestown, RI",44009,4104,3434,6.321,1.27,41.383205,-71.623481
15616,"Charlevoix, MI Urban Area","Charlevoix, MI",26029,3994,3044,4.046,0.123,45.319086,-85.252013
15643,"Charlotte, MI Urban Area","Charlotte, MI",26045,12825,5413,8.439,0.171,42.581265,-84.80822
15670,"Charlotte, NC--SC Urban Area","Charlotte, NC",37119,1402072,591559,657.614,10.298,35.227536,-80.806559
15724,"Charlottesville, VA Urban Area","Charlottesville, VA",51003,105440,46781,36.873,0.296,38.046619,-78.473218
15778,"Chatsworth, GA Urban Area","Chatsworth, GA",13213,12435,5027,16.113,0.009,34.77473,-84.793341
15832,"Chattanooga, TN--GA Urban Area","Chattanooga, TN",47065,400841,180299,291.703,2.254,35.051719,-85.20525
15859,"Cheboygan, MI Urban Area","Cheboygan, MI",26031,5006,3055,6.028,0.075,45.650289,-84.486032
15913,"Chelan, WA Urban Area","Chelan, WA",53007,6402,5095,7.542,0.044,47.859489,-120.052972
15940,"Chelsea, MI Urban Area","Chelsea, MI",26161,5682,2928,3.547,0.051,42.311392,-84.019416
15967,"Cheney, WA Urban Area","Cheney, WA",53063,12830,5051,3.298,0.0,47.491132,-117.582017
15994,"Cheraw, SC Urban Area","Cheraw, SC",45025,6923,3439,7.351,0.049,34.697894,-79.913969
16021,"Cherokee, IA Urban Area","Cherokee, IA",19035,4463,2167,3.138,0.0,42.751561,-95.551165
16075,"Cherryville, NC Urban Area","Cherryville, NC",37071,6532,2909,6.176,0.012,35.385313,-81.37485
16102,"Chesapeake Beach, MD Urban Area","Chesapeake Beach, MD",24009,18603,7229,13.091,0.162,38.708037,-76.561584
16156,"Chester, IL Urban Area","Chester, IL",17157,6067,2262,3.962,0.012,37.916573,-89.815476
16171,"Chester, NY Urban Area","Chester, NY",36071,5594,2301,4.572,0.008,41.362707,-74.278079
16183,"Chester, SC Urban Area","Chester, SC",45023,9325,4548,6.291,0.01,34.711291,-81.2075
16210,"Chestertown, MD Urban Area","Chestertown, MD",24029,7559,3394,4.42,0.022,39.216279,-76.064733
16237,"Cheyenne, WY Urban Area","Cheyenne, WY",56021,79634,36894,33.875,0.088,41.139752,-104.800984
16264,"Chicago, IL--IN Urban Area","Chicago, IL",17031,8581492,3574503,2337.885,38.95,41.83041,-87.908669
16291,"Chickasha, OK Urban Area","Chickasha, OK",40051,15890,7572,9.75,0.048,35.033206,-97.94895
16318,"Chico, CA Urban Area","Chico, CA",06007,109599,48902,33.715,0.056,39.755529,-121.840979
16372,"Childress, TX Urban Area","Childress, TX",48075,4616,2388,3.222,0.014,34.426735,-100.212909
16426,"Chillicothe, MO Urban Area","Chillicothe, MO",29117,9129,3990,5.981,0.027,39.796077,-93.550625
16453,"Chillicothe, OH Urban Area","Chillicothe, OH",39141,31779,13168,16.394,0.15,39.346103,-83.004712
16507,"Chincoteague, VA Urban Area","Chincoteague, VA",51001,3074,4239,4.059,0.127,37.928393,-75.3698
16561,"Chino Valley, AZ Urban Area","Chino Valley, AZ",04025,13801,5809,13.721,0.0,34.766794,-112.467831
16615,"Chisholm, MN Urban Area","Chisholm, MN",27137,4523,1947,2.182,0.027,47.491774,-92.886258
16642,"Chittenango, NY Urban Area","Chittenango, NY",36053,5339,2327,2.163,0.002,43.051133,-75.882413
16696,"Chowchilla, CA Urban Area","Chowchilla, CA",06039,13530,4284,4.825,0.046,37.112593,-120.246854
16804,"Ciales, PR Urban Area","Ciales, PR",72039,11678,5597,11.577,0.013,18.363865,-66.464689
16830,"Cienega Springs, AZ Urban Area","Cienega Springs, AZ",04012,2075,2998,3.2,0.0,34.272925,-114.132176
16885,"Cincinnati, OH--KY Urban Area","Cincinnati, OH",39061,1691566,734390,752.275,8.569,39.1808,-84.460584
16912,"Circleville, OH Urban Area","Circleville, OH",39129,16209,7028,7.376,0.008,39.605129,-82.937356
17047,"Clanton, AL Urban Area","Clanton, AL",01021,6518,2800,9.058,0.055,32.840635,-86.626172
17101,"Claremont, NH Urban Area","Claremont, NH",33019,10207,4452,5.982,0.02,43.372083,-72.349186
17128,"Claremore, OK Urban Area","Claremore, OK",40131,25859,10806,15.431,0.001,36.281468,-95.635473
17155,"Clarinda, IA Urban Area","Clarinda, IA",19145,5194,2207,2.358,0.0,40.738013,-95.038909
17209,"Clarion, PA Urban Area","Clarion, PA",42031,5914,2823,3.373,0.016,41.191124,-79.379227
17236,"Clarksburg, WV Urban Area","Clarksburg, WV",54033,33202,16269,21.22,0.07,39.269981,-80.339285
17263,"Clarksdale, MS Urban Area","Clarksdale, MS",28027,13952,6914,7.415,0.006,34.200292,-90.5738
17290,"Clarksville, AR Urban Area","Clarksville, AR",05071,8039,3563,7.793,0.046,35.46818,-93.46929
17317,"Clarksville, TN--KY Urban Area","Clarksville, TN",47125,209135,81935,113.088,0.06,36.576674,-87.345509
17398,"Clay Center, KS Urban Area","Clay Center, KS",20027,4148,1982,2.516,0.002,39.380073,-97.12396
17424,"Clayton, NY Urban Area","Clayton, NY",36045,2176,2150,2.747,0.509,44.252919,-76.04411
17426,"Clayton, NC Urban Area","Clayton, NC",37101,55072,21284,36.262,0.16,35.627776,-78.371556
17452,"Clearfield, PA Urban Area","Clearfield, PA",42033,10555,5092,7.074,0.113,41.017514,-78.438359
17479,"Clearlake, CA Urban Area","Clearlake, CA",06033,17145,8022,8.133,0.068,38.953939,-122.634103
17506,"Clear Lake, IA Urban Area","Clear Lake, IA",19033,8156,5363,8.624,0.029,43.140539,-93.381039
17514,"Clearlake Riviera, CA Urban Area","Clearlake Riviera, CA",06033,6069,3529,6.725,0.041,38.97643,-122.741462
17533,"Cleburne, TX Urban Area","Cleburne, TX",48251,46867,17656,24.511,0.131,32.348358,-97.407671
17560,"Cle Elum, WA Urban Area","Cle Elum, WA",53037,3876,2461,4.527,0.0,47.203671,-120.959209
17641,"Cleveland, MS Urban Area","Cleveland, MS",28011,14264,6353,8.233,0.0,33.742266,-90.725248
17668,"Cleveland, OH Urban Area","Cleveland, OH",39035,1698197,809971,713.808,4.606,41.445919,-81.601542
17722,"Cleveland, TN Urban Area","Cleveland, TN",47011,73254,30494,54.974,0.044,35.172224,-84.860494
17749,"Cleveland, TX Urban Area","Cleveland, TX",48291,7539,2721,4.541,0.0,30.344194,-95.080493
17776,"Clewiston, FL Urban Area","Clewiston, FL",12051,12884,4867,5.549,0.15,26.7454,-80.930874
17857,"Clifton Forge, VA Urban Area","Clifton Forge, VA",51005,4663,2492,4.498,0.088,37.81442,-79.817825
17870,"Clifton Springs, NY Urban Area","Clifton Springs, NY",36069,6581,2819,4.198,0.0,42.972959,-77.230209
17884,"Clinton, IL Urban Area","Clinton, IL",17039,7433,3686,3.646,0.0,40.148895,-88.963084
17911,"Clinton, IN Urban Area","Clinton, IN",18165,6501,3108,3.134,0.0,39.665195,-87.408832
17938,"Clinton--Fulton, IA--IL Urban Area","Clinton, IA",19045,31039,15509,19.11,1.278,41.843215,-90.211242
17965,"Clinton, MO Urban Area","Clinton, MO",29083,8398,4216,6.052,0.072,38.369825,-93.76656
17980,"Clinton, NJ Urban Area","Clinton, NJ",34019,15710,6082,10.465,0.098,40.634337,-74.895866
17992,"Clinton, NC Urban Area","Clinton, NC",37163,9569,3863,9.09,0.056,35.004757,-78.3289
18019,"Clinton, OK Urban Area","Clinton, OK",40039,7889,3758,4.342,0.0,35.506291,-98.976762
18046,"Clinton, SC Urban Area","Clinton, SC",45059,8613,3860,8.463,0.016,34.463144,-81.877282
18100,"Clintonville, WI Urban Area","Clintonville, WI",55135,4517,2286,2.672,0.094,44.624152,-88.760202
18127,"Cloquet, MN Urban Area","Cloquet, MN",27017,13259,5873,9.428,0.195,46.704086,-92.434241
18154,"Clover, SC Urban Area","Clover, SC",45091,7445,2938,5.186,0.011,35.108517,-81.221617
18181,"Cloverdale, CA Urban Area","Cloverdale, CA",06097,9280,3688,3.372,0.0,38.80235,-123.016554
18208,"Clovis, NM Urban Area","Clovis, NM",35009,39213,17343,16.064,0.067,34.412949,-103.200891
18235,"Clyde, OH Urban Area","Clyde, OH",39143,6570,2906,4.796,0.052,41.303585,-82.979425
18270,"Coal City--Braidwood, IL Urban Area","Coal City, IL",17197,15954,6807,10.288,0.193,41.279088,-88.221819
18289,"Coalinga, CA Urban Area","Coalinga, CA",06019,13013,4382,4.262,0.008,36.146333,-120.355187
18316,"Coamo, PR Urban Area","Coamo, PR",72043,32371,13999,16.261,0.011,18.062787,-66.378968
18343,"Cobleskill, NY Urban Area","Cobleskill, NY",36095,5605,2296,4.33,0.004,42.675387,-74.492367
18370,"Cochran, GA Urban Area","Cochran, GA",13023,6271,2481,5.453,0.113,32.390237,-83.346609
18397,"Cody, WY Urban Area","Cody, WY",56029,10391,5154,6.909,0.012,44.524696,-109.050212
18451,"Coeur d'Alene, ID Urban Area","Coeur d'Alene, ID",16055,127006,53247,46.756,0.774,47.764472,-116.794297
18478,"Coffeyville, KS--OK Urban Area","Coffeyville, KS",20125,9372,4810,7.44,0.0,37.033969,-95.628824
18532,"Colby, KS Urban Area","Colby, KS",20193,5254,2398,2.964,0.0,39.386925,-101.047313
18559,"Colchester, CT Urban Area","Colchester, CT",09011,5486,2743,5.04,0.013,41.571299,-72.339558
18586,"Cold Spring, MN Urban Area","Cold Spring, MN",27145,5230,2228,3.211,0.0,45.452442,-94.419274
18640,"Cold Springs, NV Urban Area","Cold Springs, NV",32031,10713,3653,3.469,0.0,39.678143,-119.976003
18667,"Coldwater, MI Urban Area","Coldwater, MI",26023,13643,5435,10.698,0.298,41.938889,-85.006418
18694,"Coleman, TX Urban Area","Coleman, TX",48083,3727,1979,2.788,0.0,31.825408,-99.425807
18748,"College Station--Bryan, TX Urban Area","College Station, TX",48041,209306,87857,81.626,0.069,30.623812,-96.334205
18755,"Collins, NY Urban Area","Collins, NY",36029,4391,1805,2.338,0.016,42.47001,-78.933977
18760,"Collinsville, OK Urban Area","Collinsville, OK",40143,4938,2196,3.433,0.018,36.367205,-95.845152
18775,"Colonial Beach, VA Urban Area","Colonial Beach, VA",51193,3979,2601,1.729,0.011,38.257667,-76.971638
18829,"Colorado City, TX Urban Area","Colorado City, TX",48335,4766,1329,2.785,0.0,32.397109,-100.860451
18856,"Colorado Springs, CO Urban Area","Colorado Springs, CO",08041,635307,261419,200.363,0.405,38.872952,-104.770643
18883,"Columbia, KY Urban Area","Columbia, KY",21001,4869,1869,3.382,0.038,37.101967,-85.299243
18910,"Columbia, MS Urban Area","Columbia, MS",28091,6391,2743,6.298,0.024,31.255252,-89.819681
18937,"Columbia, MO Urban Area","Columbia, MO",29019,141888,62043,67.198,0.274,38.943303,-92.329522
18964,"Columbia, SC Urban Area","Columbia, SC",45079,598785,262722,367.496,7.042,34.027752,-81.08818
18991,"Columbia, TN Urban Area","Columbia, TN",47119,42983,19374,30.146,0.01,35.605029,-87.080518
19018,"Columbia City, IN Urban Area","Columbia City, IN",18183,10295,4791,6.035,0.019,41.158291,-85.477519
19045,"Columbia Falls, MT Urban Area","Columbia Falls, MT",30029,6383,2994,4.251,0.001,48.374919,-114.190919
19072,"Columbiana, OH Urban Area","Columbiana, OH",39029,9815,4966,6.981,0.07,40.889943,-80.702721
19099,"Columbus, GA--AL Urban Area","Columbus, GA",13215,265022,117925,142.857,0.868,32.489714,-84.974032
19126,"Columbus, IN Urban Area","Columbus, IN",18005,61711,27314,27.861,0.324,39.239026,-85.922884
19180,"Columbus, MS Urban Area","Columbus, MS",28087,27196,13546,20.082,0.279,33.515209,-88.402626
19207,"Columbus, NE Urban Area","Columbus, NE",31141,25449,10727,13.483,0.216,41.435991,-97.342792
19234,"Columbus, OH Urban Area","Columbus, OH",39049,1569697,682396,516.16,7.862,40.020469,-82.970803
19288,"Columbus, WI Urban Area","Columbus, WI",55021,6863,3072,4.08,0.036,43.343754,-89.028269
19342,"Colusa, CA Urban Area","Colusa, CA",06011,6934,2664,2.965,0.0,39.200523,-122.008272
19369,"Colville, WA Urban Area","Colville, WA",53065,5029,2442,3.226,0.0,48.544754,-117.898377
19450,"Commerce, GA Urban Area","Commerce, GA",13157,7935,2791,10.334,0.036,34.218313,-83.464338
19477,"Commerce, TX Urban Area","Commerce, TX",48231,8718,3177,3.342,0.022,33.244147,-95.901586
19504,"Concord--Walnut Creek, CA Urban Area","Concord, CA",06013,535481,210203,175.763,0.653,37.889913,-122.034764
19531,"Concord, NH Urban Area","Concord, NH",33013,43272,18850,26.648,0.781,43.264226,-71.581064
19558,"Concord, NC Urban Area","Concord, NC",37025,287086,116869,200.057,0.513,35.470793,-80.596786
19585,"Concordia, KS Urban Area","Concordia, KS",20029,5025,2536,3.125,0.0,39.565155,-97.655458
19597,"Conesus Lake, NY Urban Area","Conesus Lake, NY",36051,4683,2987,4.787,5.05,42.802756,-77.700919
19612,"Conneaut, OH Urban Area","Conneaut, OH",39007,11731,5261,8.278,0.017,41.938956,-80.587327
19639,"Conneaut Lakeshore, PA Urban Area","Conneaut Lakeshore, PA",42039,2195,2250,3.768,1.487,41.620949,-80.2964
19666,"Connell, WA Urban Area","Connell, WA",53021,5098,1196,2.176,0.0,46.66276,-118.862263
19686,"Connellsville, PA Urban Area","Connellsville, PA",42051,30349,15167,20.603,0.067,40.087289,-79.568722
19693,"Connersville, IN Urban Area","Connersville, IN",18041,14392,6863,7.452,0.015,39.65511,-85.136364
19801,"Conway, AR Urban Area","Conway, AR",05045,68307,29626,32.88,0.278,35.068797,-92.447413
19811,"Conway, NH Urban Area","Conway, NH",33003,6090,4402,8.759,0.291,44.035719,-71.117232
19828,"Cookeville, TN Urban Area","Cookeville, TN",47141,51193,22536,45.461,0.095,36.164149,-85.510318
19862,"Coolbaugh--Pocono Pines, PA Urban Area","Coolbaugh, PA",42089,24775,13178,19.742,0.853,41.136177,-75.399832
19882,"Coolidge, AZ Urban Area","Coolidge, AZ",04021,13004,4675,4.139,0.008,32.977854,-111.527291
19936,"Coos Bay, OR Urban Area","Coos Bay, OR",41011,30859,14450,14.627,0.922,43.381129,-124.242771
19970,"Coquí--Jobos, PR Urban Area","Coquí, PR",72057,12588,5779,4.443,0.005,17.97768,-66.220724
19990,"Coquille, OR Urban Area","Coquille, OR",41011,4323,2019,3.434,0.114,43.176394,-124.184232
20044,"Corcoran, CA Urban Area","Corcoran, CA",06031,22954,4798,6.287,0.0,36.085557,-119.562105
20071,"Cordele, GA Urban Area","Cordele, GA",13081,10935,5361,8.598,0.028,31.965338,-83.773823
20098,"Corinth, MS Urban Area","Corinth, MS",28003,12171,6649,12.8,0.015,34.930271,-88.512112
20125,"Corinth, NY Urban Area","Corinth, NY",36113,3771,2309,2.96,0.161,43.240864,-73.83371
20152,"Cornelia--Baldwin, GA Urban Area","Cornelia, GA",13137,19211,6860,19.566,0.095,34.529832,-83.536151
20206,"Corning, CA Urban Area","Corning, CA",06103,8366,2816,3.047,0.0,39.924565,-122.185733
20233,"Corning, NY Urban Area","Corning, NY",36101,20085,10266,10.78,0.207,42.16986,-77.12003
20247,"Corona de Tucson, AZ Urban Area","Corona de Tucson, AZ",04019,7512,2555,3.432,0.0,31.944623,-110.77761
20287,"Corpus Christi, TX Urban Area","Corpus Christi, TX",48355,339512,143810,129.274,1.431,27.749359,-97.417229
20314,"Corry, PA Urban Area","Corry, PA",42049,5894,3152,4.162,0.001,41.926474,-79.628929
20341,"Corsicana, TX Urban Area","Corsicana, TX",48349,24434,9511,15.522,0.134,32.089989,-96.470025
20368,"Cortez, CO Urban Area","Cortez, CO",08083,8328,3785,4.248,0.027,37.35292,-108.573847
20395,"Cortland, NY Urban Area","Cortland, NY",36023,24252,10776,10.344,0.047,42.600283,-76.191401
20422,"Corvallis, OR Urban Area","Corvallis, OR",41003,67102,28922,17.453,0.047,44.567815,-123.292341
20442,"Corydon, IN Urban Area","Corydon, IN",18061,5829,2914,3.589,0.0,38.224839,-86.131514
20476,"Coshocton, OH Urban Area","Coshocton, OH",39031,12366,5769,7.81,0.06,40.263665,-81.85002
20503,"Cottage Grove, OR Urban Area","Cottage Grove, OR",41039,11706,4931,5.248,0.068,43.790043,-123.055552
20595,"Cottonwood (Yavapai County)--Verde Village, AZ Urban Area","Cottonwood (Yavapai County), AZ",04025,30595,15227,16.906,0.0,34.729118,-112.016803
20719,"Covington, TN Urban Area","Covington, TN",47167,7670,3386,5.998,0.0,35.569225,-89.647845
20746,"Covington, VA Urban Area","Covington, VA",51580,7758,4015,7.327,0.23,37.780677,-79.983041
20773,"Coxsackie, NY Urban Area","Coxsackie, NY",36039,4978,1473,3.763,0.014,42.353344,-73.820934
20827,"Craig, CO Urban Area","Craig, CO",08081,9600,4508,5.501,0.0,40.517095,-107.557206
20881,"Crawfordsville, IN Urban Area","Crawfordsville, IN",18107,17508,7721,9.771,0.03,40.041143,-86.903643
20890,"Crawfordville, FL Urban Area","Crawfordville, FL",12129,10756,4165,9.719,0.0,30.189998,-84.355266
20899,"Creedmoor, NC Urban Area","Creedmoor, NC",37077,7288,3163,6.791,0.033,36.124252,-78.702111
20908,"Crescent City, CA Urban Area","Crescent City, CA",06015,15752,6685,16.336,0.087,41.78645,-124.201626
20980,"Cresson, PA Urban Area","Cresson, PA",42021,6494,2995,3.881,0.0,40.467534,-78.576693
20985,"Crestline, OH Urban Area","Crestline, OH",39033,4530,2112,3.181,0.005,40.784932,-82.740578
20989,"Crestline--Lake Arrowhead, CA Urban Area","Crestline, CA",06071,20007,18169,16.851,1.343,34.250962,-117.228384
21016,"Creston, IA Urban Area","Creston, IA",19175,7447,3813,4.515,0.002,41.059112,-94.36358
21043,"Crestview, FL Urban Area","Crestview, FL",12091,46419,18091,39.844,0.694,30.767535,-86.560304
21070,"Creswell, OR Urban Area","Creswell, OR",41039,5819,2258,2.443,0.017,43.92394,-123.014252
21097,"Crete, NE Urban Area","Crete, NE",31151,7482,2604,2.603,0.031,40.624767,-96.956078
21151,"Crisfield, MD Urban Area","Crisfield, MD",24039,3365,1965,2.688,0.153,37.986601,-75.845759
21205,"Crockett, TX Urban Area","Crockett, TX",48225,6140,2835,6.56,0.0,31.313523,-95.453712
21232,"Crookston, MN Urban Area","Crookston, MN",27119,7567,3841,4.649,0.0,47.776408,-96.606622
21340,"Crossett, AR Urban Area","Crossett, AR",05003,7107,3794,9.01,0.182,33.140109,-91.956963
21394,"Crossville, TN Urban Area","Crossville, TN",47035,19012,9852,26.801,1.163,35.936478,-85.038234
21421,"Crowley, LA Urban Area","Crowley, LA",22001,12641,6599,7.085,0.007,30.213804,-92.376695
21448,"Crozet, VA Urban Area","Crozet, VA",51003,9259,3843,4.487,0.027,38.065113,-78.697295
21502,"Crystal City, TX Urban Area","Crystal City, TX",48507,6673,2668,3.542,0.004,28.688755,-99.826764
21529,"Crystal River, FL Urban Area","Crystal River, FL",12017,7611,4488,14.085,1.151,28.895754,-82.586197
21556,"Crystal Springs, MS Urban Area","Crystal Springs, MS",28029,4578,2135,3.956,0.01,31.984777,-90.356084
21610,"Cuero, TX Urban Area","Cuero, TX",48123,7096,2993,4.365,0.018,29.0928,-97.285992
21637,"Cullman, AL Urban Area","Cullman, AL",01043,22050,10071,21.491,0.176,34.16882,-86.842334
21664,"Cullowhee, NC Urban Area","Cullowhee, NC",37099,9318,3183,6.097,0.0,35.320004,-83.19196
21691,"Culpeper, VA Urban Area","Culpeper, VA",51047,22834,8127,9.371,0.025,38.472101,-78.001689
21745,"Cumberland, MD--WV--PA Urban Area","Cumberland, MD",24001,46019,21823,31.695,0.263,39.643168,-78.806255
21772,"Cushing, OK Urban Area","Cushing, OK",40119,7427,3632,9.312,0.012,35.961002,-96.757194
21853,"Cynthiana, KY Urban Area","Cynthiana, KY",21097,6479,2824,2.989,0.055,38.38556,-84.295239
21893,"Dade City, FL Urban Area","Dade City, FL",12101,21816,8116,14.397,0.376,28.353423,-82.207452
21934,"Dahlonega, GA Urban Area","Dahlonega, GA",13187,5868,1307,3.147,0.0,34.540295,-83.978409
21988,"Dalhart, TX Urban Area","Dalhart, TX",48111,7837,3300,3.499,0.002,36.059498,-102.513642
22015,"Dallas, OR Urban Area","Dallas, OR",41053,18053,7091,5.496,0.0,44.922399,-123.311383
22042,"Dallas--Fort Worth--Arlington, TX Urban Area","Dallas, TX",48113,5773403,2286716,1746.896,24.768,32.810975,-96.972981
22069,"Dalton, GA Urban Area","Dalton, GA",13313,66641,25562,57.489,0.077,34.779018,-84.975143
22096,"Danbury, CT--NY Urban Area","Danbury, CT",09001,169915,68698,118.489,6.018,41.449654,-73.423258
22177,"Dansville, NY Urban Area","Dansville, NY",36051,4626,2522,3.195,0.0,42.563946,-77.703175
22204,"Danville, IL Urban Area","Danville, IL",17183,39285,19033,27.794,0.862,40.130703,-87.62932
22231,"Danville, KY Urban Area","Danville, KY",21021,19825,8363,13.614,0.052,37.629298,-84.778352
22253,"Danville, VA--NC Urban Area","Danville, VA",51590,46704,24158,36.312,0.558,36.598752,-79.41411
22260,"Danville--Mahoning, PA Urban Area","Danville, PA",42093,9901,4825,5.212,0.017,40.962405,-76.600958
22366,"Davenport, IA--IL Urban Area","Davenport, IA",19163,284216,130646,134.859,7.604,41.523198,-90.51448
22420,"Davis, CA Urban Area","Davis, CA",06113,77419,30267,12.162,0.035,38.550686,-121.735394
22528,"Dayton, OH Urban Area","Dayton, OH",39113,672115,310228,319.892,2.625,39.732177,-84.176024
22555,"Dayton, TN Urban Area","Dayton, TN",47143,9135,4311,9.119,0.237,35.490032,-85.020285
22582,"Dayton, TX Urban Area","Dayton, TX",48291,6992,2842,5.407,0.0,30.042912,-94.894291
22612,"Daytona Beach--Palm Coast--Port Orange, FL Urban Area","Daytona Beach, FL",12127,413788,224641,212.359,12.204,29.27457,-81.086166
22616,"Dayton Northeast, NV Urban Area","Dayton Northeast, NV",32019,6648,2520,3.839,0.0,39.303689,-119.527558
22622,"Dayton Southwest, NV Urban Area","Dayton Southwest, NV",32019,7850,3190,4.498,0.001,39.254137,-119.561571
22690,"Decatur, AL Urban Area","Decatur, AL",01103,61581,26608,43.47,0.406,34.587541,-87.007257
22717,"Decatur, IL Urban Area","Decatur, IL",17115,85975,42258,55.107,2.933,39.844714,-88.934605
22744,"Decatur, IN Urban Area","Decatur, IN",18001,10329,4990,6.559,0.006,40.831679,-84.928689
22771,"Decatur, TX Urban Area","Decatur, TX",48497,6701,3074,6.198,0.0,33.228366,-97.591669
22798,"Decorah, IA Urban Area","Decorah, IA",19191,7738,3376,5.196,0.043,43.30391,-91.782758
22879,"Defiance, OH Urban Area","Defiance, OH",39039,17472,8154,12.369,0.535,41.285146,-84.35937
22933,"DeFuniak Springs, FL Urban Area","DeFuniak Springs, FL",12131,7458,3088,7.17,0.267,30.733743,-86.130341
22960,"DeKalb, IL Urban Area","DeKalb, IL",17037,65140,27699,25.632,0.242,41.948874,-88.723629
22987,"Delano, CA Urban Area","Delano, CA",06029,45849,12665,7.365,0.0,35.766201,-119.243036
22995,"Delano, MN Urban Area","Delano, MN",27171,6539,2502,3.093,0.0,45.037616,-93.787974
23041,"Delavan, WI Urban Area","Delavan, WI",55127,12170,7194,9.095,2.755,42.616512,-88.639722
23080,"Delhi, CA Urban Area","Delhi, CA",06047,10237,2754,2.34,0.0,37.428666,-120.779779
23176,"Delphos, OH Urban Area","Delphos, OH",39003,7201,3356,3.437,0.028,40.844657,-84.336129
23203,"Del Rio, TX Urban Area","Del Rio, TX",48465,43161,16298,18.808,0.083,29.370854,-100.876596
23230,"Delta, CO Urban Area","Delta, CO",08029,8424,3487,6.227,0.05,38.745424,-108.061934
23311,"Deltona, FL Urban Area","Deltona, FL",12127,217654,86519,108.983,4.857,28.989805,-81.259659
23338,"Deming, NM Urban Area","Deming, NM",35029,14820,6973,8.197,0.0,32.259968,-107.74299
23365,"Demopolis, AL Urban Area","Demopolis, AL",01091,5741,3216,4.549,0.032,32.505005,-87.831898
23419,"Denison, IA Urban Area","Denison, IA",19047,8005,3050,4.493,0.009,42.019313,-95.350061
23473,"Denton, MD Urban Area","Denton, MD",24011,5109,1840,3.266,0.036,38.879421,-75.824452
23500,"Denton--Lewisville, TX Urban Area","Denton, TX",48121,443487,170819,150.48,1.897,33.194971,-97.121054
23513,"Denton Southwest, TX Urban Area","Denton Southwest, TX",48121,15189,5985,7.062,0.025,33.107475,-97.235558
23527,"Denver--Aurora, CO Urban Area","Denver, CO",08059,2684170,1145976,644.541,11.326,39.732149,-104.959388
23608,"De Queen, AR Urban Area","De Queen, AR",05133,5970,2383,4.812,0.02,34.045369,-94.344746
23662,"DeRidder, LA Urban Area","DeRidder, LA",22011,11836,5643,14.528,0.087,30.86032,-93.301199
23716,"Desert Hot Springs, CA Urban Area","Desert Hot Springs, CA",06065,44471,19386,14.079,0.0,33.947753,-116.492531
23743,"Des Moines, IA Urban Area","Des Moines, IA",19153,550488,238739,224.743,2.79,41.620998,-93.665233
23797,"De Soto, MO Urban Area","De Soto, MO",29099,7746,3640,4.4,0.14,38.137337,-90.553847
23824,"Detroit, MI Urban Area","Detroit, MI",26125,3750464,1658714,1284.827,33.684,42.486581,-83.22742
23851,"Detroit Lakes, MN Urban Area","Detroit Lakes, MN",27005,10654,6038,9.202,9.93,46.782961,-95.842545
23878,"Devils Lake, ND Urban Area","Devils Lake, ND",38071,7367,3854,5.072,0.006,48.112591,-98.871116
23986,"DeWitt, IA Urban Area","DeWitt, IA",19045,4870,2005,4.004,0.0,41.820728,-90.539337
24008,"Dexter, MI Urban Area","Dexter, MI",26161,5462,2132,2.494,0.001,42.33548,-83.88877
24013,"Dexter, MO Urban Area","Dexter, MO",29207,9398,4371,7.744,0.094,36.792688,-89.973792
24040,"Diamondhead, MS Urban Area","Diamondhead, MS",28045,8956,4400,5.067,0.087,30.394333,-89.365506
24094,"Dickinson, ND Urban Area","Dickinson, ND",38089,25195,11874,12.258,0.077,46.892651,-102.788149
24121,"Dickson, TN Urban Area","Dickson, TN",47043,16183,6990,16.451,0.063,36.060236,-87.364102
24175,"Dillon, MT Urban Area","Dillon, MT",30001,4551,2134,2.747,0.0,45.226238,-112.632487
24202,"Dillon, SC Urban Area","Dillon, SC",45033,9040,4312,6.33,0.043,34.425884,-79.362661
24256,"Discovery Bay, CA Urban Area","Discovery Bay, CA",06013,15838,6335,4.202,1.112,37.905173,-121.606277
24283,"Dixon, CA Urban Area","Dixon, CA",06095,19071,6941,4.395,0.003,38.449389,-121.829238
24310,"Dixon, IL Urban Area","Dixon, IL",17103,16023,6794,7.817,0.385,41.841414,-89.480978
24337,"Dodge City, KS Urban Area","Dodge City, KS",20057,27623,9790,10.918,0.128,37.75868,-100.014881
24364,"Dodgeville, WI Urban Area","Dodgeville, WI",55049,4950,2488,3.255,0.0,42.965206,-90.130736
24391,"Donaldsonville, LA Urban Area","Donaldsonville, LA",22005,12267,5146,15.649,0.582,30.1091,-90.892665
24445,"Dos Palos, CA Urban Area","Dos Palos, CA",06047,8146,2599,2.293,0.0,36.975468,-120.633497
24472,"Dothan, AL Urban Area","Dothan, AL",01069,73964,34408,55.087,0.15,31.22612,-85.425301
24499,"Douglas, AZ Urban Area","Douglas, AZ",04003,15763,6394,5.481,0.0,31.351555,-109.542755
24526,"Douglas, GA Urban Area","Douglas, GA",13069,13842,6096,16.594,0.208,31.507796,-82.857974
24539,"Douglas, MI Urban Area","Douglas, MI",26005,3208,2678,4.232,0.541,42.653231,-86.196877
24553,"Douglas, WY Urban Area","Douglas, WY",56009,6583,3000,3.279,0.0,42.75634,-105.385329
24580,"Dover, DE Urban Area","Dover, DE",10001,126204,50230,72.304,1.036,39.146316,-75.548114
24607,"Dover--Rochester, NH--ME Urban Area","Dover, NH",33017,72912,34250,52.312,1.039,43.258739,-70.918667
24634,"Dowagiac, MI Urban Area","Dowagiac, MI",26027,6103,3176,3.557,0.047,41.983186,-86.108771
24715,"Dublin, GA Urban Area","Dublin, GA",13175,20147,8576,20.431,0.164,32.541185,-82.918763
24796,"DuBois, PA Urban Area","DuBois, PA",42033,11311,5639,7.159,0.055,41.121167,-78.765056
24823,"Dubuque, IA--IL Urban Area","Dubuque, IA",19061,69500,31794,34.167,0.088,42.503272,-90.699886
24850,"Duluth, MN--WI Urban Area","Duluth, MN",27137,120021,54999,66.866,4.947,46.766514,-92.127793
24877,"Dumas, AR Urban Area","Dumas, AR",05041,4117,2168,3.107,0.0,33.884012,-91.486732
24904,"Dumas, TX Urban Area","Dumas, TX",48341,14391,5686,4.937,0.0,35.864893,-101.965345
24931,"Duncan, OK Urban Area","Duncan, OK",40137,20377,9873,13.611,0.064,34.509608,-97.962631
24958,"Dundee, MI Urban Area","Dundee, MI",26115,5532,2724,3.901,0.037,41.961787,-83.661262
25012,"Dunkirk--Fredonia, NY Urban Area","Dunkirk, NY",36013,23412,11114,12.753,0.045,42.463071,-79.329028
25039,"Dunn, NC Urban Area","Dunn, NC",37085,14002,6590,11.111,0.053,35.317578,-78.636444
25093,"Du Quoin, IL Urban Area","Du Quoin, IL",17145,6040,3075,4.061,0.021,38.004412,-89.234301
25120,"Durand, MI Urban Area","Durand, MI",26155,5036,2215,3.78,0.048,42.919639,-83.991875
25147,"Durango, CO Urban Area","Durango, CO",08067,19222,9284,9.451,0.033,37.287672,-107.867815
25201,"Durant, OK Urban Area","Durant, OK",40013,20389,8744,12.006,0.016,33.992468,-96.398015
25216,"Durham, NH Urban Area","Durham, NH",33017,11605,2639,4.036,0.025,43.139235,-70.929903
25228,"Durham, NC Urban Area","Durham, NC",37063,399649,177635,183.355,1.307,35.966985,-78.937688
25237,"Duvall, WA Urban Area","Duvall, WA",53033,8485,2761,2.474,0.001,47.737654,-121.964426
25309,"Dyersburg, TN Urban Area","Dyersburg, TN",47045,16460,7730,12.976,0.088,36.045663,-89.383225
25390,"Eagle, CO Urban Area","Eagle, CO",08037,6793,2396,3.406,0.018,39.645064,-106.822397
25480,"Eagle Mountain, UT Urban Area","Eagle Mountain, UT",49049,11419,2910,2.021,0.0,40.309634,-112.011228
25498,"Eagle Pass, TX Urban Area","Eagle Pass, TX",48323,54354,18819,21.145,0.141,28.700079,-100.474047
25579,"Earlimart, CA Urban Area","Earlimart, CA",06107,7147,1828,1.35,0.0,35.883774,-119.270251
25598,"East Aurora, NY Urban Area","East Aurora, NY",36029,9535,4172,5.819,0.017,42.77019,-78.615811
25658,"East Hampton North--Springs--Northwest Harbor, NY Urban Area","East Hampton North, NY",36103,22083,16151,35.852,2.266,40.981411,-72.193604
25687,"East Liverpool, OH--WV--PA Urban Area","East Liverpool, OH",39029,21269,10782,15.526,0.629,40.644972,-80.578858
25714,"Eastman, GA Urban Area","Eastman, GA",13091,6446,2913,5.962,0.072,32.193868,-83.177877
25741,"Easton, MD Urban Area","Easton, MD",24041,18338,8434,11.15,0.133,38.770845,-76.070571
25768,"East Palestine, OH Urban Area","East Palestine, OH",39029,4546,2274,2.907,0.0,40.841613,-80.539724
25849,"East Stroudsburg--Stroudsburg, PA Urban Area","East Stroudsburg, PA",42089,49223,19674,38.937,0.315,41.010818,-75.234842
25876,"East Tawas, MI Urban Area","East Tawas, MI",26069,4508,3167,5.005,0.0,44.273921,-83.508635
25903,"East Troy, WI Urban Area","East Troy, WI",55127,5314,2570,4.141,0.638,42.79552,-88.398528
25930,"Eaton, CO Urban Area","Eaton, CO",08123,5728,2344,2.16,0.0,40.527435,-104.716851
25957,"Eaton, OH Urban Area","Eaton, OH",39135,7899,3807,4.494,0.001,39.749911,-84.635486
25984,"Eaton Rapids, MI Urban Area","Eaton Rapids, MI",26045,4809,2143,2.805,0.055,42.51142,-84.654426
26038,"Eau Claire, WI Urban Area","Eau Claire, WI",55035,106445,47217,62.496,3.951,44.8496,-91.459913
26065,"Ebensburg, PA Urban Area","Ebensburg, PA",42021,4424,2306,2.589,0.012,40.478698,-78.741113
26092,"Eden, NC Urban Area","Eden, NC",37157,15805,7594,14.235,0.016,36.504197,-79.748256
26119,"Edenton, NC Urban Area","Edenton, NC",37041,4447,2542,3.586,0.069,36.071606,-76.617043
26173,"Edgerton, WI Urban Area","Edgerton, WI",55105,8248,4237,6.19,0.191,42.838856,-89.055991
26227,"Edinboro, PA Urban Area","Edinboro, PA",42049,6231,2836,2.437,0.075,41.883992,-80.123253
26254,"Edna, TX Urban Area","Edna, TX",48239,5971,2669,3.695,0.0,28.974289,-96.650546
26275,"Edwards--Avon, CO Urban Area","Edwards, CO",08037,18335,12353,11.603,0.226,39.639076,-106.553834
26308,"Effingham, IL Urban Area","Effingham, IL",17049,13987,6348,13.576,0.029,39.125966,-88.531694
26362,"Elberton, GA Urban Area","Elberton, GA",13105,5940,2792,5.021,0.027,34.108838,-82.866255
26375,"Elburn, IL Urban Area","Elburn, IL",17089,6386,2690,3.565,0.0,41.887549,-88.459832
26389,"El Campo, TX Urban Area","El Campo, TX",48481,12773,5328,7.828,0.008,29.198508,-96.276623
26405,"El Centro, CA Urban Area","El Centro, CA",06025,75548,24201,19.352,0.018,32.802839,-115.560322
26422,"Eldersburg, MD Urban Area","Eldersburg, MD",24013,28659,10655,18.38,0.183,39.398706,-76.941698
26443,"Eldon, MO Urban Area","Eldon, MO",29131,4422,2259,3.338,0.0,38.350261,-92.576903
26470,"El Dorado, AR Urban Area","El Dorado, AR",05139,18124,8319,20.262,0.0,33.211502,-92.663028
26524,"El Dorado, KS Urban Area","El Dorado, KS",20015,12764,5934,7.446,0.008,37.819351,-96.866248
26659,"Elgin, TX Urban Area","Elgin, TX",48021,11962,4798,4.767,0.0,30.351263,-97.385115
26686,"Elizabeth City, NC Urban Area","Elizabeth City, NC",37139,24578,11016,16.516,0.009,36.298233,-76.226397
26750,"Elizabethtown--Radcliff, KY Urban Area","Elizabethtown, KY",21093,78639,33968,55.826,0.502,37.873754,-85.949265
26767,"Elk City, OK Urban Area","Elk City, OK",40009,11000,6108,9.013,0.0,35.408502,-99.407818
26794,"Elkhart, IN--MI Urban Area","Elkhart, IN",18039,148079,60605,94.939,3.123,41.662338,-85.924496
26821,"Elkhorn, WI Urban Area","Elkhorn, WI",55127,11827,5045,6.94,0.056,42.687332,-88.543002
26875,"Elkins, WV Urban Area","Elkins, WV",54083,10958,5275,7.121,0.0,38.935799,-79.855896
26902,"Elko, NV Urban Area","Elko, NV",32007,21302,9251,12.56,0.0,40.839773,-115.766306
26956,"Elkton, VA Urban Area","Elkton, VA",51165,5132,3012,4.805,0.025,38.402154,-78.617496
26983,"Ellensburg, WA Urban Area","Ellensburg, WA",53037,20776,10038,8.84,0.021,47.001086,-120.538461
27010,"Ellenville, NY Urban Area","Ellenville, NY",36111,6544,2602,3.303,0.03,41.725976,-74.386724
27037,"Ellijay, GA Urban Area","Ellijay, GA",13123,5135,3575,13.212,0.112,34.673133,-84.507983
27085,"Ellwood City, PA Urban Area","Ellwood City, PA",42073,12941,6548,7.36,0.125,40.852954,-80.280735
27118,"Elmira, NY Urban Area","Elmira, NY",36015,61939,29764,31.698,0.456,42.086405,-76.82518
27253,"El Paso, TX--NM Urban Area","El Paso, TX",48141,861502,320470,255.883,0.987,31.786147,-106.389782
27261,"El Paso de Robles (Paso Robles)--Atascadero, CA Urban Area","El Paso de Robles (Paso Robles), CA",06079,68310,27583,29.963,0.044,35.444573,-120.624475
27280,"El Reno, OK Urban Area","El Reno, OK",40017,15193,6200,8.715,0.005,35.520858,-97.956489
27290,"Elsa, TX Urban Area","Elsa, TX",48215,14952,5171,6.255,0.0,26.299313,-97.980961
27307,"Elwood, IN Urban Area","Elwood, IN",18095,9090,4361,4.632,0.0,40.272468,-85.837712
27361,"Ely, NV Urban Area","Ely, NV",32033,4275,2275,3.096,0.0,39.247316,-114.87507
27469,"Emmett, ID Urban Area","Emmett, ID",16045,10967,4315,5.73,0.079,43.875885,-116.496474
27523,"Emporia, KS Urban Area","Emporia, KS",20111,24087,11431,11.187,0.081,38.409579,-96.194519
27550,"Emporia, VA Urban Area","Emporia, VA",51595,7186,3330,6.542,0.059,36.69725,-77.544739
27631,"Enid, OK Urban Area","Enid, OK",40047,50056,22599,29.487,0.014,36.39856,-97.893218
27658,"Ennis, TX Urban Area","Ennis, TX",48139,21291,8009,12.418,0.349,32.328189,-96.631752
27685,"Enterprise, AL Urban Area","Enterprise, AL",01031,31071,13608,23.747,0.058,31.329219,-85.829648
27712,"Ephraim, UT Urban Area","Ephraim, UT",49039,5160,1569,1.746,0.0,39.357786,-111.582362
27739,"Ephrata, WA Urban Area","Ephrata, WA",53025,8383,3195,4.272,0.0,47.314246,-119.553286
27766,"Erie, PA Urban Area","Erie, PA",42049,187243,84348,73.339,0.23,42.088867,-80.112692
27793,"Erwin, TN Urban Area","Erwin, TN",47171,7984,3890,5.926,0.005,36.143997,-82.408735
27820,"Escalon, CA Urban Area","Escalon, CA",06077,7341,2924,1.988,0.0,37.792578,-120.99566
27847,"Escanaba, MI Urban Area","Escanaba, MI",26041,21954,10537,18.063,0.16,45.733032,-87.084194
27874,"Española, NM Urban Area","Española, NM",35039,23590,10684,20.137,0.163,36.012019,-106.047156
27901,"Estacada, OR Urban Area","Estacada, OR",41005,5586,2038,2.991,0.006,45.297043,-122.328629
27928,"Estes Park, CO Urban Area","Estes Park, CO",08069,8178,5768,12.15,0.271,40.359149,-105.529617
27955,"Estherville, IA Urban Area","Estherville, IA",19063,5742,2739,3.45,0.0,43.403532,-94.832892
28009,"Etowah, TN Urban Area","Etowah, TN",47107,4521,2246,4.505,0.0,35.338883,-84.528244
28063,"Eudora, KS Urban Area","Eudora, KS",20045,6071,2269,2.62,0.042,38.932378,-95.096848
28090,"Eufaula, AL--GA Urban Area","Eufaula, AL",01005,8678,4123,6.954,0.011,31.887533,-85.14468
28117,"Eugene, OR Urban Area","Eugene, OR",41039,270825,118094,73.485,0.064,44.069521,-123.085685
28144,"Eunice, LA Urban Area","Eunice, LA",22097,11631,5327,7.133,0.03,30.493373,-92.418098
28198,"Eureka, CA Urban Area","Eureka, CA",06023,46257,20712,18.795,1.459,40.775465,-124.166342
28225,"Eureka, IL Urban Area","Eureka, IL",17203,5363,2350,2.522,0.048,40.713988,-89.274949
28262,"Eureka, MO Urban Area","Eureka, MO",29189,15598,5361,9.335,0.017,38.491444,-90.643009
28306,"Evanston, WY Urban Area","Evanston, WY",56041,11878,5191,7.674,0.044,41.260088,-110.963739
28333,"Evansville, IN Urban Area","Evansville, IN",18163,206973,95182,112.753,1.124,38.007208,-87.526177
28360,"Evansville, WI Urban Area","Evansville, WI",55105,6408,2721,2.803,0.0,42.778401,-89.298617
28441,"Evergreen, CO Urban Area","Evergreen, CO",08059,9205,4206,9.46,0.085,39.645594,-105.336295
28495,"Excelsior Springs, MO Urban Area","Excelsior Springs, MO",29047,9864,4017,5.7,0.0,39.346037,-94.238117
28506,"Exeter, CA Urban Area","Exeter, CA",06107,10636,3604,2.87,0.0,36.294749,-119.148247
28511,"Exeter, NH Urban Area","Exeter, NH",33015,15784,7512,11.732,0.122,42.985696,-70.926615
28522,"Fabens, TX Urban Area","Fabens, TX",48141,4191,1927,1.691,0.023,31.505333,-106.154028
28549,"Fairbanks, AK Urban Area","Fairbanks, AK",02090,73993,31290,74.303,2.54,64.85531,-147.756344
28603,"Fairbury, NE Urban Area","Fairbury, NE",31095,3905,2050,2.36,0.004,40.144738,-97.176504
28657,"Fairfield, CA Urban Area","Fairfield, CA",06095,150238,50015,40.809,0.239,38.261965,-122.032389
28684,"Fairfield, IL Urban Area","Fairfield, IL",17191,4539,2573,3.262,0.025,38.380391,-88.369938
28711,"Fairfield, IA Urban Area","Fairfield, IA",19101,9352,4734,5.383,0.046,41.005895,-91.967453
28765,"Fairfield Glade, TN Urban Area","Fairfield Glade, TN",47035,8833,5281,9.635,0.4,36.009502,-84.885711
28766,"Fairhope--Daphne, AL Urban Area","Fairhope, AL",01003,76084,33244,59.065,0.26,30.620911,-87.904485
28846,"Fairmont, MN Urban Area","Fairmont, MN",27091,8250,4021,3.638,0.381,43.645881,-94.456578
28873,"Fairmont, WV Urban Area","Fairmont, WV",54049,33145,15830,20.188,0.704,39.464498,-80.158601
28981,"Fajardo, PR Urban Area","Fajardo, PR",72053,68618,39338,34.359,0.221,18.33623,-65.656006
28995,"Falcon, CO Urban Area","Falcon, CO",08041,21966,6882,8.476,0.0,38.963609,-104.605093
29008,"Falfurrias, TX Urban Area","Falfurrias, TX",48047,4475,2562,2.186,0.0,27.224195,-98.147155
29024,"Fallbrook, CA Urban Area","Fallbrook, CA",06073,40821,13997,26.026,0.028,33.353657,-117.225141
29035,"Fallon, NV Urban Area","Fallon, NV",32001,16066,7334,13.961,0.007,39.487723,-118.792263
29062,"Falls City, NE Urban Area","Falls City, NE",31147,4099,2034,3.353,0.005,40.062208,-95.599013
29089,"Fargo, ND--MN Urban Area","Fargo, ND",38017,220697,101319,77.731,0.114,46.858555,-96.826798
29116,"Faribault, MN Urban Area","Faribault, MN",27131,23908,9233,10.241,0.237,44.297461,-93.278929
29251,"Farmington, MO Urban Area","Farmington, MO",29187,32708,14148,18.053,0.04,37.853921,-90.51246
29278,"Farmington, NM Urban Area","Farmington, NM",35045,50995,20398,32.623,0.014,36.747223,-108.162366
29305,"Farmville, NC Urban Area","Farmville, NC",37147,4493,2238,2.948,0.0,35.594653,-77.591416
29332,"Farmville, VA Urban Area","Farmville, VA",51147,8208,3235,6.563,0.113,37.286016,-78.39096
29440,"Fayetteville, NC Urban Area","Fayetteville, NC",37051,326934,138092,195.924,2.05,35.052628,-78.97684
29467,"Fayetteville, TN Urban Area","Fayetteville, TN",47103,10717,4471,12.435,0.0,35.111264,-86.571838
29494,"Fayetteville--Springdale--Rogers, AR--MO Urban Area","Fayetteville, AR",05007,384576,155796,198.27,2.421,36.262667,-94.184323
29555,"Fenton, MI Urban Area","Fenton, MI",26049,37913,16057,29.665,5.564,42.796909,-83.751639
29575,"Fergus Falls, MN Urban Area","Fergus Falls, MN",27111,13133,6592,7.636,0.604,46.288649,-96.077117
29608,"Fernandina Beach--Yulee, FL Urban Area","Fernandina Beach, FL",12089,51786,26852,50.554,1.137,30.604972,-81.500742
29656,"Fernley, NV Urban Area","Fernley, NV",32019,19489,7406,10.597,0.0,39.602952,-119.23564
29683,"Ferriday, LA Urban Area","Ferriday, LA",22029,5923,2277,4.836,0.0,31.626058,-91.559291
29710,"Fillmore, CA Urban Area","Fillmore, CA",06111,16565,5298,2.633,0.0,34.401164,-118.918568
29737,"Findlay, OH Urban Area","Findlay, OH",39063,47699,22571,25.63,0.158,41.049732,-83.639702
29764,"Firebaugh, CA Urban Area","Firebaugh, CA",06019,8301,2565,2.488,0.055,36.851884,-120.451701
29769,"Fire Island, NY Urban Area","Fire Island, NY",36103,487,3583,2.864,0.051,40.64789,-73.147956
29775,"Firestone--Frederick, CO Urban Area","Firestone, CO",08123,36732,12897,15.216,0.195,40.139574,-104.959813
29791,"Fitzgerald, GA Urban Area","Fitzgerald, GA",13017,11234,5234,8.504,0.203,31.715424,-83.260472
29818,"Flagstaff, AZ Urban Area","Flagstaff, AZ",04005,79354,32514,29.263,0.03,35.201579,-111.618444
29846,"Flemington--Raritan, NJ Urban Area","Flemington, NJ",34019,25456,9924,18.394,0.023,40.505613,-74.848872
29872,"Flint, MI Urban Area","Flint, MI",26049,295545,140050,205.457,1.741,43.012172,-83.68054
29899,"Flora, IL Urban Area","Flora, IL",17025,4734,2396,3.185,0.0,38.670794,-88.480512
29953,"Florence, AL Urban Area","Florence, AL",01077,79164,38225,54.627,0.142,34.815178,-87.67165
29980,"Florence East, AZ Urban Area","Florence East, AZ",04021,11017,3168,2.655,0.0,33.031778,-111.386874
30034,"Florence, OR Urban Area","Florence, OR",41039,11709,6700,7.98,0.015,44.005913,-124.111493
30061,"Florence, SC Urban Area","Florence, SC",45041,90940,40889,68.038,0.566,34.204283,-79.809012
30073,"Florence West, AZ Urban Area","Florence West, AZ",04021,13452,5570,5.874,0.0,33.061888,-111.468282
30088,"Floresville, TX Urban Area","Floresville, TX",48493,6719,2822,3.853,0.006,29.14131,-98.156623
30171,"Foley--Gulf Shores, AL Urban Area","Foley, AL",01003,45055,29380,49.045,0.424,30.337676,-87.692771
30223,"Fond du Lac, WI Urban Area","Fond du Lac, WI",55039,54317,24880,24.69,0.313,43.779876,-88.445312
30232,"Fontana-on-Geneva Lake, WI Urban Area","Fontana, WI",55127,8880,6956,10.253,3.432,42.567167,-88.547583
30331,"Forest City--Spindale, NC Urban Area","Forest City, NC",37161,20148,9524,26.891,0.074,35.338887,-81.897738
30358,"Forest Lake, MN Urban Area","Forest Lake, MN",27163,21891,8990,14.013,4.39,45.273307,-92.96984
30439,"Forney, TX Urban Area","Forney, TX",48257,45880,15230,19.678,0.071,32.745298,-96.441461
30466,"Forrest City, AR Urban Area","Forrest City, AR",05123,8931,4161,7.014,0.02,35.013019,-90.785726
30493,"Forsyth, GA Urban Area","Forsyth, GA",13207,5443,2344,5.202,0.012,33.03924,-83.947879
30520,"Forsyth, MO Urban Area","Forsyth, MO",29213,7373,3598,6.597,0.017,36.710406,-93.175258
30547,"Fort Atkinson, WI Urban Area","Fort Atkinson, WI",55055,13952,6170,6.904,0.113,42.918337,-88.843686
30574,"Fort Bragg, CA Urban Area","Fort Bragg, CA",06045,10796,5567,9.808,0.137,39.421205,-123.795643
30628,"Fort Collins, CO Urban Area","Fort Collins, CO",08069,333455,143363,117.977,7.051,40.563092,-105.111884
30682,"Fort Dodge, IA Urban Area","Fort Dodge, IA",19187,24715,11499,13.615,0.199,42.50959,-94.18209
30736,"Fort Irwin, CA Urban Area","Fort Irwin, CA",06071,8791,3100,3.617,0.0,35.258999,-116.686841
30748,"Fort Leonard Wood--St. Robert--Waynesville, MO Urban Area","Fort Leonard Wood, MO",29169,30512,9546,26.177,0.008,37.756908,-92.126985
30755,"Fort Lupton, CO Urban Area","Fort Lupton, CO",08123,8501,2893,2.33,0.0,40.083141,-104.804927
30763,"Fort Madison, IA--IL Urban Area","Fort Madison, IA",19111,10405,5185,5.962,0.0,40.62894,-91.344033
30790,"Fort Meade, FL Urban Area","Fort Meade, FL",12105,4944,2635,2.319,0.026,27.750056,-81.795337
30817,"Fort Morgan, CO Urban Area","Fort Morgan, CO",08087,13337,5078,5.542,0.0,40.25046,-103.794137
30844,"Fort Payne, AL Urban Area","Fort Payne, AL",01049,8043,3558,8.646,0.012,34.451415,-85.719746
30871,"Fort Polk South, LA Urban Area","Fort Polk South, LA",22115,9609,3482,9.457,0.025,31.055871,-93.226486
30885,"Fort Rucker--Daleville, AL Urban Area","Fort Rucker, AL",01045,7181,2975,7.766,0.0,31.308064,-85.711351
30898,"Fort Scott, KS Urban Area","Fort Scott, KS",20011,7490,3801,5.103,0.006,37.826083,-94.702741
30925,"Fort Smith, AR--OK Urban Area","Fort Smith, AR",05131,126921,55824,73.973,0.324,35.376008,-94.362206
30952,"Fort Stockton, TX Urban Area","Fort Stockton, TX",48371,8003,3697,5.985,0.0,30.894435,-102.886612
30979,"Fortuna, CA Urban Area","Fortuna, CA",06023,13121,5473,5.821,0.0,40.587321,-124.145121
31033,"Fort Valley, GA Urban Area","Fort Valley, GA",13225,9769,4594,5.81,0.013,32.552211,-83.891307
31087,"Fort Wayne, IN Urban Area","Fort Wayne, IN",18003,337097,145939,163.595,0.27,41.097619,-85.147434
31114,"Fostoria, OH Urban Area","Fostoria, OH",39147,13774,6386,8.309,0.083,41.164226,-83.410851
31150,"Four Corners, FL Urban Area","Four Corners, FL",12105,103126,55443,84.483,4.056,28.235393,-81.677538
31195,"Frankenmuth, MI Urban Area","Frankenmuth, MI",26145,5108,2593,2.923,0.038,43.332753,-83.737571
31222,"Frankfort, IN Urban Area","Frankfort, IN",18023,15682,6551,7.486,0.0,40.280355,-86.525564
31249,"Frankfort, KY Urban Area","Frankfort, KY",21073,37459,17683,22.328,0.516,38.188228,-84.859577
31262,"Frankfort, MI Urban Area","Frankfort, MI",26019,2365,2592,4.237,0.051,44.63761,-86.227759
31276,"Franklin, KY Urban Area","Franklin, KY",21213,12488,4854,8.337,0.018,36.725708,-86.575604
31303,"Franklin, LA Urban Area","Franklin, LA",22101,9683,4926,6.197,0.061,29.797187,-91.505105
31330,"Franklin, NH Urban Area","Franklin, NH",33013,7346,3260,4.225,0.208,43.443804,-71.647589
31384,"Franklin, NC Urban Area","Franklin, NC",37113,9185,5251,13.965,0.318,35.177893,-83.380771
31411,"Franklin (Venango County), PA Urban Area","Franklin (Venango County), PA",42121,8665,4175,5.623,0.029,41.39412,-79.833473
31438,"Franklin, VA Urban Area","Franklin, VA",51620,9101,4213,6.439,0.043,36.682427,-76.933958
31478,"Fraser, CO Urban Area","Fraser, CO",08049,2664,5269,4.454,0.005,39.9253,-105.788415
31519,"Frederick, MD Urban Area","Frederick, MD",24021,183353,70919,80.292,0.68,39.406328,-77.363357
31573,"Fredericksburg, TX Urban Area","Fredericksburg, TX",48171,11823,7062,7.829,0.006,30.27382,-98.869249
31600,"Fredericksburg, VA Urban Area","Fredericksburg, VA",51177,170543,65774,89.619,1.221,38.284434,-77.497396
31627,"Fredericktown, MO Urban Area","Fredericktown, MO",29123,5187,2247,3.269,0.006,37.55872,-90.294904
31660,"Freeland, MI Urban Area","Freeland, MI",26145,7334,2212,8.46,0.007,43.531539,-84.102263
31668,"Freeland, PA Urban Area","Freeland, PA",42079,5530,2748,1.563,0.0,41.017365,-75.902799
31672,"Freeland, WA Urban Area","Freeland, WA",53029,7825,5793,12.077,0.134,48.008787,-122.543177
31681,"Freeport, IL Urban Area","Freeport, IL",17177,23935,12244,10.621,0.037,42.290173,-89.634888
31735,"Fremont, MI Urban Area","Fremont, MI",26123,5250,2283,3.832,0.062,43.465758,-85.951597
31762,"Fremont, NE Urban Area","Fremont, NE",31053,28458,12330,13.771,0.326,41.442028,-96.497273
31789,"Fremont, OH Urban Area","Fremont, OH",39143,22811,10847,13.395,0.364,41.348235,-83.117703
31843,"Fresno, CA Urban Area","Fresno, CA",06019,722734,249578,159.111,1.246,36.789045,-119.769
31852,"Friday Harbor, WA Urban Area","Friday Harbor, WA",53055,3710,2050,4.425,0.472,48.523964,-122.99517
31889,"Frisco, CO Urban Area","Frisco, CO",08117,3583,4093,2.153,0.0,39.57871,-106.093771
31924,"Front Royal, VA Urban Area","Front Royal, VA",51187,16055,6592,10.707,0.021,38.917107,-78.17676
31978,"Frostproof, FL Urban Area","Frostproof, FL",12105,7441,3568,7.493,1.935,27.732956,-81.558996
32032,"Fulton, KY--TN Urban Area","Fulton, KY",21075,4082,2175,3.156,0.018,36.504438,-88.879996
32086,"Fulton, MO Urban Area","Fulton, MO",29027,12076,3937,8.671,0.091,38.850805,-91.952188
32092,"Fulton, NY Urban Area","Fulton, NY",36075,12515,5948,5.732,0.29,43.307089,-76.397503
32113,"Gadsden, AL Urban Area","Gadsden, AL",01055,58049,26963,61.209,2.029,33.985171,-86.027569
32140,"Gaffney, SC Urban Area","Gaffney, SC",45021,18636,8476,15.427,0.048,35.076849,-81.65191
32167,"Gainesville, FL Urban Area","Gainesville, FL",12001,216394,97859,87.697,1.345,29.656213,-82.387728
32194,"Gainesville, GA Urban Area","Gainesville, GA",13139,170650,65900,251.664,11.57,34.233735,-83.86262
32221,"Gainesville, TX Urban Area","Gainesville, TX",48097,16970,6953,9.555,0.01,33.63744,-97.138935
32248,"Galax, VA Urban Area","Galax, VA",51640,6370,3161,6.621,0.026,36.66564,-80.914308
32329,"Galesburg, IL Urban Area","Galesburg, IL",17095,33582,16012,21.923,0.055,40.944688,-90.359115
32356,"Galion, OH Urban Area","Galion, OH",39033,11466,5759,6.414,0.016,40.734572,-82.790333
32383,"Galliano--Larose--Cut Off, LA Urban Area","Galliano, LA",22057,18757,8491,18.698,0.367,29.489474,-90.330724
32437,"Gallup, NM Urban Area","Gallup, NM",35031,25391,8540,13.678,0.0,35.521565,-108.738747
32451,"Galt, CA Urban Area","Galt, CA",06067,27384,9036,7.087,0.0,38.265752,-121.307562
32491,"Galveston--Texas City, TX Urban Area","Galveston, TX",48167,193686,95063,108.981,3.065,29.364635,-94.997589
32518,"Garden City, KS Urban Area","Garden City, KS",20055,30374,11786,12.749,0.026,37.975023,-100.853359
32572,"Gardnerville, NV Urban Area","Gardnerville, NV",32005,21395,9343,12.679,0.019,38.930888,-119.723951
32653,"Gastonia, NC Urban Area","Gastonia, NC",37071,178711,76609,124.579,1.333,35.258509,-81.130167
32707,"Gatesville, TX Urban Area","Gatesville, TX",48099,15357,3702,10.175,0.012,31.438289,-97.723184
32734,"Gaylord--Bagley, MI Urban Area","Gaylord, MI",26137,8287,4891,10.26,3.314,44.987582,-84.685732
32761,"Geneseo, IL Urban Area","Geneseo, IL",17073,6498,3190,3.757,0.0,41.450356,-90.154314
32788,"Geneseo, NY Urban Area","Geneseo, NY",36051,8097,2570,2.411,0.0,42.798943,-77.805341
32842,"Geneva, NY Urban Area","Geneva, NY",36099,29322,14223,16.759,0.29,42.830821,-76.984254
32850,"Geneva, OH Urban Area","Geneva, OH",39007,6977,3169,4.833,0.0,41.803081,-80.935585
32869,"Genoa, IL Urban Area","Genoa, IL",17037,5084,2105,2.195,0.05,42.092376,-88.698435
32950,"Georgetown, DE Urban Area","Georgetown, DE",10005,10102,2991,4.933,0.0,38.688833,-75.38365
32977,"Georgetown, KY Urban Area","Georgetown, KY",21209,39042,15712,15.061,0.152,38.213422,-84.550322
33031,"Georgetown, SC Urban Area","Georgetown, SC",45043,11641,5867,9.246,0.496,33.370457,-79.299928
33091,"Germantown, OH Urban Area","Germantown, OH",39113,5594,2273,2.781,0.0,39.627735,-84.368267
33139,"Gettysburg--Cumberland, PA Urban Area","Gettysburg, PA",42001,16230,6055,8.271,0.239,39.831233,-77.225628
33220,"Gillespie, IL Urban Area","Gillespie, IL",17117,5101,2593,2.84,0.0,39.131514,-89.817897
33247,"Gillette, WY Urban Area","Gillette, WY",56005,34012,14750,19.652,0.028,44.275187,-105.496025
33301,"Gilmer, TX Urban Area","Gilmer, TX",48459,5207,2153,4.091,0.013,32.730252,-94.946968
33328,"Gilroy--Morgan Hill, CA Urban Area","Gilroy, CA",06085,113466,35655,42.54,0.0,37.087699,-121.613669
33436,"Glasgow, KY Urban Area","Glasgow, KY",21009,15135,6977,11.798,0.025,37.002522,-85.922295
33490,"Glencoe, MN Urban Area","Glencoe, MN",27085,5702,2346,3.194,0.007,44.769566,-94.151027
33517,"Glendive, MT Urban Area","Glendive, MT",30021,6605,3069,5.426,0.012,47.095795,-104.756107
33598,"Glens Falls, NY Urban Area","Glens Falls, NY",36113,72133,35262,51.618,3.015,43.342244,-73.660113
33625,"Glenwood, IA Urban Area","Glenwood, IA",19129,5188,2333,2.403,0.012,41.046788,-95.744376
33640,"Glenwood, MN Urban Area","Glenwood, MN",27121,4137,2367,4.242,0.0,45.65448,-95.408415
33652,"Glenwood Springs, CO Urban Area","Glenwood Springs, CO",08045,10909,4400,5.461,0.0,39.54376,-107.334895
33679,"Globe, AZ Urban Area","Globe, AZ",04007,12295,6250,8.139,0.0,33.390888,-110.813884
33733,"Gloversville, NY Urban Area","Gloversville, NY",36035,25725,13450,15.536,0.01,43.053464,-74.325471
33742,"Gold Canyon, AZ Urban Area","Gold Canyon, AZ",04021,10626,6678,7.869,0.0,33.363274,-111.452188
33814,"Goldsboro, NC Urban Area","Goldsboro, NC",37191,53823,26028,53.16,0.157,35.379867,-77.983021
33841,"Gonzales, CA Urban Area","Gonzales, CA",06053,8526,2290,1.542,0.003,36.509642,-121.439172
33868,"Gonzales, TX Urban Area","Gonzales, TX",48177,6634,3064,4.356,0.0,29.511832,-97.443827
33922,"Goodland, KS Urban Area","Goodland, KS",20181,3977,2194,2.794,0.0,39.344569,-101.715
33960,"Goodyear South, AZ Urban Area","Goodyear South, AZ",04013,17124,7126,9.598,0.0,33.340716,-112.443851
34042,"Governors Club, NC Urban Area","Governors Club, NC",37037,4610,2028,3.622,0.01,35.849325,-79.040268
34111,"Grafton, WV Urban Area","Grafton, WV",54091,4524,2275,3.484,0.131,39.337188,-80.031236
34122,"Grafton--Port Washington--Cedarburg, WI Urban Area","Grafton, WI",55089,44794,20277,23.105,0.359,43.336112,-87.94857
34138,"Graham, TX Urban Area","Graham, TX",48503,8664,3788,4.701,0.0,33.100881,-98.577806
34165,"Granbury, TX Urban Area","Granbury, TX",48221,29812,14264,21.866,1.832,32.414489,-97.780002
34219,"Grand Forks, ND--MN Urban Area","Grand Forks, ND",38035,67858,31576,26.484,0.093,47.914616,-97.066567
34246,"Grand Island, NE Urban Area","Grand Island, NE",31079,54422,22003,29.602,0.268,40.924841,-98.356972
34273,"Grand Junction, CO Urban Area","Grand Junction, CO",08077,137697,59715,75.608,1.373,39.089062,-108.567452
34286,"Grand Lake, CO Urban Area","Grand Lake, CO",08049,1298,2919,5.378,0.058,40.233516,-105.856083
34300,"Grand Rapids, MI Urban Area","Grand Rapids, MI",26081,607847,246034,274.359,6.138,42.942436,-85.659628
34327,"Grand Rapids, MN Urban Area","Grand Rapids, MN",27061,10200,4800,10.454,0.83,47.224546,-93.532395
34381,"Grandview, WA Urban Area","Grandview, WA",53077,11529,3548,4.125,0.0,46.256917,-119.910338
34470,"Granite Falls, WA Urban Area","Granite Falls, WA",53061,6831,2722,3.097,0.087,48.080961,-121.969962
34489,"Grants, NM Urban Area","Grants, NM",35006,10146,4407,6.145,0.0,35.162081,-107.854568
34516,"Grants Pass, OR Urban Area","Grants Pass, OR",41033,55548,24484,30.417,0.805,42.438921,-123.311208
34543,"Grantsville, UT Urban Area","Grantsville, UT",49045,9522,2809,4.394,0.0,40.589734,-112.450802
34597,"Grass Valley, CA Urban Area","Grass Valley, CA",06057,36863,17915,29.652,0.021,39.192381,-121.057646
34651,"Grayson, KY Urban Area","Grayson, KY",21043,5054,2424,5.202,0.088,38.333895,-82.935811
34705,"Great Bend, KS Urban Area","Great Bend, KS",20009,14586,7225,6.241,0.104,38.365901,-98.778957
34759,"Great Falls, MT Urban Area","Great Falls, MT",30013,66873,30746,30.305,0.705,47.502447,-111.282523
34786,"Greeley, CO Urban Area","Greeley, CO",08123,137588,50727,37.299,0.143,40.407553,-104.730887
34813,"Green Bay, WI Urban Area","Green Bay, WI",55009,225595,97254,113.658,2.848,44.50246,-88.039886
34840,"Greencastle, IN Urban Area","Greencastle, IN",18133,10035,3836,4.758,0.051,39.641841,-86.846339
34876,"Greendale--Lawrenceburg--Hidden Valley, IN--OH Urban Area","Greendale, IN",18029,21045,8855,18.771,0.459,39.124023,-84.861101
34894,"Greeneville, TN Urban Area","Greeneville, TN",47059,22574,9608,21.97,0.005,36.163908,-82.819666
34921,"Greenfield, CA Urban Area","Greenfield, CA",06053,20027,4612,2.138,0.0,36.32261,-121.245177
34975,"Greenfield, MA Urban Area","Greenfield, MA",25011,22082,10924,14.251,0.097,42.608294,-72.561715
35002,"Greenfield, OH Urban Area","Greenfield, OH",39071,4407,2140,1.703,0.0,39.350303,-83.390716
35083,"Green River, WY Urban Area","Green River, WY",56037,11526,4928,5.559,0.08,41.519548,-109.468996
35164,"Greensboro, NC Urban Area","Greensboro, NC",37081,339555,150178,169.307,2.174,36.080222,-79.833937
35191,"Greensburg, IN Urban Area","Greensburg, IN",18031,11710,5346,8.747,0.035,39.34888,-85.501758
35245,"Green Valley, AZ Urban Area","Green Valley, AZ",04019,37357,23723,20.165,0.015,31.866988,-110.990056
35272,"Greenville, AL Urban Area","Greenville, AL",01013,5665,3064,5.607,0.0,31.834026,-86.627146
35299,"Greenville, IL Urban Area","Greenville, IL",17005,6881,2425,2.986,0.0,38.887645,-89.402676
35309,"Greenville, KY Urban Area","Greenville, KY",21177,5727,2698,5.46,0.097,37.216897,-87.172015
35326,"Greenville, MI Urban Area","Greenville, MI",26117,11037,4341,6.643,0.122,43.180285,-85.264773
35353,"Greenville, MS Urban Area","Greenville, MS",28151,28023,13744,16.786,0.023,33.398811,-91.041757
35380,"Greenville, NC Urban Area","Greenville, NC",37147,122421,59026,66.378,0.351,35.577899,-77.36578
35407,"Greenville, OH Urban Area","Greenville, OH",39037,12943,6361,6.653,0.062,40.104708,-84.62145
35434,"Greenville, PA Urban Area","Greenville, PA",42085,10720,4929,7.932,0.011,41.397006,-80.389358
35461,"Greenville, SC Urban Area","Greenville, SC",45045,395004,175965,262.168,2.23,34.863762,-82.397044
35488,"Greenville, TX Urban Area","Greenville, TX",48231,28315,11710,17.303,0.024,33.112637,-96.102347
35542,"Greenwood, AR Urban Area","Greenwood, AR",05131,9273,3966,6.612,0.143,35.217094,-94.261301
35569,"Greenwood, MS Urban Area","Greenwood, MS",28083,19944,9092,10.677,0.028,33.515505,-90.175915
35596,"Greenwood, SC Urban Area","Greenwood, SC",45047,40824,18577,35.519,0.258,34.200701,-82.169918
35623,"Grenada, MS Urban Area","Grenada, MS",28043,10599,5223,7.121,0.0,33.76538,-89.8084
35677,"Gridley, CA Urban Area","Gridley, CA",06007,8301,3055,3.98,0.0,39.359231,-121.698567
35688,"Griffin, GA Urban Area","Griffin, GA",13255,39242,16444,27.914,0.379,33.244647,-84.274797
35704,"Grinnell, IA Urban Area","Grinnell, IA",19157,9478,3947,4.334,0.041,41.74279,-92.724935
35716,"Grissom AFB, IN Urban Area","Grissom AFB, IN",18103,4984,1528,4.306,0.003,40.657128,-86.145425
35785,"Grove, OK Urban Area","Grove, OK",40041,7976,4469,10.187,0.004,36.58898,-94.7867
35812,"Grove City, PA Urban Area","Grove City, PA",42085,9950,3499,6.077,0.003,41.152357,-80.085363
35839,"Guadalupe, CA Urban Area","Guadalupe, CA",06083,8422,2281,1.142,0.004,34.964929,-120.573127
35852,"Guánica, PR Urban Area","Guánica, PR",72055,7603,5271,2.901,0.003,17.965471,-66.939216
35866,"Guayama, PR Urban Area","Guayama, PR",72109,50620,26815,21.766,0.134,17.991631,-66.051477
35920,"Gulfport--Biloxi, MS Urban Area","Gulfport, MS",28047,236171,109122,168.637,12.005,30.405084,-89.042203
35974,"Gun Barrel City, TX Urban Area","Gun Barrel City, TX",48213,18430,9837,18.406,0.024,32.272461,-96.114677
36001,"Gunnison, CO Urban Area","Gunnison, CO",08051,7509,3726,3.656,0.005,38.54055,-106.9385
36055,"Gustine, CA Urban Area","Gustine, CA",06047,6096,2409,1.164,0.0,37.253699,-121.003968
36082,"Guthrie, OK Urban Area","Guthrie, OK",40083,9494,3645,6.835,0.0,35.872228,-97.419973
36109,"Guymon, OK Urban Area","Guymon, OK",40139,12368,4758,4.815,0.0,36.689903,-101.475838
36136,"Gypsum, CO Urban Area","Gypsum, CO",08037,9767,2968,5.777,0.112,39.640476,-106.946081
36190,"Hagerstown, MD--WV--PA--VA Urban Area","Hagerstown, MD",54003,199165,82113,120.769,0.076,39.685014,-77.726496
36217,"Hailey, ID Urban Area","Hailey, ID",16013,12215,4967,5.269,0.005,43.502129,-114.290412
36271,"Half Moon Bay, CA Urban Area","Half Moon Bay, CA",06081,20867,8324,8.347,0.0,37.460503,-122.44367
36384,"Hamburg--Vernon--Highland Lakes, NJ Urban Area","Hamburg, NJ",34037,27413,13776,21.806,0.954,41.197847,-74.48458
36406,"Hamilton, MT Urban Area","Hamilton, MT",30081,7354,3849,3.979,0.004,46.23891,-114.15407
36514,"Hammond, LA Urban Area","Hammond, LA",22105,76689,32844,76.42,0.277,30.484827,-90.476454
36541,"Hammonton, NJ Urban Area","Hammonton, NJ",34001,12665,5331,8.263,0.144,39.637221,-74.793248
36568,"Hampshire, IL Urban Area","Hampshire, IL",17089,6353,1893,2.725,0.0,42.094122,-88.517971
36585,"Hampstead, NC Urban Area","Hampstead, NC",37141,23768,16442,31.449,0.223,34.412168,-77.606311
36595,"Hampstead--Manchester, MD Urban Area","Hampstead, MD",24013,15033,6151,7.884,0.01,39.627344,-76.860088
36703,"Hanford, CA Urban Area","Hanford, CA",06031,67274,22076,18.231,0.0,36.331388,-119.659017
36730,"Hannibal, MO Urban Area","Hannibal, MO",29127,17268,7974,10.6,0.017,39.709099,-91.389416
36784,"Hanover, PA Urban Area","Hanover, PA",42133,56473,24374,25.71,0.046,39.80299,-76.989774
36838,"Harlan, IA Urban Area","Harlan, IA",19165,4825,2248,2.598,0.0,41.650583,-95.326029
36865,"Harlan, KY Urban Area","Harlan, KY",21095,5688,2944,4.802,0.231,36.855334,-83.344548
36892,"Harlingen, TX Urban Area","Harlingen, TX",48061,120849,48023,54.157,0.727,26.184437,-97.716275
36946,"Harriman--Kingston--Rockwood, TN Urban Area","Harriman, TN",47145,23621,11097,30.492,0.153,35.919399,-84.537943
36973,"Harrington, DE Urban Area","Harrington, DE",10001,5283,2234,3.361,0.007,38.922467,-75.56445
37000,"Harrisburg, IL Urban Area","Harrisburg, IL",17165,8622,4189,5.291,0.031,37.73503,-88.547426
37081,"Harrisburg, PA Urban Area","Harrisburg, PA",42043,498118,214836,250.25,11.295,40.246448,-76.877022
37091,"Harrisburg, SD Urban Area","Harrisburg, SD",46083,7712,2872,2.446,0.0,43.431651,-96.705555
37108,"Harrison, AR Urban Area","Harrison, AR",05009,14038,6873,12.39,0.029,36.245126,-93.119068
37145,"Harrison, OH--IN Urban Area","Harrison, OH",39061,15566,6396,7.452,0.029,39.256312,-84.784563
37162,"Harrisonburg, VA Urban Area","Harrisonburg, VA",51660,73587,27139,31.103,0.074,38.419421,-78.886787
37189,"Harrisonville, MO Urban Area","Harrisonville, MO",29037,9482,4143,6.833,0.035,38.648541,-94.350536
37216,"Harrodsburg, KY Urban Area","Harrodsburg, KY",21167,10055,4789,6.527,0.016,37.76662,-84.850115
37243,"Hartford, CT Urban Area","Hartford, CT",09003,972784,428138,535.927,9.128,41.770271,-72.70287
37297,"Hartford, WI Urban Area","Hartford, WI",55131,24123,10675,14.874,1.549,43.320292,-88.378037
37324,"Hartford City, IN Urban Area","Hartford City, IN",18009,5746,3129,3.521,0.019,40.453228,-85.371784
37351,"Hartselle, AL Urban Area","Hartselle, AL",01103,16691,6795,13.908,0.053,34.43215,-86.936707
