GEOID,Name,Short Name,Type,Primary County GEOID,Population,Housing Units,Land Area,Water Area,Latitude,Longitude
00037,"Abbeville, LA Urban Cluster","Abbeville, LA",UrbanCluster,22113,18238,8779,11.129,0.131,29.967156,-92.095966
00064,"Abbeville, SC Urban Cluster","Abbeville, SC",UrbanCluster,45001,4881,2159,4.948,0.002,34.179273,-82.379776
00145,"Aberdeen, SD Urban Cluster","Aberdeen, SD",UrbanCluster,46013,26675,12671,13.895,0.071,45.463186,-98.471033
00172,"Aberdeen, WA Urban Cluster","Aberdeen, WA",UrbanCluster,53027,30440,13384,10.972,0.696,46.977659,-123.796236
00253,"Abilene, KS Urban Cluster","Abilene, KS",UrbanCluster,20041,6562,3441,3.64,0.001,38.921855,-97.220768
00280,"Abilene, TX Urbanized Area","Abilene, TX Urbanized Area",UrbanizedArea,48441,115265,50013,61.973,0.392,32.428784,-99.747194
00388,"Ada, OH Urban Cluster","Ada, OH",UrbanCluster,39065,5137,1739,2.095,0.0,40.76723,-83.82466
00415,"Ada, OK Urban Cluster","Ada, OK",UrbanCluster,40123,17566,8383,14.25,0.012,34.774803,-96.669103
00469,"Adel, GA Urban Cluster","Adel, GA",UrbanCluster,13075,7354,3266,6.111,0.066,31.145731,-83.429099
00496,"Adel, IA Urban Cluster","Adel, IA",UrbanCluster,19049,4213,1753,2.743,0.006,41.612188,-94.021031
00550,"Adjuntas, PR Urban Cluster","Adjuntas, PR",UrbanCluster,72001,9976,4210,4.863,0.0,18.166604,-66.729934
00577,"Adrian, MI Urban Cluster","Adrian, MI",UrbanCluster,26091,45030,18337,13.375,0.149,41.914128,-84.049721
00631,"Aguadilla--Isabela--San Sebastián, PR Urbanized Area","Aguadilla, PR Urbanized Area",UrbanizedArea,72005,282329,133774,187.321,0.143,18.370709,-67.040996
00658,"Ahoskie, NC Urban Cluster","Ahoskie, NC",UrbanCluster,37091,4886,2374,3.326,0.0,36.287877,-76.983311
00766,"Akron, OH Urbanized Area","Akron, OH Urbanized Area",UrbanizedArea,39153,561754,260386,300.637,5.82,41.066225,-81.491897
00820,"Alamogordo, NM Urban Cluster","Alamogordo, NM",UrbanCluster,35035,32840,15732,13.731,0.002,32.902624,-105.949622
00847,"Alamosa, CO Urban Cluster","Alamosa, CO",UrbanCluster,08003,10165,4416,7.685,0.015,37.459931,-105.872135
00901,"Albany, GA Urbanized Area","Albany, GA Urbanized Area",UrbanizedArea,13095,89154,40637,66.507,0.736,31.591097,-84.168827
00955,"Albany, OR Urbanized Area","Albany, OR Urbanized Area",UrbanizedArea,41043,63996,24758,23.049,0.074,44.630088,-123.090049
00970,"Albany--Schenectady, NY Urbanized Area","Albany, NY Urbanized Area",UrbanizedArea,36001,611197,280376,271.303,5.434,42.742965,-73.799324
00982,"Albemarle, NC Urban Cluster","Albemarle, NC",UrbanCluster,37167,16923,8051,16.661,0.018,35.369088,-80.196358
01009,"Albert Lea, MN Urban Cluster","Albert Lea, MN",UrbanCluster,27047,17712,8400,10.797,0.539,43.654514,-93.374413
01036,"Albertville, AL Urban Cluster","Albertville, AL",UrbanCluster,01095,38210,15198,34.843,0.237,34.268058,-86.22354
01090,"Albion, MI Urban Cluster","Albion, MI",UrbanCluster,26025,8501,3375,4.691,0.053,42.252722,-84.75533
01117,"Albion, NY Urban Cluster","Albion, NY",UrbanCluster,36073,7771,2909,2.945,0.0,43.245788,-78.193603
01171,"Albuquerque, NM Urbanized Area","Albuquerque, NM Urbanized Area",UrbanizedArea,35001,759918,331083,263.072,2.689,35.143367,-106.628138
01252,"Alexander City, AL Urban Cluster","Alexander City, AL",UrbanCluster,01123,8269,4007,9.79,0.014,32.939703,-85.958004
01279,"Alexandria, LA Urbanized Area","Alexandria, LA Urbanized Area",UrbanizedArea,22079,80630,35105,64.711,0.715,31.260637,-92.506129
01306,"Alexandria, MN Urban Cluster","Alexandria, MN",UrbanCluster,27041,18234,9248,22.572,7.309,45.900999,-95.3683
01387,"Algona, IA Urban Cluster","Algona, IA",UrbanCluster,19109,5060,2585,3.352,0.006,43.072716,-94.228677
01414,"Alice, TX Urban Cluster","Alice, TX",UrbanCluster,48249,19588,7604,10.031,0.0,27.7524,-98.075031
01441,"Allegan, MI Urban Cluster","Allegan, MI",UrbanCluster,26005,6157,2550,6.879,0.879,42.530023,-85.849978
01495,"Allentown, PA--NJ Urbanized Area","Allentown, PA",UrbanizedArea,42077,699727,284453,261.546,3.592,40.651343,-75.441706
01522,"Alliance, NE Urban Cluster","Alliance, NE",UrbanCluster,31013,8023,3901,4.905,0.012,42.100596,-102.87402
01549,"Alliance, OH Urban Cluster","Alliance, OH",UrbanCluster,39151,30949,13985,17.254,0.089,40.914526,-81.09674
01630,"Alma--St. Louis, MI Urban Cluster","Alma, MI",UrbanCluster,26057,17452,5629,9.035,0.213,43.390674,-84.641499
01684,"Alpena, MI Urban Cluster","Alpena, MI",UrbanCluster,26007,13897,7098,12.709,0.769,45.063078,-83.453078
01711,"Alpine, TX Urban Cluster","Alpine, TX",UrbanCluster,48043,6277,3637,4.287,0.0,30.358305,-103.664632
01738,"Altavista, VA Urban Cluster","Altavista, VA",UrbanCluster,51031,4888,2179,5.941,0.063,37.113627,-79.294132
01765,"Alton, IL--MO Urbanized Area","Alton, IL",UrbanizedArea,17119,80812,38766,59.658,0.951,38.897792,-90.128014
01792,"Altoona, PA Urbanized Area","Altoona, PA Urbanized Area",UrbanizedArea,42013,76702,35664,37.012,0.062,40.485263,-78.393865
01846,"Altus, OK Urban Cluster","Altus, OK",UrbanCluster,40065,18731,8929,15.657,0.203,34.652723,-99.310867
01873,"Alva, OK Urban Cluster","Alva, OK",UrbanCluster,40151,5469,2649,3.646,0.0,36.801112,-98.664682
01900,"Alvarado, TX Urban Cluster","Alvarado, TX",UrbanCluster,48251,4973,1699,3.044,0.015,32.412226,-97.219351
01927,"Amarillo, TX Urbanized Area","Amarillo, TX Urbanized Area",UrbanizedArea,48375,202929,86016,83.993,0.687,35.197528,-101.849137
02008,"Americus, GA Urban Cluster","Americus, GA",UrbanCluster,13261,18476,7797,10.979,0.06,32.072568,-84.229191
02062,"Ames, IA Urbanized Area","Ames, IA Urbanized Area",UrbanizedArea,19169,65684,26823,22.357,0.081,42.031216,-93.633762
02143,"Amory, MS Urban Cluster","Amory, MS",UrbanCluster,28095,6094,3105,5.606,0.011,33.984789,-88.48001
02170,"Amsterdam, NY Urban Cluster","Amsterdam, NY",UrbanCluster,36057,21418,11036,10.055,0.325,42.953149,-74.19505
02197,"Anaconda-Deer Lodge County, MT Urban Cluster","Anaconda, MT",UrbanCluster,30023,6431,3836,2.61,0.0,46.130922,-112.956918
02224,"Anacortes, WA Urban Cluster","Anacortes, WA",UrbanCluster,53057,18043,8950,9.858,0.351,48.48661,-122.628592
02251,"Anadarko, OK Urban Cluster","Anadarko, OK",UrbanCluster,40015,5152,2176,2.105,0.0,35.071339,-98.241499
02278,"Anamosa, IA Urban Cluster","Anamosa, IA",UrbanCluster,19105,5234,2006,2.647,0.003,42.110077,-91.276037
02305,"Anchorage, AK Urbanized Area","Anchorage, AK Urbanized Area",UrbanizedArea,02020,250617,101256,91.689,1.072,61.167916,-149.847166
02332,"Anchorage Northeast, AK Urban Cluster","Anchorage Northeast, AK",UrbanCluster,02020,29269,11012,17.683,0.184,61.329442,-149.535228
02359,"Andalusia, AL Urban Cluster","Andalusia, AL",UrbanCluster,01039,6491,2851,6.863,0.04,31.311564,-86.479556
02386,"Anderson, IN Urbanized Area","Anderson, IN Urbanized Area",UrbanizedArea,18095,86023,40936,52.17,0.153,40.088751,-85.679816
02467,"Andrews, TX Urban Cluster","Andrews, TX",UrbanCluster,48003,14887,5766,9.515,0.012,32.320646,-102.546505
02548,"Angola, IN Urban Cluster","Angola, IN",UrbanCluster,18151,11536,5544,12.428,2.279,41.661024,-85.016736
02575,"Anna, IL Urban Cluster","Anna, IL",UrbanCluster,17181,5889,2823,4.429,0.022,37.460138,-89.251143
02602,"Ann Arbor, MI Urbanized Area","Ann Arbor, MI Urbanized Area",UrbanizedArea,26161,327733,140283,143.455,5.152,42.240003,-83.662679
02629,"Anniston--Oxford, AL Urbanized Area","Anniston, AL Urbanized Area",UrbanizedArea,01015,76848,35196,78.896,0.428,33.664398,-85.828795
02656,"Antigo, WI Urban Cluster","Antigo, WI",UrbanCluster,55067,8203,4378,4.848,0.046,45.142639,-89.153197
02683,"Antioch, CA Urbanized Area","Antioch, CA Urbanized Area",UrbanizedArea,06013,320351,101118,73.347,0.787,37.991687,-121.78212
02764,"Appleton, WI Urbanized Area","Appleton, WI Urbanized Area",UrbanizedArea,55087,228767,98084,107.775,4.116,44.24668,-88.411096
02791,"Arab, AL Urban Cluster","Arab, AL",UrbanCluster,01095,8083,3479,8.695,0.108,34.320987,-86.513807
02912,"Arcadia--Southeast Arcadia, FL Urban Cluster","Arcadia, FL",UrbanCluster,12027,17147,8234,10.004,0.006,27.213341,-81.852437
03007,"Ardmore, OK Urban Cluster","Ardmore, OK",UrbanCluster,40019,21344,9754,15.019,0.139,34.178548,-97.14166
03034,"Arecibo, PR Urbanized Area","Arecibo, PR Urbanized Area",UrbanizedArea,72065,129613,58220,75.493,0.096,18.454601,-66.807974
03088,"Arizona City, AZ Urban Cluster","Arizona City, AZ",UrbanCluster,04021,9012,4837,4.339,0.077,32.749832,-111.673175
03115,"Arkadelphia, AR Urban Cluster","Arkadelphia, AR",UrbanCluster,05019,10124,4180,6.2,0.0,34.12448,-93.067856
03142,"Arkansas City, KS Urban Cluster","Arkansas City, KS",UrbanCluster,20035,12432,5909,6.832,0.0,37.060526,-97.034648
03158,"Arlington, TN Urban Cluster","Arlington, TN",UrbanCluster,47157,12089,3901,7.675,0.034,35.280006,-89.662685
03196,"Arroyo Grande--Grover Beach, CA Urbanized Area","Arroyo Grande, CA Urbanized Area",UrbanizedArea,06079,54268,26814,17.075,0.061,35.118449,-120.60761
03223,"Artesia, NM Urban Cluster","Artesia, NM",UrbanCluster,35015,14328,6115,6.849,0.007,32.837488,-104.414485
03250,"Arvin, CA Urban Cluster","Arvin, CA",UrbanCluster,06029,19198,4650,2.345,0.0,35.203006,-118.832555
03277,"Ashburn, GA Urban Cluster","Ashburn, GA",UrbanCluster,13287,4635,2070,4.247,0.042,31.700807,-83.650098
03331,"Asheboro, NC Urban Cluster","Asheboro, NC",UrbanCluster,37151,40322,17388,27.421,0.122,35.731302,-79.804243
03358,"Asheville, NC Urbanized Area","Asheville, NC Urbanized Area",UrbanizedArea,37021,315786,150049,248.585,1.904,35.537143,-82.664118
03385,"Ashland, OH Urban Cluster","Ashland, OH",UrbanCluster,39005,19274,8812,9.852,0.036,40.863589,-82.317007
03395,"Ashland, PA Urban Cluster","Ashland, PA",UrbanCluster,42107,6936,3264,1.419,0.0,40.772142,-76.320872
03412,"Ashland, WI Urban Cluster","Ashland, WI",UrbanCluster,55003,6848,3275,4.223,0.001,46.578646,-90.881298
03466,"Ashtabula, OH Urban Cluster","Ashtabula, OH",UrbanCluster,39007,27573,14071,21.69,0.18,41.877017,-80.78496
03493,"Ashville, OH Urban Cluster","Ashville, OH",UrbanCluster,39129,7142,2664,3.807,0.0,39.718519,-82.967109
03520,"Aspen, CO Urban Cluster","Aspen, CO",UrbanCluster,08097,7898,6262,5.212,0.0,39.199234,-106.840252
03547,"Astoria, OR Urban Cluster","Astoria, OR",UrbanCluster,41007,14475,7003,9.669,0.13,46.17404,-123.835724
03601,"Atchison, KS--MO Urban Cluster","Atchison, KS",UrbanCluster,20005,10890,4289,5.385,0.044,39.570588,-95.137251
03655,"Athens, AL Urban Cluster","Athens, AL",UrbanCluster,01083,26566,11593,20.092,0.115,34.811825,-86.952175
03682,"Athens, OH Urban Cluster","Athens, OH",UrbanCluster,39009,27450,9838,9.453,0.144,39.327239,-82.111599
03709,"Athens, TN Urban Cluster","Athens, TN",UrbanCluster,47107,16262,7259,15.473,0.0,35.448059,-84.600203
03736,"Athens, TX Urban Cluster","Athens, TX",UrbanCluster,48213,12336,4708,9.32,0.025,32.201604,-95.847373
03763,"Athens-Clarke County, GA Urbanized Area","Athens, GA Urbanized Area",UrbanizedArea,13059,140120,58915,91.847,0.937,33.942089,-83.398272
03790,"Athol, MA Urban Cluster","Athol, MA",UrbanCluster,25027,12756,6051,10.611,0.461,42.573322,-72.296365
03817,"Atlanta, GA Urbanized Area","Atlanta, GA Urbanized Area",UrbanizedArea,13121,5154818,2047610,2450.521,36.379,33.824102,-84.331858
03844,"Atlanta, TX Urban Cluster","Atlanta, TX",UrbanCluster,48067,5170,2490,6.809,0.038,33.125525,-94.167911
03871,"Atlantic, IA Urban Cluster","Atlantic, IA",UrbanCluster,19029,6111,3157,4.492,0.044,41.398446,-95.006333
03925,"Atmore, AL Urban Cluster","Atmore, AL",UrbanCluster,01053,6193,3325,5.104,0.02,31.021931,-87.487418
03957,"Atoka, TN Urban Cluster","Atoka, TN",UrbanCluster,47167,20662,7856,9.925,0.028,35.429295,-89.802671
04021,"Aubrey, TX Urban Cluster","Aubrey, TX",UrbanCluster,48121,5305,2051,2.74,0.004,33.288094,-96.989684
04033,"Auburn, AL Urbanized Area","Auburn, AL Urbanized Area",UrbanizedArea,01081,86294,39723,61.156,0.569,32.614294,-85.443932
04060,"Auburn, IN Urban Cluster","Auburn, IN",UrbanCluster,18033,22092,9674,9.883,0.0,41.369662,-85.070751
04114,"Auburn, NY Urban Cluster","Auburn, NY",UrbanCluster,36011,31038,15190,13.139,0.082,42.926811,-76.561994
04130,"Auburn--North Auburn, CA Urban Cluster","Auburn, CA",UrbanCluster,06061,35443,15547,17.239,0.009,38.932512,-121.079665
04168,"Augusta, KS Urban Cluster","Augusta, KS",UrbanCluster,20015,9263,4031,3.716,0.268,37.69194,-96.973193
04195,"Augusta, ME Urban Cluster","Augusta, ME",UrbanCluster,23011,22522,11980,21.918,0.723,44.265201,-69.782274
04222,"Augusta-Richmond County, GA--SC Urbanized Area","Augusta, GA",UrbanizedArea,13245,403979,176054,273.292,2.224,33.487951,-81.996378
04276,"Aurora, MO Urban Cluster","Aurora, MO",UrbanCluster,29109,8404,3899,5.278,0.016,36.967117,-93.730413
04357,"Austin, MN Urban Cluster","Austin, MN",UrbanCluster,27099,26022,11099,10.047,0.098,43.671232,-92.977883
04384,"Austin, TX Urbanized Area","Austin, TX Urbanized Area",UrbanizedArea,48453,1640207,695214,619.621,4.895,30.358514,-97.761533
04438,"Avalon, CA Urban Cluster","Avalon, CA",UrbanCluster,06037,3477,2204,1.189,0.0,33.341576,-118.328755
04465,"Avenal, CA Urban Cluster","Avenal, CA",UrbanCluster,06031,13881,3168,3.629,0.0,35.993165,-120.126356
04587,"Aztec, NM Urban Cluster","Aztec, NM",UrbanCluster,35045,7668,3535,6.783,0.102,36.833998,-107.996013
04627,"Bainbridge, GA Urban Cluster","Bainbridge, GA",UrbanCluster,13087,13222,5961,10.676,0.237,30.90486,-84.564687
04654,"Baker City, OR Urban Cluster","Baker City, OR",UrbanCluster,41001,9882,4432,4.479,0.0,44.783476,-117.82877
04681,"Bakersfield, CA Urbanized Area","Bakersfield, CA Urbanized Area",UrbanizedArea,06029,569629,185327,132.121,0.983,35.362282,-119.030559
04843,"Baltimore, MD Urbanized Area","Baltimore, MD Urbanized Area",UrbanizedArea,24005,2304171,979043,654.935,21.539,39.234099,-76.64776
04924,"Bandon, OR Urban Cluster","Bandon, OR",UrbanCluster,41011,3193,2128,4.867,0.016,43.113779,-124.415518
04951,"Bangor, ME Urbanized Area","Bangor, ME Urbanized Area",UrbanizedArea,23019,58700,27169,51.116,1.862,44.835625,-68.746629
05005,"Baraboo, WI Urban Cluster","Baraboo, WI",UrbanCluster,55111,13479,6482,6.764,0.083,43.46854,-89.748766
05032,"Barbourville, KY Urban Cluster","Barbourville, KY",UrbanCluster,21121,5593,2753,5.297,0.028,36.860165,-83.855347
05059,"Bardstown, KY Urban Cluster","Bardstown, KY",UrbanCluster,21179,20399,8487,13.37,0.105,37.835762,-85.466
05113,"Barnesville, GA Urban Cluster","Barnesville, GA",UrbanCluster,13171,7072,2942,5.814,0.042,33.052313,-84.154709
05167,"Barnstable Town, MA Urbanized Area","Barnstable Town, MA Urbanized Area",UrbanizedArea,25001,260195,167127,341.279,34.86,41.625166,-70.576098
05221,"Barre--Montpelier, VT Urban Cluster","Barre, VT",UrbanCluster,50023,21525,10786,14.39,0.16,44.198429,-72.517883
05302,"Barstow, CA Urban Cluster","Barstow, CA",UrbanCluster,06071,31219,11955,12.382,0.0,34.888012,-117.038396
05329,"Bartlesville, OK Urban Cluster","Bartlesville, OK",UrbanCluster,40147,39941,18221,19.761,0.012,36.745387,-95.956299
05410,"Basalt--El Jebel, CO Urban Cluster","Basalt, CO",UrbanCluster,08037,9123,3733,3.642,0.027,39.388924,-107.087515
05437,"Bastrop, LA Urban Cluster","Bastrop, LA",UrbanCluster,22067,11903,5393,10.328,0.041,32.776783,-91.913851
05464,"Bastrop, TX Urban Cluster","Bastrop, TX",UrbanCluster,48021,17506,6762,18.131,0.24,30.100767,-97.282499
05491,"Batavia, NY Urban Cluster","Batavia, NY",UrbanCluster,36037,16606,8264,8.069,0.046,43.002665,-78.177406
05518,"Batesburg-Leesville, SC Urban Cluster","Batesburg, SC",UrbanCluster,45063,4840,2173,5.6,0.063,33.908055,-81.510262
05545,"Batesville, AR Urban Cluster","Batesville, AR",UrbanCluster,05063,12833,5346,7.843,0.009,35.7706,-91.633541
05572,"Batesville, IN Urban Cluster","Batesville, IN",UrbanCluster,18137,8495,3422,5.474,0.068,39.297672,-85.199542
05599,"Batesville, MS Urban Cluster","Batesville, MS",UrbanCluster,28107,7752,2841,6.28,0.0,34.304023,-89.942156
05653,"Bath, NY Urban Cluster","Bath, NY",UrbanCluster,36101,6721,3585,2.905,0.095,42.34625,-77.31417
05680,"Baton Rouge, LA Urbanized Area","Baton Rouge, LA Urbanized Area",UrbanizedArea,22033,617645,265272,396.341,4.367,30.427916,-91.038968
05707,"Battle Creek, MI Urbanized Area","Battle Creek, MI Urbanized Area",UrbanizedArea,26025,78682,35890,47.332,1.602,42.31374,-85.197926
05734,"Battlement Mesa, CO Urban Cluster","Battlement Mesa, CO",UrbanCluster,08045,6398,2818,3.064,0.022,39.453934,-108.05174
05788,"Baxley, GA Urban Cluster","Baxley, GA",UrbanCluster,13001,5406,2539,6.259,0.005,31.771186,-82.346883
05842,"Bayard, NM Urban Cluster","Bayard, NM",UrbanCluster,35017,3862,2005,3.114,0.025,32.764691,-108.140065
05869,"Bay City, MI Urbanized Area","Bay City, MI Urbanized Area",UrbanizedArea,26017,67627,32396,39.932,1.139,43.608667,-83.890414
05896,"Bay City, TX Urban Cluster","Bay City, TX",UrbanCluster,48321,17949,8105,10.414,0.016,28.980707,-95.954967
05923,"Bay Minette, AL Urban Cluster","Bay Minette, AL",UrbanCluster,01003,7418,2518,6.955,0.055,30.883529,-87.775532
05958,"Bealeton, VA Urban Cluster","Bealeton, VA",UrbanCluster,51061,5783,2077,4.369,0.008,38.567378,-77.786511
05977,"Beardstown, IL Urban Cluster","Beardstown, IL",UrbanCluster,17017,6236,2575,2.139,0.037,40.013495,-90.423833
06004,"Beatrice, NE Urban Cluster","Beatrice, NE",UrbanCluster,31067,11897,6025,8.691,0.065,40.267398,-96.743305
06031,"Beaufort--Port Royal, SC Urban Cluster","Beaufort, SC",UrbanCluster,45013,52778,20594,43.76,0.548,32.423368,-80.716463
06058,"Beaumont, TX Urbanized Area","Beaumont, TX Urbanized Area",UrbanizedArea,48245,145988,65950,96.099,1.474,30.11918,-94.127119
06085,"Beaver Dam, KY Urban Cluster","Beaver Dam, KY",UrbanCluster,21183,6382,2654,3.402,0.009,37.398456,-86.873995
06112,"Beaver Dam, WI Urban Cluster","Beaver Dam, WI",UrbanCluster,55027,18195,8661,9.384,0.028,43.465787,-88.83322
06139,"Beckley, WV Urbanized Area","Beckley, WV Urbanized Area",UrbanizedArea,54081,58340,27354,53.636,0.167,37.789184,-81.229955
06166,"Bedford, IN Urban Cluster","Bedford, IN",UrbanCluster,18093,15333,7590,8.508,0.001,38.856653,-86.501238
06193,"Bedford, PA Urban Cluster","Bedford, PA",UrbanCluster,42009,4414,2051,3.838,0.104,40.024894,-78.505088
06220,"Bedford, VA Urban Cluster","Bedford, VA",UrbanCluster,51019,7030,3449,8.576,0.012,37.338355,-79.525928
06247,"Beebe, AR Urban Cluster","Beebe, AR",UrbanCluster,05145,7398,3213,4.474,0.0,35.069159,-91.89306
06274,"Beeville, TX Urban Cluster","Beeville, TX",UrbanCluster,48025,17495,6183,6.313,0.0,28.389755,-97.732662
06301,"Belding, MI Urban Cluster","Belding, MI",UrbanCluster,26067,6079,2129,2.908,0.06,43.096485,-85.233029
06335,"Belfair, WA Urban Cluster","Belfair, WA",UrbanCluster,53045,3770,1790,5.349,0.001,47.448543,-122.857433
06355,"Belfast, ME Urban Cluster","Belfast, ME",UrbanCluster,23027,3864,2350,3.522,0.018,44.423628,-69.005594
06382,"Belgrade, MT Urban Cluster","Belgrade, MT",UrbanCluster,30031,16198,6540,13.349,0.041,45.7825,-111.185972
06436,"Bellefontaine, OH Urban Cluster","Bellefontaine, OH",UrbanCluster,39091,13557,6579,6.211,0.0,40.359128,-83.752853
06463,"Bellefonte, PA Urban Cluster","Bellefonte, PA",UrbanCluster,42027,12417,5940,7.84,0.0,40.902511,-77.69529
06490,"Belle Fourche, SD Urban Cluster","Belle Fourche, SD",UrbanCluster,46019,4649,2391,2.86,0.0,44.66496,-103.850211
06517,"Belle Glade, FL Urban Cluster","Belle Glade, FL",UrbanCluster,12099,24685,7798,7.21,0.0,26.684083,-80.678914
06571,"Belle Plaine, MN Urban Cluster","Belle Plaine, MN",UrbanCluster,27139,6038,2216,3.549,0.0,44.620101,-93.764602
06625,"Bellevue, OH Urban Cluster","Bellevue, OH",UrbanCluster,39143,8507,3737,4.47,0.07,41.277074,-82.84458
06652,"Bellingham, WA Urbanized Area","Bellingham, WA Urbanized Area",UrbanizedArea,53073,127038,56230,50.132,2.915,48.77284,-122.476127
06679,"Bellows Falls, VT--NH Urban Cluster","Bellows Falls, VT",UrbanCluster,50025,4674,2616,2.421,0.046,43.123565,-72.446704
06760,"Beloit, WI--IL Urbanized Area","Beloit, WI",UrbanizedArea,55105,63336,25814,31.936,0.836,42.509483,-89.026108
06770,"Belterra, TX Urban Cluster","Belterra, TX",UrbanCluster,48209,8330,2221,3.359,0.0,30.186319,-98.001924
06779,"Belton, SC Urban Cluster","Belton, SC",UrbanCluster,45007,5455,2328,4.562,0.011,34.528131,-82.498225
06841,"Bemidji, MN Urban Cluster","Bemidji, MN",UrbanCluster,27007,14051,6392,14.459,1.045,47.480112,-94.883524
06868,"Bend, OR Urbanized Area","Bend, OR Urbanized Area",UrbanizedArea,41017,104314,46302,42.407,0.304,44.049108,-121.31202
06895,"Bennettsville, SC Urban Cluster","Bennettsville, SC",UrbanCluster,45069,10896,4595,7.47,0.494,34.628218,-79.685958
06922,"Bennington, VT Urban Cluster","Bennington, VT",UrbanCluster,50003,12653,5427,11.633,0.116,42.892667,-73.202052
06949,"Benson, AZ Urban Cluster","Benson, AZ",UrbanCluster,04003,3728,2175,2.714,0.002,31.961786,-110.294175
07030,"Benton, IL Urban Cluster","Benton, IL",UrbanCluster,17055,7274,3720,4.982,0.02,37.999962,-88.918322
07057,"Benton, KY Urban Cluster","Benton, KY",UrbanCluster,21157,4688,2376,4.127,0.055,36.851835,-88.359536
07084,"Benton, LA Urban Cluster","Benton, LA",UrbanCluster,22015,6261,2280,4.476,0.007,32.657068,-93.712465
07138,"Benton Harbor--St. Joseph--Fair Plain, MI Urbanized Area","Benton Harbor, MI Urbanized Area",UrbanizedArea,26021,60718,28163,52.528,1.244,42.068719,-86.470022
07165,"Berea, KY Urban Cluster","Berea, KY",UrbanCluster,21151,17681,6842,11.478,0.052,37.583562,-84.293019
07192,"Berlin, NH Urban Cluster","Berlin, NH",UrbanCluster,33007,10036,5320,4.944,0.174,44.4618,-71.173026
07219,"Berlin, WI Urban Cluster","Berlin, WI",UrbanCluster,55047,4912,2212,3.455,0.013,43.971548,-88.945505
07300,"Berryville, AR Urban Cluster","Berryville, AR",UrbanCluster,05015,4994,2140,4.182,0.0,36.370598,-93.565725
07381,"Bethel, AK Urban Cluster","Bethel, AK",UrbanCluster,02050,4676,1840,15.0,0.252,60.79492,-161.782459
07508,"Big Bear City, CA Urban Cluster","Big Bear City, CA",UrbanCluster,06071,16267,20826,15.929,0.214,34.246421,-116.879711
07597,"Big Pine Key, FL Urban Cluster","Big Pine Key, FL",UrbanCluster,12087,9288,5887,8.463,0.254,24.665134,-81.415457
07624,"Big Rapids, MI Urban Cluster","Big Rapids, MI",UrbanCluster,26107,12544,5054,7.343,0.059,43.686852,-85.473265
07651,"Big Spring, TX Urban Cluster","Big Spring, TX",UrbanCluster,48227,27133,10631,20.643,0.234,32.244366,-101.470756
07678,"Big Stone Gap, VA Urban Cluster","Big Stone Gap, VA",UrbanCluster,51195,7515,3254,6.581,0.089,36.872896,-82.760604
07705,"Billings, MT Urbanized Area","Billings, MT Urbanized Area",UrbanizedArea,30111,121419,53583,54.7,0.137,45.79132,-108.53184
07732,"Binghamton, NY--PA Urbanized Area","Binghamton, NY",UrbanizedArea,36007,155341,72610,69.729,3.066,42.105366,-75.962775
07759,"Birch Bay, WA Urban Cluster","Birch Bay, WA",UrbanCluster,53073,15475,8232,13.056,0.152,48.955394,-122.756978
07786,"Birmingham, AL Urbanized Area","Birmingham, AL Urbanized Area",UrbanizedArea,01073,770926,346738,509.272,3.591,33.469107,-86.791974
07813,"Bisbee, AZ Urban Cluster","Bisbee, AZ",UrbanCluster,04003,4872,3271,3.153,0.0,31.392958,-109.920071
07840,"Bishop, CA Urban Cluster","Bishop, CA",UrbanCluster,06027,10284,4785,5.49,0.007,37.365976,-118.415939
07921,"Bismarck, ND Urbanized Area","Bismarck, ND Urbanized Area",UrbanizedArea,38015,89831,41906,41.854,0.404,46.819848,-100.801005
07948,"Blackfoot, ID Urban Cluster","Blackfoot, ID",UrbanCluster,16011,15975,5820,7.513,0.177,43.202054,-112.385721
07975,"Black River Falls, WI Urban Cluster","Black River Falls, WI",UrbanCluster,55053,5555,2310,3.704,0.003,44.305087,-90.837473
08002,"Blacksburg, VA Urbanized Area","Blacksburg, VA Urbanized Area",UrbanizedArea,51121,91162,36837,33.979,0.052,37.123135,-80.425487
08083,"Blackwell, OK Urban Cluster","Blackwell, OK",UrbanCluster,40071,5671,2861,3.844,0.007,36.800152,-97.292525
08137,"Blair, NE Urban Cluster","Blair, NE",UrbanCluster,31177,7529,3053,8.181,0.0,41.544787,-96.132515
08164,"Blairsville, PA Urban Cluster","Blairsville, PA",UrbanCluster,42063,6371,3143,5.221,0.002,40.443685,-79.227554
08353,"Bloomfield, NM Urban Cluster","Bloomfield, NM",UrbanCluster,35045,8975,3597,6.248,0.034,36.711895,-107.985408
08380,"Bloomington, IN Urbanized Area","Bloomington, IN Urbanized Area",UrbanizedArea,18105,110866,49812,43.036,0.005,39.162837,-86.547994
08407,"Bloomington--Normal, IL Urbanized Area","Bloomington, IL Urbanized Area",UrbanizedArea,17113,133165,58870,50.362,0.221,40.493771,-88.978991
08434,"Bloomsburg--Berwick, PA Urbanized Area","Bloomsburg, PA Urbanized Area",UrbanizedArea,42037,52001,23848,20.745,0.535,41.016958,-76.41213
08515,"Bluefield, WV--VA Urban Cluster","Bluefield, WV",UrbanCluster,54055,42729,21374,38.699,0.139,37.246314,-81.315474
08542,"Bluffton, IN Urban Cluster","Bluffton, IN",UrbanCluster,18179,10584,4789,6.504,0.077,40.751051,-85.171967
08623,"Blythe, CA--AZ Urban Cluster","Blythe, CA",UrbanCluster,06065,10929,4671,6.201,0.043,33.611802,-114.586127
08650,"Blytheville, AR Urban Cluster","Blytheville, AR",UrbanCluster,05093,15667,7853,14.532,0.0,35.930824,-89.924217
08704,"Boerne, TX Urban Cluster","Boerne, TX",UrbanCluster,48259,13528,5353,9.651,0.0,29.781981,-98.726876
08731,"Bogalusa, LA Urban Cluster","Bogalusa, LA",UrbanCluster,22117,10708,5284,10.903,0.03,30.780619,-89.86476
08785,"Boise City, ID Urbanized Area","Boise City, ID Urbanized Area",UrbanizedArea,16001,410752,167915,139.23,1.939,43.617778,-116.292083
08812,"Bolivar, MO Urban Cluster","Bolivar, MO",UrbanCluster,29167,9949,4073,5.916,0.008,37.606697,-93.416709
08866,"Bolivar, TN Urban Cluster","Bolivar, TN",UrbanCluster,47069,5190,2505,4.741,0.0,35.259925,-88.995167
08920,"Bonham, TX Urban Cluster","Bonham, TX",UrbanCluster,48147,9028,3478,5.029,0.0,33.587998,-96.18404
08974,"Bonita Springs, FL Urbanized Area","Bonita Springs, FL Urbanized Area",UrbanizedArea,12021,342105,228892,242.959,21.019,26.210693,-81.744767
09028,"Boone, IA Urban Cluster","Boone, IA",UrbanCluster,19015,12544,5586,7.609,0.001,42.056678,-93.880624
09055,"Boone, NC Urban Cluster","Boone, NC",UrbanCluster,37189,22323,8446,18.187,0.068,36.212612,-81.655498
09109,"Booneville, MS Urban Cluster","Booneville, MS",UrbanCluster,28117,5274,2368,6.37,0.01,34.658157,-88.55443
09163,"Boonville, IN Urban Cluster","Boonville, IN",UrbanCluster,18173,5921,2821,2.829,0.013,38.046357,-87.272626
09190,"Boonville, MO Urban Cluster","Boonville, MO",UrbanCluster,29053,8848,3692,5.824,0.022,38.97186,-92.746653
09217,"Borger, TX Urban Cluster","Borger, TX",UrbanCluster,48233,12620,6137,9.417,0.02,35.666797,-101.399608
09271,"Boston, MA--NH--RI Urbanized Area","Boston, MA",UrbanizedArea,25017,4507488,1838159,1655.887,71.69,42.373866,-71.14099
09298,"Boulder, CO Urbanized Area","Boulder, CO Urbanized Area",UrbanizedArea,08013,122019,52888,25.449,0.253,40.027135,-105.23905
09325,"Boulder City, NV Urban Cluster","Boulder City, NV",UrbanCluster,32003,13641,6741,5.724,0.0,35.971082,-114.842412
09352,"Bowie, TX Urban Cluster","Bowie, TX",UrbanCluster,48337,5127,2420,4.315,0.018,33.558499,-97.843269
09379,"Bowling Green, KY Urbanized Area","Bowling Green, KY Urbanized Area",UrbanizedArea,21227,92824,38602,52.176,0.293,36.95549,-86.439507
09433,"Bowling Green, OH Urban Cluster","Bowling Green, OH",UrbanCluster,39173,30657,12531,11.338,0.064,41.375434,-83.64958
09460,"Box Elder, SD Urban Cluster","Box Elder, SD",UrbanCluster,46103,10163,3870,6.083,0.0,44.128984,-103.076838
09487,"Boyne City, MI Urban Cluster","Boyne City, MI",UrbanCluster,26029,3541,2159,5.316,0.066,45.212106,-85.01253
09514,"Bozeman, MT Urban Cluster","Bozeman, MT",UrbanCluster,30031,52801,23044,21.393,0.053,45.683919,-111.057553
09541,"Bradford, PA--NY Urban Cluster","Bradford, PA",UrbanCluster,42083,11281,5013,5.743,0.112,41.960558,-78.643265
09568,"Brady, TX Urban Cluster","Brady, TX",UrbanCluster,48307,5090,2502,2.926,0.008,31.130533,-99.33716
09622,"Brainerd, MN Urban Cluster","Brainerd, MN",UrbanCluster,27035,20596,9257,16.139,1.006,46.358835,-94.219552
09649,"Brandon, SD Urban Cluster","Brandon, SD",UrbanCluster,46099,9190,3620,4.682,0.003,43.592577,-96.575056
09676,"Branson, MO Urban Cluster","Branson, MO",UrbanCluster,29213,24574,13575,34.834,0.443,36.637268,-93.246397
09703,"Brattleboro, VT--NH Urban Cluster","Brattleboro, VT",UrbanCluster,50025,9854,5070,5.727,0.039,42.849383,-72.580475
09730,"Brawley, CA Urban Cluster","Brawley, CA",UrbanCluster,06025,26359,8680,4.763,0.0,32.977987,-115.531845
09801,"Breaux Bridge, LA Urban Cluster","Breaux Bridge, LA",UrbanCluster,22099,16450,6884,21.265,0.308,30.277915,-91.881727
09811,"Breckenridge, CO Urban Cluster","Breckenridge, CO",UrbanCluster,08117,8850,8800,11.15,0.0,39.483411,-106.042423
09838,"Breckenridge, TX Urban Cluster","Breckenridge, TX",UrbanCluster,48429,5373,2504,4.847,0.004,32.756691,-98.909375
09865,"Breese, IL Urban Cluster","Breese, IL",UrbanCluster,17027,5531,2422,2.343,0.0,38.592503,-89.532017
09892,"Bremen, GA Urban Cluster","Bremen, GA",UrbanCluster,13143,6802,2823,7.376,0.008,33.719958,-85.145976
09946,"Bremerton, WA Urbanized Area","Bremerton, WA Urbanized Area",UrbanizedArea,53035,218006,89303,146.91,31.859,47.61591,-122.62618
09973,"Brenham, TX Urban Cluster","Brenham, TX",UrbanCluster,48477,16861,6894,10.264,0.031,30.15986,-96.39592
10027,"Brevard, NC Urban Cluster","Brevard, NC",UrbanCluster,37175,12783,6600,13.821,0.004,35.229587,-82.73134
10081,"Brewton, AL Urban Cluster","Brewton, AL",UrbanCluster,01053,7164,3144,6.258,0.02,31.106961,-87.063628
10162,"Bridgeport--Stamford, CT--NY Urbanized Area","Bridgeport, CT",UrbanizedArea,09001,954562,380556,397.292,10.881,41.135301,-73.534002
10189,"Bridgeton, NJ Urban Cluster","Bridgeton, NJ",UrbanCluster,34011,35461,10786,12.164,0.186,39.441365,-75.223477
10351,"Bristol--Bristol, TN--VA Urbanized Area","Bristol, TN",UrbanizedArea,47163,68511,32486,68.687,0.178,36.604532,-82.152878
10405,"Broadway, VA Urban Cluster","Broadway, VA",UrbanCluster,51165,6791,2763,3.599,0.029,38.619193,-78.790027
10418,"Brockport, NY Urban Cluster","Brockport, NY",UrbanCluster,36055,18009,6858,6.424,0.054,43.225521,-77.926506
10567,"Brookfield, MO Urban Cluster","Brookfield, MO",UrbanCluster,29115,3689,2003,3.213,0.009,39.783508,-93.076913
10594,"Brookhaven, MS Urban Cluster","Brookhaven, MS",UrbanCluster,28085,10356,4879,10.035,0.023,31.594337,-90.440219
10621,"Brookings, OR Urban Cluster","Brookings, OR",UrbanCluster,41015,11135,5857,7.15,0.127,42.052622,-124.268979
10648,"Brookings, SD Urban Cluster","Brookings, SD",UrbanCluster,46011,23564,9726,11.098,0.0,44.300495,-96.784517
10810,"Brookville, PA Urban Cluster","Brookville, PA",UrbanCluster,42065,4628,2058,3.64,0.082,41.162035,-79.081363
10837,"Brownfield, TX Urban Cluster","Brownfield, TX",UrbanCluster,48445,8904,3611,4.357,0.012,33.17654,-102.274007
10891,"Browns Mills--Fort Dix, NJ Urban Cluster","Browns Mills, NJ",UrbanCluster,34005,37685,12848,17.328,0.569,40.020342,-74.590238
10945,"Brownsville, TN Urban Cluster","Brownsville, TN",UrbanCluster,47075,8826,3920,7.387,0.0,35.596434,-89.261002
10972,"Brownsville, TX Urbanized Area","Brownsville, TX Urbanized Area",UrbanizedArea,48061,224487,73483,62.102,2.418,25.966448,-97.473579
10999,"Brownwood, TX Urban Cluster","Brownwood, TX",UrbanCluster,48049,22186,9524,13.539,0.0,31.709805,-98.972802
11026,"Brunswick, GA Urbanized Area","Brunswick, GA Urbanized Area",UrbanizedArea,13127,52428,22574,59.007,1.335,31.215376,-81.505347
11040,"Brunswick, ME Urban Cluster","Brunswick, ME",UrbanCluster,23005,31279,14348,26.757,1.548,43.911044,-69.927941
11053,"Brunswick, MD--VA Urban Cluster","Brunswick, MD",UrbanCluster,24021,11311,4190,3.64,0.002,39.311437,-77.629018
11080,"Brush, CO Urban Cluster","Brush, CO",UrbanCluster,08087,5650,2271,2.52,0.0,40.259204,-103.630863
11107,"Bryan, OH Urban Cluster","Bryan, OH",UrbanCluster,39171,10247,4801,5.076,0.007,41.473955,-84.550698
11134,"Buckeye, AZ Urban Cluster","Buckeye, AZ",UrbanCluster,04013,26135,8228,7.782,0.0,33.39047,-112.583202
11161,"Buckhannon, WV Urban Cluster","Buckhannon, WV",UrbanCluster,54097,8763,3705,6.511,0.0,38.985426,-80.225753
11215,"Bucyrus, OH Urban Cluster","Bucyrus, OH",UrbanCluster,39033,11809,5795,6.856,0.0,40.803787,-82.97168
11242,"Buena Vista, CO Urban Cluster","Buena Vista, CO",UrbanCluster,08015,4367,1777,5.138,0.034,38.831576,-106.132975
11269,"Buena Vista, VA Urban Cluster","Buena Vista, VA",UrbanCluster,51530,6672,2922,4.046,0.001,37.735113,-79.35429
11296,"Buffalo, MN Urban Cluster","Buffalo, MN",UrbanCluster,27171,16603,6860,8.181,1.21,45.181505,-93.864235
11350,"Buffalo, NY Urbanized Area","Buffalo, NY Urbanized Area",UrbanizedArea,36029,963082,450087,340.502,3.067,42.92493,-78.823675
11377,"Buffalo, WY Urban Cluster","Buffalo, WY",UrbanCluster,56019,3965,2155,3.283,0.0,44.350191,-106.701248
11431,"Bullhead City, AZ--NV Urban Cluster","Bullhead City, AZ",UrbanCluster,04015,50928,28213,35.394,0.559,35.05296,-114.589825
11593,"Burkburnett, TX Urban Cluster","Burkburnett, TX",UrbanCluster,48485,9449,4407,6.482,0.0,34.082822,-98.569269
11620,"Burley, ID Urban Cluster","Burley, ID",UrbanCluster,16031,16977,6319,9.546,0.695,42.549818,-113.779147
11674,"Burlington, IA--IL Urban Cluster","Burlington, IA",UrbanCluster,19057,27629,13798,21.116,0.087,40.813742,-91.132613
11728,"Burlington, NC Urbanized Area","Burlington, NC Urbanized Area",UrbanizedArea,37001,138955,59559,92.018,0.792,36.078968,-79.408365
11755,"Burlington, VT Urbanized Area","Burlington, VT Urbanized Area",UrbanizedArea,50007,116683,50170,62.014,0.996,44.474036,-73.147918
11782,"Burlington, WI Urban Cluster","Burlington, WI",UrbanCluster,55101,24277,10897,12.709,1.233,42.70475,-88.243832
11809,"Burnet, TX Urban Cluster","Burnet, TX",UrbanCluster,48053,5552,1820,3.571,0.021,30.750602,-98.238192
11863,"Burns, OR Urban Cluster","Burns, OR",UrbanCluster,41025,4560,2100,3.019,0.0,43.582716,-119.055178
11872,"Burnt Store Marina, FL Urban Cluster","Burnt Store Marina, FL",UrbanCluster,12015,3735,3009,4.265,0.319,26.772214,-82.044248
11890,"Bushnell, FL Urban Cluster","Bushnell, FL",UrbanCluster,12119,3733,1865,2.823,0.0,28.667721,-82.116602
11998,"Butler, PA Urban Cluster","Butler, PA",UrbanCluster,42019,39970,19765,28.463,0.147,40.863328,-79.924443
12052,"Butte-Silver Bow, MT Urban Cluster","Butte, MT",UrbanCluster,30093,30775,15284,15.287,0.0,45.983534,-112.516453
12079,"Byron, IL Urban Cluster","Byron, IL",UrbanCluster,17141,7330,2884,3.323,0.26,42.141192,-89.264201
12106,"Byron, MN Urban Cluster","Byron, MN",UrbanCluster,27109,5797,2213,3.087,0.0,44.038031,-92.64384
12160,"Cadillac, MI Urban Cluster","Cadillac, MI",UrbanCluster,26165,12245,5950,10.862,1.945,44.248143,-85.415876
12241,"Cairo, GA Urban Cluster","Cairo, GA",UrbanCluster,13131,9742,4088,8.013,0.089,30.876091,-84.205905
12457,"Calhoun, GA Urban Cluster","Calhoun, GA",UrbanCluster,13129,30792,11490,20.391,0.055,34.479895,-84.920398
12646,"Calistoga, CA Urban Cluster","Calistoga, CA",UrbanCluster,06055,5267,2300,2.287,0.018,38.581408,-122.582696
12754,"Camarillo, CA Urbanized Area","Camarillo, CA Urbanized Area",UrbanizedArea,06111,76966,29288,22.479,0.017,34.231343,-119.034716
12781,"Cambria, CA Urban Cluster","Cambria, CA",UrbanCluster,06079,5152,4021,2.735,0.0,35.559273,-121.091551
12808,"Cambridge, MD Urban Cluster","Cambridge, MD",UrbanCluster,24019,14992,7613,8.651,0.14,38.562477,-76.077314
12835,"Cambridge, MN Urban Cluster","Cambridge, MN",UrbanCluster,27059,16413,6737,5.941,0.228,45.534249,-93.234418
12862,"Cambridge, OH Urban Cluster","Cambridge, OH",UrbanCluster,39059,14137,7038,10.976,0.05,40.0172,-81.578958
12916,"Camden, AR Urban Cluster","Camden, AR",UrbanCluster,05103,9587,4922,11.05,0.0,33.559942,-92.845911
12943,"Camden, ME Urban Cluster","Camden, ME",UrbanCluster,23013,4004,2426,4.067,0.119,44.206573,-69.08143
13024,"Camdenton, MO Urban Cluster","Camdenton, MO",UrbanCluster,29029,3521,1248,8.87,0.0,38.005994,-92.75846
13051,"Cameron, MO Urban Cluster","Cameron, MO",UrbanCluster,29049,8905,2776,4.507,0.033,39.742652,-94.238676
13078,"Cameron, TX Urban Cluster","Cameron, TX",UrbanCluster,48331,5102,1968,3.502,0.0,30.858561,-96.97842
13132,"Camilla, GA Urban Cluster","Camilla, GA",UrbanCluster,13205,6411,2079,4.744,0.013,31.215095,-84.188357
13159,"Campbellsville, KY Urban Cluster","Campbellsville, KY",UrbanCluster,21217,11991,5349,8.491,0.119,37.352554,-85.346495
13170,"Camp Verde, AZ Urban Cluster","Camp Verde, AZ",UrbanCluster,04025,6180,2153,5.202,0.0,34.589321,-111.874504
13221,"Canby, OR Urban Cluster","Canby, OR",UrbanCluster,41005,18075,6815,5.898,0.002,45.26509,-122.688395
13267,"Cañon City, CO Urban Cluster","Cañon City, CO",UrbanCluster,08043,29466,11369,15.919,0.012,38.438739,-105.212346
13294,"Canton, IL Urban Cluster","Canton, IL",UrbanCluster,17057,13608,6000,5.423,0.0,40.564312,-90.03258
13321,"Canton, MS Urban Cluster","Canton, MS",UrbanCluster,28089,13493,6310,23.707,1.547,32.571965,-90.066531
13348,"Canton, NY Urban Cluster","Canton, NY",UrbanCluster,36089,7041,2084,2.218,0.092,44.596384,-75.163582
13375,"Canton, OH Urbanized Area","Canton, OH Urbanized Area",UrbanizedArea,39151,278672,127286,180.194,1.251,40.826652,-81.429851
13456,"Canyon, TX Urban Cluster","Canyon, TX",UrbanCluster,48381,13561,5257,7.324,0.026,34.983283,-101.91869
13483,"Canyon Lake, TX Urban Cluster","Canyon Lake, TX",UrbanCluster,48091,6418,3924,9.235,0.015,29.867717,-98.275628
13510,"Cape Coral, FL Urbanized Area","Cape Coral, FL Urbanized Area",UrbanizedArea,12071,640059,334005,331.801,39.273,26.60259,-81.842332
13537,"Cape Girardeau, MO--IL Urbanized Area","Cape Girardeau, MO",UrbanizedArea,29031,55079,24572,31.217,0.047,37.332339,-89.585745
13564,"Carbondale, CO Urban Cluster","Carbondale, CO",UrbanCluster,08045,7531,3177,2.638,0.0,39.397472,-107.215883
13591,"Carbondale, IL Urbanized Area","Carbondale, IL Urbanized Area",UrbanizedArea,17077,63366,33196,21.665,0.496,37.748873,-89.065603
13699,"Carlinville, IL Urban Cluster","Carlinville, IL",UrbanCluster,17117,5872,2453,2.987,0.0,39.279166,-89.880261
13807,"Carlsbad, NM Urban Cluster","Carlsbad, NM",UrbanCluster,35015,34642,14803,19.475,0.254,32.399539,-104.233996
13861,"Carmi, IL Urban Cluster","Carmi, IL",UrbanCluster,17193,5302,2750,2.647,0.02,38.08674,-88.171043
13915,"Caro, MI Urban Cluster","Caro, MI",UrbanCluster,26157,4838,2349,4.543,0.0,43.493126,-83.394521
13969,"Carrizo Springs, TX Urban Cluster","Carrizo Springs, TX",UrbanCluster,48127,6204,2383,4.237,0.013,28.524139,-99.850966
13996,"Carroll, IA Urban Cluster","Carroll, IA",UrbanCluster,19027,10051,4769,4.967,0.0,42.070733,-94.863796
14023,"Carrollton, GA Urban Cluster","Carrollton, GA",UrbanCluster,13045,44815,17579,34.417,0.623,33.591408,-85.043669
14050,"Carrollton, KY Urban Cluster","Carrollton, KY",UrbanCluster,21041,4641,2131,3.516,0.024,38.686228,-85.143056
14158,"Carson City, NV Urbanized Area","Carson City, NV Urbanized Area",UrbanizedArea,32510,60748,25497,26.185,0.065,39.155541,-119.753121
14185,"Cartersville, GA Urbanized Area","Cartersville, GA Urbanized Area",UrbanizedArea,13015,57826,22523,44.422,0.035,34.188799,-84.823754
14266,"Carthage, MO Urban Cluster","Carthage, MO",UrbanCluster,29097,15935,6512,8.584,0.0,37.166721,-94.323915
14347,"Carthage, TX Urban Cluster","Carthage, TX",UrbanCluster,48365,6376,3048,7.46,0.006,32.157973,-94.342947
14374,"Caruthersville, MO Urban Cluster","Caruthersville, MO",UrbanCluster,29155,5203,2313,3.25,0.001,36.185441,-89.665252
14401,"Casa Grande, AZ Urbanized Area","Casa Grande, AZ Urbanized Area",UrbanizedArea,04021,54839,22998,21.465,0.0,32.90811,-111.739565
14482,"Casper, WY Urbanized Area","Casper, WY Urbanized Area",UrbanizedArea,56025,66186,30674,27.878,0.331,42.836277,-106.320225
14644,"Catskill, NY Urban Cluster","Catskill, NY",UrbanCluster,36039,5592,3020,6.422,0.087,42.212825,-73.869612
14698,"Cedar City, UT Urban Cluster","Cedar City, UT",UrbanCluster,49021,37645,12586,18.298,0.0,37.694516,-113.100544
14752,"Cedar Rapids, IA Urbanized Area","Cedar Rapids, IA Urbanized Area",UrbanizedArea,19113,193065,85794,86.03,0.941,41.998597,-91.663308
14806,"Cedartown, GA Urban Cluster","Cedartown, GA",UrbanCluster,13233,13594,4989,9.57,0.029,34.010658,-85.250283
14860,"Celina, OH Urban Cluster","Celina, OH",UrbanCluster,39107,11897,5617,6.087,0.07,40.553648,-84.564783
14887,"Center, TX Urban Cluster","Center, TX",UrbanCluster,48419,5135,1926,6.782,0.007,31.792979,-94.179939
14914,"Centerville, IA Urban Cluster","Centerville, IA",UrbanCluster,19007,5431,2865,3.48,0.027,40.730635,-92.870872
15022,"Centralia, IL Urban Cluster","Centralia, IL",UrbanCluster,17121,16034,7648,9.813,0.023,38.517291,-89.132952
15076,"Centralia, WA Urban Cluster","Centralia, WA",UrbanCluster,53041,43427,17690,30.389,0.313,46.729136,-122.982797
15130,"Chadron, NE Urban Cluster","Chadron, NE",UrbanCluster,31045,5197,2330,2.305,0.0,42.828507,-103.004283
15184,"Chambersburg, PA Urbanized Area","Chambersburg, PA Urbanized Area",UrbanizedArea,42055,52754,23559,34.675,0.009,39.93509,-77.645272
15211,"Champaign, IL Urbanized Area","Champaign, IL Urbanized Area",UrbanizedArea,17019,149731,68871,46.524,0.377,40.098548,-88.24774
15265,"Chanute, KS Urban Cluster","Chanute, KS",UrbanCluster,20133,8712,4018,5.798,0.011,37.676018,-95.459986
15319,"Chardon, OH Urban Cluster","Chardon, OH",UrbanCluster,39055,8960,3577,5.224,0.019,41.572344,-81.208884
15373,"Charles City, IA Urban Cluster","Charles City, IA",UrbanCluster,19067,7335,3634,4.083,0.069,43.065283,-92.67785
15400,"Charleston, IL Urban Cluster","Charleston, IL",UrbanCluster,17029,18053,8478,7.753,0.0,39.486341,-88.176077
15481,"Charleston, WV Urbanized Area","Charleston, WV Urbanized Area",UrbanizedArea,54039,144377,72331,92.922,7.965,38.379869,-81.691088
15508,"Charleston--North Charleston, SC Urbanized Area","Charleston, SC Urbanized Area",UrbanizedArea,45019,628531,279239,339.063,6.96,32.902255,-80.015543
15535,"Charlestown, IN Urban Cluster","Charlestown, IN",UrbanCluster,18019,6936,3000,4.026,0.014,38.445725,-85.673133
15589,"Charlestown, RI Urban Cluster","Charlestown, RI",UrbanCluster,44009,2890,2444,6.321,1.27,41.387832,-71.619642
15616,"Charlevoix, MI Urban Cluster","Charlevoix, MI",UrbanCluster,26029,3943,3128,4.046,0.123,45.30966,-85.251064
15643,"Charlotte, MI Urban Cluster","Charlotte, MI",UrbanCluster,26045,12859,5391,8.439,0.171,42.568394,-84.835291
15670,"Charlotte, NC--SC Urbanized Area","Charlotte, NC",UrbanizedArea,37119,1503121,621308,657.614,10.298,35.249654,-80.815826
15724,"Charlottesville, VA Urbanized Area","Charlottesville, VA Urbanized Area",UrbanizedArea,51003,104203,44248,36.873,0.296,38.057542,-78.483837
15832,"Chattanooga, TN--GA Urbanized Area","Chattanooga, TN",UrbanizedArea,47065,401635,179241,291.703,2.254,35.058501,-85.210372
15859,"Cheboygan, MI Urban Cluster","Cheboygan, MI",UrbanCluster,26031,4296,2180,6.028,0.075,45.639073,-84.476882
15913,"Chelan, WA Urban Cluster","Chelan, WA",UrbanCluster,53007,5092,3583,7.542,0.044,47.832645,-120.007327
15940,"Chelsea, MI Urban Cluster","Chelsea, MI",UrbanCluster,26161,6091,2837,3.547,0.051,42.311438,-84.017371
15967,"Cheney, WA Urban Cluster","Cheney, WA",UrbanCluster,53063,12422,5057,3.298,0.0,47.490575,-117.583325
15994,"Cheraw, SC Urban Cluster","Cheraw, SC",UrbanCluster,45025,7362,3724,7.351,0.049,34.692689,-79.914
16021,"Cherokee, IA Urban Cluster","Cherokee, IA",UrbanCluster,19035,4300,2139,3.138,0.0,42.754457,-95.551834
16075,"Cherryville, NC Urban Cluster","Cherryville, NC",UrbanCluster,37071,6367,2846,6.176,0.012,35.382722,-81.381857
16102,"Chesapeake Beach, MD Urban Cluster","Chesapeake Beach, MD",UrbanCluster,24009,26851,10091,13.091,0.162,38.730581,-76.647154
16156,"Chester, IL Urban Cluster","Chester, IL",UrbanCluster,17157,7635,2317,3.962,0.012,37.917056,-89.824157
16171,"Chester, NY Urban Cluster","Chester, NY",UrbanCluster,36071,5517,2299,4.572,0.008,41.362707,-74.278079
16183,"Chester, SC Urban Cluster","Chester, SC",UrbanCluster,45023,9541,4416,6.291,0.01,34.707497,-81.213333
16210,"Chestertown, MD Urban Cluster","Chestertown, MD",UrbanCluster,24029,7442,3540,4.42,0.022,39.214499,-76.063775
16237,"Cheyenne, WY Urbanized Area","Cheyenne, WY Urbanized Area",UrbanizedArea,56021,77462,34837,33.875,0.088,41.14109,-104.806118
16264,"Chicago, IL--IN Urbanized Area","Chicago, IL",UrbanizedArea,17031,8728576,3573442,2337.885,38.95,41.827126,-87.895427
16291,"Chickasha, OK Urban Cluster","Chickasha, OK",UrbanCluster,40051,15650,7466,9.75,0.048,35.032213,-97.952197
16318,"Chico, CA Urbanized Area","Chico, CA Urbanized Area",UrbanizedArea,06007,111474,49014,33.715,0.056,39.750248,-121.843748
16372,"Childress, TX Urban Cluster","Childress, TX",UrbanCluster,48075,4218,2202,3.222,0.014,34.427372,-100.213223
16426,"Chillicothe, MO Urban Cluster","Chillicothe, MO",UrbanCluster,29117,9321,3922,5.981,0.027,39.796065,-93.551176
16453,"Chillicothe, OH Urban Cluster","Chillicothe, OH",UrbanCluster,39141,31936,12955,16.394,0.15,39.345956,-83.005211
16561,"Chino Valley, AZ Urban Cluster","Chino Valley, AZ",UrbanCluster,04025,13003,5779,13.721,0.0,34.763811,-112.46791
16615,"Chisholm, MN Urban Cluster","Chisholm, MN",UrbanCluster,27137,4472,2012,2.182,0.027,47.487825,-92.88315
16642,"Chittenango, NY Urban Cluster","Chittenango, NY",UrbanCluster,36053,4859,1936,2.163,0.002,43.048383,-75.878237
16696,"Chowchilla, CA Urban Cluster","Chowchilla, CA",UrbanCluster,06039,11926,3594,4.825,0.046,37.112528,-120.246784
16885,"Cincinnati, OH--KY--IN Urbanized Area","Cincinnati, OH",UrbanizedArea,39061,1705175,735040,752.275,8.569,39.185506,-84.462044
16912,"Circleville, OH Urban Cluster","Circleville, OH",UrbanCluster,39129,15758,6724,7.376,0.008,39.605129,-82.937356
17047,"Clanton, AL Urban Cluster","Clanton, AL",UrbanCluster,01021,5644,2448,9.058,0.055,32.859117,-86.651536
17101,"Claremont, NH Urban Cluster","Claremont, NH",UrbanCluster,33019,9508,4421,5.982,0.02,43.374025,-72.354033
17128,"Claremore, OK Urban Cluster","Claremore, OK",UrbanCluster,40131,26505,10990,15.431,0.001,36.295445,-95.635401
17155,"Clarinda, IA Urban Cluster","Clarinda, IA",UrbanCluster,19145,5195,2025,2.358,0.0,40.739029,-95.038483
17209,"Clarion, PA Urban Cluster","Clarion, PA",UrbanCluster,42031,8102,3775,3.373,0.016,41.212332,-79.382285
17236,"Clarksburg, WV Urban Cluster","Clarksburg, WV",UrbanCluster,54033,43763,20234,21.22,0.07,39.284691,-80.329376
17263,"Clarksdale, MS Urban Cluster","Clarksdale, MS",UrbanCluster,28027,15239,7177,7.415,0.006,34.196916,-90.574511
17290,"Clarksville, AR Urban Cluster","Clarksville, AR",UrbanCluster,05071,7545,3345,7.793,0.046,35.47186,-93.474714
17317,"Clarksville, TN--KY Urbanized Area","Clarksville, TN",UrbanizedArea,47125,184846,71123,113.088,0.06,36.576674,-87.345509
17398,"Clay Center, KS Urban Cluster","Clay Center, KS",UrbanCluster,20027,4147,2027,2.516,0.002,39.37996,-97.124039
17452,"Clearfield, PA Urban Cluster","Clearfield, PA",UrbanCluster,42033,10467,4828,7.074,0.113,41.014806,-78.4388
17479,"Clearlake, CA Urban Cluster","Clearlake, CA",UrbanCluster,06033,17110,8363,8.133,0.068,38.948609,-122.627477
17506,"Clear Lake, IA Urban Cluster","Clear Lake, IA",UrbanCluster,19033,7983,5110,8.624,0.029,43.141886,-93.375489
17514,"Clearlake Riviera, CA Urban Cluster","Clearlake Riviera, CA",UrbanCluster,06033,4047,1664,6.725,0.041,38.958341,-122.743606
17533,"Cleburne, TX Urban Cluster","Cleburne, TX",UrbanCluster,48251,36400,13544,24.511,0.131,32.339405,-97.398445
17560,"Cle Elum, WA Urban Cluster","Cle Elum, WA",UrbanCluster,53037,3830,2263,4.527,0.0,47.194928,-120.922843
17641,"Cleveland, MS Urban Cluster","Cleveland, MS",UrbanCluster,28011,14728,6161,8.233,0.0,33.74359,-90.723323
17668,"Cleveland, OH Urbanized Area","Cleveland, OH Urbanized Area",UrbanizedArea,39035,1787071,839878,713.808,4.606,41.443638,-81.605443
17722,"Cleveland, TN Urbanized Area","Cleveland, TN Urbanized Area",UrbanizedArea,47011,72844,30148,54.974,0.044,35.175433,-84.851207
17749,"Cleveland, TX Urban Cluster","Cleveland, TX",UrbanCluster,48291,10058,3465,4.541,0.0,30.344012,-95.085689
17776,"Clewiston, FL Urban Cluster","Clewiston, FL",UrbanCluster,12051,13270,4823,5.549,0.15,26.748046,-80.93119
17857,"Clifton Forge, VA Urban Cluster","Clifton Forge, VA",UrbanCluster,51005,4905,2497,4.498,0.088,37.816269,-79.817711
17870,"Clifton Springs, NY Urban Cluster","Clifton Springs, NY",UrbanCluster,36069,6514,2887,4.198,0.0,42.971316,-77.230463
17884,"Clinton, IL Urban Cluster","Clinton, IL",UrbanCluster,17039,7929,3915,3.646,0.0,40.156333,-88.964039
17911,"Clinton, IN Urban Cluster","Clinton, IN",UrbanCluster,18165,6365,3081,3.134,0.0,39.663151,-87.406451
17938,"Clinton, IA--IL Urban Cluster","Clinton, IA",UrbanCluster,19045,30309,15055,19.11,1.278,41.841691,-90.203302
17965,"Clinton, MO Urban Cluster","Clinton, MO",UrbanCluster,29083,8068,4037,6.052,0.072,38.368899,-93.768559
17992,"Clinton, NC Urban Cluster","Clinton, NC",UrbanCluster,37163,9052,3662,9.09,0.056,35.002346,-78.328733
18019,"Clinton, OK Urban Cluster","Clinton, OK",UrbanCluster,40039,7841,3736,4.342,0.0,35.510147,-98.97664
18046,"Clinton, SC Urban Cluster","Clinton, SC",UrbanCluster,45059,10134,4509,8.463,0.016,34.457148,-81.872685
18100,"Clintonville, WI Urban Cluster","Clintonville, WI",UrbanCluster,55135,4586,2226,2.672,0.094,44.62322,-88.761128
18127,"Cloquet, MN Urban Cluster","Cloquet, MN",UrbanCluster,27017,13721,5951,9.428,0.195,46.709546,-92.441269
18154,"Clover, SC Urban Cluster","Clover, SC",UrbanCluster,45091,7063,2808,5.186,0.011,35.102669,-81.222927
18181,"Cloverdale, CA Urban Cluster","Cloverdale, CA",UrbanCluster,06097,9362,3825,3.372,0.0,38.803364,-123.015911
18208,"Clovis, NM Urban Cluster","Clovis, NM",UrbanCluster,35009,42501,18251,16.064,0.067,34.414716,-103.214804
18235,"Clyde, OH Urban Cluster","Clyde, OH",UrbanCluster,39143,5831,2713,4.796,0.052,41.304327,-82.982461
18289,"Coalinga, CA Urban Cluster","Coalinga, CA",UrbanCluster,06019,14003,4817,4.262,0.008,36.144019,-120.352008
18316,"Coamo, PR Urban Cluster","Coamo, PR",UrbanCluster,72043,35633,15393,16.261,0.011,18.057673,-66.369369
18343,"Cobleskill, NY Urban Cluster","Cobleskill, NY",UrbanCluster,36095,5184,1996,4.33,0.004,42.682069,-74.498854
18370,"Cochran, GA Urban Cluster","Cochran, GA",UrbanCluster,13023,6014,2402,5.453,0.113,32.390238,-83.346608
18397,"Cody, WY Urban Cluster","Cody, WY",UrbanCluster,56029,10006,4729,6.909,0.012,44.522764,-109.050402
18451,"Coeur d'Alene, ID Urbanized Area","Coeur d'Alene, ID Urbanized Area",UrbanizedArea,16055,117068,48817,46.756,0.774,47.70665,-116.763683
18478,"Coffeyville, KS--OK Urban Cluster","Coffeyville, KS",UrbanCluster,20125,9533,4841,7.44,0.0,37.033824,-95.629703
18532,"Colby, KS Urban Cluster","Colby, KS",UrbanCluster,20193,5386,2427,2.964,0.0,39.386971,-101.04739
18559,"Colchester, CT Urban Cluster","Colchester, CT",UrbanCluster,09011,9125,4237,5.04,0.013,41.567427,-72.337609
18586,"Cold Spring, MN Urban Cluster","Cold Spring, MN",UrbanCluster,27145,4390,1825,3.211,0.0,45.457426,-94.429757
18667,"Coldwater, MI Urban Cluster","Coldwater, MI",UrbanCluster,26023,16781,6223,10.698,0.298,41.945055,-84.980813
18694,"Coleman, TX Urban Cluster","Coleman, TX",UrbanCluster,48083,3552,2021,2.788,0.0,31.823821,-99.426303
18748,"College Station--Bryan, TX Urbanized Area","College Station, TX Urbanized Area",UrbanizedArea,48041,195835,80922,81.626,0.069,30.626582,-96.331304
18760,"Collinsville, OK Urban Cluster","Collinsville, OK",UrbanCluster,40143,4740,2171,3.433,0.018,36.363989,-95.837239
18775,"Colonial Beach, VA Urban Cluster","Colonial Beach, VA",UrbanCluster,51193,3882,2464,1.729,0.011,38.256935,-76.97469
18829,"Colorado City, TX Urban Cluster","Colorado City, TX",UrbanCluster,48335,5429,1520,2.785,0.0,32.396473,-100.869376
18856,"Colorado Springs, CO Urbanized Area","Colorado Springs, CO Urbanized Area",UrbanizedArea,08041,620447,247267,200.363,0.405,38.872952,-104.770643
18883,"Columbia, KY Urban Cluster","Columbia, KY",UrbanCluster,21001,5198,1906,3.382,0.038,37.101848,-85.302898
18910,"Columbia, MS Urban Cluster","Columbia, MS",UrbanCluster,28091,6876,3067,6.298,0.024,31.254121,-89.82252
18937,"Columbia, MO Urbanized Area","Columbia, MO Urbanized Area",UrbanizedArea,29019,132606,57996,67.198,0.274,38.955624,-92.327874
18964,"Columbia, SC Urbanized Area","Columbia, SC Urbanized Area",UrbanizedArea,45079,596279,258555,367.496,7.042,34.036236,-81.077207
18991,"Columbia, TN Urban Cluster","Columbia, TN",UrbanCluster,47119,39809,17606,30.146,0.01,35.615699,-87.062997
19018,"Columbia City, IN Urban Cluster","Columbia City, IN",UrbanCluster,18183,9574,4425,6.035,0.019,41.15874,-85.481432
19045,"Columbia Falls, MT Urban Cluster","Columbia Falls, MT",UrbanCluster,30029,7021,2946,4.251,0.001,48.372812,-114.194299
19072,"Columbiana, OH Urban Cluster","Columbiana, OH",UrbanCluster,39029,8442,4154,6.981,0.07,40.896283,-80.69474
19099,"Columbus, GA--AL Urbanized Area","Columbus, GA",UrbanizedArea,13215,263200,115484,142.857,0.868,32.484694,-84.981031
19126,"Columbus, IN Urbanized Area","Columbus, IN Urbanized Area",UrbanizedArea,18005,59641,26219,27.861,0.324,39.231561,-85.920718
19180,"Columbus, MS Urban Cluster","Columbus, MS",UrbanCluster,28087,30066,14374,20.082,0.279,33.501897,-88.391502
19207,"Columbus, NE Urban Cluster","Columbus, NE",UrbanCluster,31141,23519,9927,13.483,0.216,41.436548,-97.354859
19234,"Columbus, OH Urbanized Area","Columbus, OH Urbanized Area",UrbanizedArea,39049,1551929,665975,516.16,7.862,40.021161,-82.968532
19288,"Columbus, WI Urban Cluster","Columbus, WI",UrbanCluster,55021,6995,3137,4.08,0.036,43.336063,-89.01832
19342,"Colusa, CA Urban Cluster","Colusa, CA",UrbanCluster,06011,7081,2749,2.965,0.0,39.208332,-122.01296
19369,"Colville, WA Urban Cluster","Colville, WA",UrbanCluster,53065,5282,2277,3.226,0.0,48.542807,-117.895153
19450,"Commerce, GA Urban Cluster","Commerce, GA",UrbanCluster,13157,7573,2602,10.334,0.036,34.218313,-83.464338
19477,"Commerce, TX Urban Cluster","Commerce, TX",UrbanCluster,48231,8026,3014,3.342,0.022,33.242529,-95.902234
19504,"Concord, CA Urbanized Area","Concord, CA Urbanized Area",UrbanizedArea,06013,673767,259444,175.763,0.653,37.848474,-122.007796
19531,"Concord, NH Urban Cluster","Concord, NH",UrbanCluster,33013,43386,18565,26.648,0.781,43.226491,-71.575198
19558,"Concord, NC Urbanized Area","Concord, NC Urbanized Area",UrbanizedArea,37025,240821,98188,200.057,0.513,35.489986,-80.584189
19585,"Concordia, KS Urban Cluster","Concordia, KS",UrbanCluster,20029,5019,2526,3.125,0.0,39.567915,-97.654871
19597,"Conesus Lake, NY Urban Cluster","Conesus Lake, NY",UrbanCluster,36051,4807,2860,4.787,5.05,42.802756,-77.700919
19612,"Conneaut, OH Urban Cluster","Conneaut, OH",UrbanCluster,39007,12945,5886,8.278,0.017,41.934727,-80.610388
19666,"Connell, WA Urban Cluster","Connell, WA",UrbanCluster,53021,4669,1018,2.176,0.0,46.67914,-118.852175
19693,"Connersville, IN Urban Cluster","Connersville, IN",UrbanCluster,18041,15390,7404,7.452,0.015,39.650027,-85.144232
19801,"Conway, AR Urbanized Area","Conway, AR Urbanized Area",UrbanizedArea,05045,69237,29782,32.88,0.278,35.067649,-92.437239
19828,"Cookeville, TN Urban Cluster","Cookeville, TN",UrbanCluster,47141,47442,21112,45.461,0.095,36.161823,-85.515552
19882,"Coolidge, AZ Urban Cluster","Coolidge, AZ",UrbanCluster,04021,12227,4126,4.139,0.008,32.977829,-111.53151
19936,"Coos Bay, OR Urban Cluster","Coos Bay, OR",UrbanCluster,41011,32329,14851,14.627,0.922,43.379458,-124.2437
19990,"Coquille, OR Urban Cluster","Coquille, OR",UrbanCluster,41011,4356,2044,3.434,0.114,43.17851,-124.181586
20044,"Corcoran, CA Urban Cluster","Corcoran, CA",UrbanCluster,06031,22920,4470,6.287,0.0,36.085241,-119.563191
20071,"Cordele, GA Urban Cluster","Cordele, GA",UrbanCluster,13081,11108,5044,8.598,0.028,31.965331,-83.775635
20098,"Corinth, MS Urban Cluster","Corinth, MS",UrbanCluster,28003,12797,6414,12.8,0.015,34.931634,-88.514334
20125,"Corinth, NY Urban Cluster","Corinth, NY",UrbanCluster,36113,3673,2045,2.96,0.161,43.259938,-73.831618
20152,"Cornelia--Baldwin, GA Urban Cluster","Cornelia, GA",UrbanCluster,13137,20210,6750,19.566,0.095,34.515358,-83.54792
20206,"Corning, CA Urban Cluster","Corning, CA",UrbanCluster,06103,8906,3154,3.047,0.0,39.930303,-122.178439
20233,"Corning, NY Urban Cluster","Corning, NY",UrbanCluster,36101,20272,9931,10.78,0.207,42.136518,-77.044939
20247,"Corona de Tucson, AZ Urban Cluster","Corona de Tucson, AZ",UrbanCluster,04019,8436,2626,3.432,0.0,31.947812,-110.79041
20287,"Corpus Christi, TX Urbanized Area","Corpus Christi, TX Urbanized Area",UrbanizedArea,48355,335190,140003,129.274,1.431,27.745333,-97.412599
20314,"Corry, PA Urban Cluster","Corry, PA",UrbanCluster,42049,5876,3061,4.162,0.001,41.928225,-79.63313
20341,"Corsicana, TX Urban Cluster","Corsicana, TX",UrbanCluster,48349,23647,9130,15.522,0.134,32.090628,-96.472831
20368,"Cortez, CO Urban Cluster","Cortez, CO",UrbanCluster,08083,7906,3749,4.248,0.027,37.35379,-108.577214
20395,"Cortland, NY Urban Cluster","Cortland, NY",UrbanCluster,36023,26325,11467,10.344,0.047,42.604246,-76.182202
20422,"Corvallis, OR Urbanized Area","Corvallis, OR Urbanized Area",UrbanizedArea,41003,67430,28755,17.453,0.047,44.575091,-123.287357
20476,"Coshocton, OH Urban Cluster","Coshocton, OH",UrbanCluster,39031,10373,5059,7.81,0.06,40.263918,-81.857449
20503,"Cottage Grove, OR Urban Cluster","Cottage Grove, OR",UrbanCluster,41039,11595,4910,5.248,0.068,43.789158,-123.062803
20595,"Cottonwood--Verde Village, AZ Urban Cluster","Cottonwood, AZ",UrbanCluster,04025,28517,14106,16.906,0.0,34.72854,-112.014936
20719,"Covington, TN Urban Cluster","Covington, TN",UrbanCluster,47167,8464,3586,5.998,0.0,35.563245,-89.655592
20746,"Covington, VA Urban Cluster","Covington, VA",UrbanCluster,51580,8145,4233,7.327,0.23,37.78106,-79.985434
20773,"Coxsackie, NY Urban Cluster","Coxsackie, NY",UrbanCluster,36039,6072,1874,3.763,0.014,42.347104,-73.833431
20827,"Craig, CO Urban Cluster","Craig, CO",UrbanCluster,08081,10005,4449,5.501,0.0,40.520012,-107.556761
20881,"Crawfordsville, IN Urban Cluster","Crawfordsville, IN",UrbanCluster,18107,17324,7805,9.771,0.03,40.04364,-86.909951
20890,"Crawfordville, FL Urban Cluster","Crawfordville, FL",UrbanCluster,12129,8502,3677,9.719,0.0,30.185216,-84.347676
20908,"Crescent City, CA Urban Cluster","Crescent City, CA",UrbanCluster,06015,18300,6850,16.336,0.087,41.78434,-124.183908
20980,"Cresson, PA Urban Cluster","Cresson, PA",UrbanCluster,42021,9416,3301,3.881,0.0,40.458992,-78.580415
21016,"Creston, IA Urban Cluster","Creston, IA",UrbanCluster,19175,7528,3759,4.515,0.002,41.059127,-94.363
21043,"Crestview, FL Urban Cluster","Crestview, FL",UrbanCluster,12091,38622,15030,39.844,0.694,30.756094,-86.568484
21070,"Creswell, OR Urban Cluster","Creswell, OR",UrbanCluster,41039,6250,2603,2.443,0.017,43.91298,-123.01534
21097,"Crete, NE Urban Cluster","Crete, NE",UrbanCluster,31151,7193,2553,2.603,0.031,40.624778,-96.957284
21151,"Crisfield, MD Urban Cluster","Crisfield, MD",UrbanCluster,24039,3011,1704,2.688,0.153,37.984448,-75.843547
21205,"Crockett, TX Urban Cluster","Crockett, TX",UrbanCluster,48225,6102,2627,6.56,0.0,31.314266,-95.454161
21232,"Crookston, MN Urban Cluster","Crookston, MN",UrbanCluster,27119,7246,3444,4.649,0.0,47.774932,-96.607517
21340,"Crossett, AR Urban Cluster","Crossett, AR",UrbanCluster,05003,7238,3719,9.01,0.182,33.14176,-91.960916
21394,"Crossville, TN Urban Cluster","Crossville, TN",UrbanCluster,47035,17010,8398,26.801,1.163,35.933188,-85.042565
21421,"Crowley, LA Urban Cluster","Crowley, LA",UrbanCluster,22001,13363,6258,7.085,0.007,30.214651,-92.371692
21448,"Crozet, VA Urban Cluster","Crozet, VA",UrbanCluster,51003,6002,2600,4.487,0.027,38.065031,-78.693017
21502,"Crystal City, TX Urban Cluster","Crystal City, TX",UrbanCluster,48507,6769,2769,3.542,0.004,28.691591,-99.827457
21529,"Crystal River, FL Urban Cluster","Crystal River, FL",UrbanCluster,12017,4674,2806,14.085,1.151,28.888052,-82.589712
21556,"Crystal Springs, MS Urban Cluster","Crystal Springs, MS",UrbanCluster,28029,4494,1814,3.956,0.01,31.982552,-90.356625
21610,"Cuero, TX Urban Cluster","Cuero, TX",UrbanCluster,48123,7979,2968,4.365,0.018,29.10511,-97.289509
21637,"Cullman, AL Urban Cluster","Cullman, AL",UrbanCluster,01043,20180,9283,21.491,0.176,34.179434,-86.843505
21664,"Cullowhee, NC Urban Cluster","Cullowhee, NC",UrbanCluster,37099,10363,3632,6.097,0.0,35.320013,-83.188619
21691,"Culpeper, VA Urban Cluster","Culpeper, VA",UrbanCluster,51047,19917,7497,9.371,0.025,38.469245,-78.002975
21745,"Cumberland, MD--WV--PA Urbanized Area","Cumberland, MD",UrbanizedArea,24001,47542,22209,31.695,0.263,39.647447,-78.804586
21772,"Cushing, OK Urban Cluster","Cushing, OK",UrbanCluster,40119,6800,3380,9.312,0.012,35.97294,-96.760878
21853,"Cynthiana, KY Urban Cluster","Cynthiana, KY",UrbanCluster,21097,6352,2830,2.989,0.055,38.385518,-84.295848
21934,"Dahlonega, GA Urban Cluster","Dahlonega, GA",UrbanCluster,13187,5588,1475,3.147,0.0,34.543206,-83.985904
21988,"Dalhart, TX Urban Cluster","Dalhart, TX",UrbanCluster,48111,8007,3453,3.499,0.002,36.059597,-102.514298
22015,"Dallas, OR Urban Cluster","Dallas, OR",UrbanCluster,41053,17582,7093,5.496,0.0,44.921878,-123.309964
22042,"Dallas--Fort Worth--Arlington, TX Urbanized Area","Dallas, TX Urbanized Area",UrbanizedArea,48113,5841365,2267156,1746.896,24.768,32.812727,-96.972001
22069,"Dalton, GA Urbanized Area","Dalton, GA Urbanized Area",UrbanizedArea,13313,85764,31804,57.489,0.077,34.793297,-84.939039
22096,"Danbury, CT--NY Urbanized Area","Danbury, CT",UrbanizedArea,09001,177470,70074,118.489,6.018,41.45911,-73.425992
22177,"Dansville, NY Urban Cluster","Dansville, NY",UrbanCluster,36051,4918,2596,3.195,0.0,42.562575,-77.700673
22204,"Danville, IL Urbanized Area","Danville, IL Urbanized Area",UrbanizedArea,17183,46354,21924,27.794,0.862,40.118599,-87.633119
22231,"Danville, KY Urban Cluster","Danville, KY",UrbanCluster,21021,19598,8320,13.614,0.052,37.630164,-84.773308
22253,"Danville, VA--NC Urban Cluster","Danville, VA",UrbanCluster,51590,49119,24552,36.312,0.558,36.609278,-79.411145
22366,"Davenport, IA--IL Urbanized Area","Davenport, IA",UrbanizedArea,19163,285732,129649,134.859,7.604,41.514715,-90.512101
22420,"Davis, CA Urbanized Area","Davis, CA Urbanized Area",UrbanizedArea,06113,75447,28340,12.162,0.035,38.553373,-121.738186
22528,"Dayton, OH Urbanized Area","Dayton, OH Urbanized Area",UrbanizedArea,39113,732083,335892,319.892,2.625,39.754855,-84.167092
22555,"Dayton, TN Urban Cluster","Dayton, TN",UrbanCluster,47143,9347,4027,9.119,0.237,35.488876,-85.015979
22582,"Dayton, TX Urban Cluster","Dayton, TX",UrbanCluster,48291,15042,3759,5.407,0.0,30.067841,-94.892385
22690,"Decatur, AL Urbanized Area","Decatur, AL Urbanized Area",UrbanizedArea,01103,72104,31502,43.47,0.406,34.559441,-87.001129
22717,"Decatur, IL Urbanized Area","Decatur, IL Urbanized Area",UrbanizedArea,17115,88409,42844,55.107,2.933,39.845764,-88.935902
22744,"Decatur, IN Urban Cluster","Decatur, IN",UrbanCluster,18001,10415,4998,6.559,0.006,40.827781,-84.928313
22771,"Decatur, TX Urban Cluster","Decatur, TX",UrbanCluster,48497,5254,2499,6.198,0.0,33.229417,-97.590644
22798,"Decorah, IA Urban Cluster","Decorah, IA",UrbanCluster,19191,8208,3302,5.196,0.043,43.304383,-91.78183
22879,"Defiance, OH Urban Cluster","Defiance, OH",UrbanCluster,39039,17981,8377,12.369,0.535,41.28448,-84.355116
22933,"De Funiak Springs, FL Urban Cluster","De Funiak Springs, FL",UrbanCluster,12131,6812,3179,7.17,0.267,30.733743,-86.130341
22960,"DeKalb, IL Urbanized Area","DeKalb, IL Urbanized Area",UrbanizedArea,17037,64769,27190,25.632,0.242,41.954678,-88.726251
22987,"Delano, CA Urbanized Area","Delano, CA Urbanized Area",UrbanizedArea,06029,54410,12677,7.365,0.0,35.773321,-119.265914
22995,"Delano, MN Urban Cluster","Delano, MN",UrbanCluster,27171,6098,2251,3.093,0.0,45.03844,-93.787136
23041,"Delavan, WI Urban Cluster","Delavan, WI",UrbanCluster,55127,12156,5914,9.095,2.755,42.621413,-88.638026
23176,"Delphos, OH Urban Cluster","Delphos, OH",UrbanCluster,39003,7334,3352,3.437,0.028,40.839254,-84.341976
23203,"Del Rio, TX Urban Cluster","Del Rio, TX",UrbanCluster,48465,42870,15642,18.808,0.083,29.369181,-100.881917
23230,"Delta, CO Urban Cluster","Delta, CO",UrbanCluster,08029,7878,3177,6.227,0.05,38.746594,-108.061647
23311,"Deltona, FL Urbanized Area","Deltona, FL Urbanized Area",UrbanizedArea,12127,204512,82617,108.983,4.857,28.991713,-81.261439
23338,"Deming, NM Urban Cluster","Deming, NM",UrbanCluster,35029,15132,6820,8.197,0.0,32.266331,-107.752257
23365,"Demopolis, AL Urban Cluster","Demopolis, AL",UrbanCluster,01091,5913,3107,4.549,0.032,32.50599,-87.828146
23419,"Denison, IA Urban Cluster","Denison, IA",UrbanCluster,19047,8261,3136,4.493,0.009,42.018081,-95.34595
23473,"Denton, MD Urban Cluster","Denton, MD",UrbanCluster,24011,4918,1739,3.266,0.036,38.872302,-75.819755
23500,"Denton--Lewisville, TX Urbanized Area","Denton, TX Urbanized Area",UrbanizedArea,48121,420354,161283,150.48,1.897,33.093039,-97.066276
23513,"Denton Southwest, TX Urban Cluster","Denton Southwest, TX",UrbanCluster,48121,5485,2375,7.062,0.025,33.126483,-97.240161
23527,"Denver--Aurora, CO Urbanized Area","Denver, CO Urbanized Area",UrbanizedArea,08059,2687114,1114574,644.541,11.326,39.710774,-104.955096
23608,"De Queen, AR Urban Cluster","De Queen, AR",UrbanCluster,05133,5937,2145,4.812,0.02,34.043394,-94.343051
23662,"DeRidder, LA Urban Cluster","DeRidder, LA",UrbanCluster,22011,12651,5735,14.528,0.087,30.856066,-93.294939
23716,"Desert Hot Springs, CA Urban Cluster","Desert Hot Springs, CA",UrbanCluster,06065,42081,19732,14.079,0.0,33.944941,-116.497618
23743,"Des Moines, IA Urbanized Area","Des Moines, IA Urbanized Area",UrbanizedArea,19153,508800,217622,224.743,2.79,41.619352,-93.656127
23797,"De Soto, MO Urban Cluster","De Soto, MO",UrbanCluster,29099,7495,3312,4.4,0.14,38.124145,-90.562573
23824,"Detroit, MI Urbanized Area","Detroit, MI Urbanized Area",UrbanizedArea,26125,3797792,1656712,1284.827,33.684,42.490005,-83.227554
23851,"Detroit Lakes, MN Urban Cluster","Detroit Lakes, MN",UrbanCluster,27005,8604,4183,9.202,9.93,46.803719,-95.832005
23878,"Devils Lake, ND Urban Cluster","Devils Lake, ND",UrbanCluster,38071,7315,3781,5.072,0.006,48.110226,-98.858122
23986,"De Witt, IA Urban Cluster","De Witt, IA",UrbanCluster,19045,4496,1806,4.004,0.0,41.824151,-90.546713
24013,"Dexter, MO Urban Cluster","Dexter, MO",UrbanCluster,29207,9666,4609,7.744,0.094,36.792409,-89.968991
24040,"Diamondhead, MS Urban Cluster","Diamondhead, MS",UrbanCluster,28045,8855,4364,5.067,0.087,30.394333,-89.365506
24094,"Dickinson, ND Urban Cluster","Dickinson, ND",UrbanCluster,38089,20515,9481,12.258,0.077,46.885456,-102.786789
24121,"Dickson, TN Urban Cluster","Dickson, TN",UrbanCluster,47043,17093,6844,16.451,0.063,36.060236,-87.364102
24175,"Dillon, MT Urban Cluster","Dillon, MT",UrbanCluster,30001,4427,2032,2.747,0.0,45.227463,-112.630947
24202,"Dillon, SC Urban Cluster","Dillon, SC",UrbanCluster,45033,9063,4111,6.33,0.043,34.418201,-79.359031
24256,"Discovery Bay, CA Urban Cluster","Discovery Bay, CA",UrbanCluster,06013,16411,6076,4.202,1.112,37.901327,-121.609267
24283,"Dixon, CA Urban Cluster","Dixon, CA",UrbanCluster,06095,18821,6425,4.395,0.003,38.444983,-121.834573
24310,"Dixon, IL Urban Cluster","Dixon, IL",UrbanCluster,17103,16916,6913,7.817,0.385,41.852951,-89.481744
24337,"Dodge City, KS Urban Cluster","Dodge City, KS",UrbanCluster,20057,27420,9262,10.918,0.128,37.756788,-100.011964
24364,"Dodgeville, WI Urban Cluster","Dodgeville, WI",UrbanCluster,55049,4731,2254,3.255,0.0,42.965488,-90.130602
24391,"Donaldsonville, LA Urban Cluster","Donaldsonville, LA",UrbanCluster,22005,13874,5484,15.649,0.582,30.072893,-90.923277
24445,"Dos Palos, CA Urban Cluster","Dos Palos, CA",UrbanCluster,06047,6574,1991,2.293,0.0,36.978163,-120.633707
24472,"Dothan, AL Urbanized Area","Dothan, AL Urbanized Area",UrbanizedArea,01069,72121,33546,55.087,0.15,31.223667,-85.425104
24499,"Douglas, AZ Urban Cluster","Douglas, AZ",UrbanCluster,04003,15600,6148,5.481,0.0,31.350392,-109.54318
24526,"Douglas, GA Urban Cluster","Douglas, GA",UrbanCluster,13069,13892,5659,16.594,0.208,31.511685,-82.84868
24539,"Douglas, MI Urban Cluster","Douglas, MI",UrbanCluster,26005,2227,2107,4.232,0.541,42.649643,-86.197091
24553,"Douglas, WY Urban Cluster","Douglas, WY",UrbanCluster,56009,5908,2813,3.279,0.0,42.753293,-105.3831
24580,"Dover, DE Urbanized Area","Dover, DE Urbanized Area",UrbanizedArea,10001,124530,48199,72.304,1.036,39.146316,-75.548114
24607,"Dover--Rochester, NH--ME Urbanized Area","Dover, NH",UrbanizedArea,33017,92412,39203,52.312,1.039,43.226306,-70.899625
24634,"Dowagiac, MI Urban Cluster","Dowagiac, MI",UrbanCluster,26027,6078,3054,3.557,0.047,41.982547,-86.108166
24715,"Dublin, GA Urban Cluster","Dublin, GA",UrbanCluster,13175,20674,8354,20.431,0.164,32.53722,-82.919988
24796,"DuBois, PA Urban Cluster","DuBois, PA",UrbanCluster,42033,11672,5737,7.159,0.055,41.119416,-78.762267
24823,"Dubuque, IA--IL Urbanized Area","Dubuque, IA",UrbanizedArea,19061,69287,31099,34.167,0.088,42.506218,-90.691071
24850,"Duluth, MN--WI Urbanized Area","Duluth, MN",UrbanizedArea,27137,119215,54124,66.866,4.947,46.765574,-92.12902
24877,"Dumas, AR Urban Cluster","Dumas, AR",UrbanCluster,05041,4551,2189,3.107,0.0,33.884731,-91.486692
24904,"Dumas, TX Urban Cluster","Dumas, TX",UrbanCluster,48341,14664,5370,4.937,0.0,35.868299,-101.965679
24931,"Duncan, OK Urban Cluster","Duncan, OK",UrbanCluster,40137,20390,9937,13.611,0.064,34.515253,-97.962302
24958,"Dundee, MI Urban Cluster","Dundee, MI",UrbanCluster,26115,4252,2162,3.901,0.037,41.95782,-83.660254
25012,"Dunkirk--Fredonia, NY Urban Cluster","Dunkirk, NY",UrbanCluster,36013,24394,11561,12.753,0.045,42.460507,-79.339804
25039,"Dunn, NC Urban Cluster","Dunn, NC",UrbanCluster,37085,14290,6589,11.111,0.053,35.317576,-78.63644
25093,"Du Quoin, IL Urban Cluster","Du Quoin, IL",UrbanCluster,17145,6056,3190,4.061,0.021,38.017557,-89.232631
25120,"Durand, MI Urban Cluster","Durand, MI",UrbanCluster,26155,4502,2054,3.78,0.048,42.90801,-83.985194
25147,"Durango, CO Urban Cluster","Durango, CO",UrbanCluster,08067,18565,8959,9.451,0.033,37.289137,-107.869962
25201,"Durant, OK Urban Cluster","Durant, OK",UrbanCluster,40013,17857,7671,12.006,0.016,33.999943,-96.393378
25228,"Durham, NC Urbanized Area","Durham, NC Urbanized Area",UrbanizedArea,37063,391107,169778,183.355,1.307,35.980955,-78.947743
25309,"Dyersburg, TN Urban Cluster","Dyersburg, TN",UrbanCluster,47045,20843,9324,12.976,0.088,36.06071,-89.358888
25390,"Eagle, CO Urban Cluster","Eagle, CO",UrbanCluster,08037,6464,2010,3.406,0.018,39.644579,-106.826253
25480,"Eagle Mountain South, UT Urban Cluster","Eagle Mountain South, UT",UrbanCluster,49049,9272,2465,2.021,0.0,40.30801,-112.006792
25498,"Eagle Pass, TX Urban Cluster","Eagle Pass, TX",UrbanCluster,48323,51940,17867,21.145,0.141,28.701778,-100.471175
25579,"Earlimart, CA Urban Cluster","Earlimart, CA",UrbanCluster,06107,12948,3379,1.35,0.0,35.923825,-119.278774
25598,"East Aurora, NY Urban Cluster","East Aurora, NY",UrbanCluster,36029,10473,4527,5.819,0.017,42.779875,-78.598786
25687,"East Liverpool, OH--WV--PA Urban Cluster","East Liverpool, OH",UrbanCluster,39029,29041,14461,15.526,0.629,40.643542,-80.571376
25714,"Eastman, GA Urban Cluster","Eastman, GA",UrbanCluster,13091,6114,2504,5.962,0.072,32.194206,-83.177141
25741,"Easton, MD Urban Cluster","Easton, MD",UrbanCluster,24041,17151,7749,11.15,0.133,38.766831,-76.065148
25768,"East Palestine, OH Urban Cluster","East Palestine, OH",UrbanCluster,39029,4996,2301,2.907,0.0,40.838978,-80.541664
25849,"East Stroudsburg, PA--NJ Urbanized Area","East Stroudsburg, PA",UrbanizedArea,42089,55266,22708,38.937,0.315,41.022688,-75.213377
25876,"East Tawas, MI Urban Cluster","East Tawas, MI",UrbanCluster,26069,4200,2488,5.005,0.0,44.284572,-83.493008
25903,"East Troy, WI Urban Cluster","East Troy, WI",UrbanCluster,55127,3812,1985,4.141,0.638,42.790976,-88.403838
25930,"Eaton, CO Urban Cluster","Eaton, CO",UrbanCluster,08123,4925,2057,2.16,0.0,40.529415,-104.713848
25957,"Eaton, OH Urban Cluster","Eaton, OH",UrbanCluster,39135,8065,3696,4.494,0.001,39.748358,-84.635603
25984,"Eaton Rapids, MI Urban Cluster","Eaton Rapids, MI",UrbanCluster,26045,5107,2192,2.805,0.055,42.505596,-84.65451
26038,"Eau Claire, WI Urbanized Area","Eau Claire, WI Urbanized Area",UrbanizedArea,55035,108278,47598,62.496,3.951,44.860862,-91.44719
26065,"Ebensburg, PA Urban Cluster","Ebensburg, PA",UrbanCluster,42021,4496,2233,2.589,0.012,40.484465,-78.733571
26092,"Eden, NC Urban Cluster","Eden, NC",UrbanCluster,37157,16422,8206,14.235,0.016,36.502122,-79.744547
26119,"Edenton, NC Urban Cluster","Edenton, NC",UrbanCluster,37041,4365,2344,3.586,0.069,36.065841,-76.613077
26173,"Edgerton, WI Urban Cluster","Edgerton, WI",UrbanCluster,55105,7536,3663,6.19,0.191,42.838856,-89.055991
26227,"Edinboro, PA Urban Cluster","Edinboro, PA",UrbanCluster,42049,6158,2919,2.437,0.075,41.876696,-80.129846
26254,"Edna, TX Urban Cluster","Edna, TX",UrbanCluster,48239,5890,2569,3.695,0.0,28.975111,-96.650065
26275,"Edwards, CO Urban Cluster","Edwards, CO",UrbanCluster,08037,17209,9335,11.603,0.226,39.644737,-106.564801
26308,"Effingham, IL Urban Cluster","Effingham, IL",UrbanCluster,17049,13734,6237,13.576,0.029,39.120894,-88.540198
26362,"Elberton, GA Urban Cluster","Elberton, GA",UrbanCluster,13105,5370,2736,5.021,0.027,34.109944,-82.869663
26389,"El Campo, TX Urban Cluster","El Campo, TX",UrbanCluster,48481,11807,4640,7.828,0.008,29.198508,-96.276623
26443,"Eldon, MO Urban Cluster","Eldon, MO",UrbanCluster,29131,4125,2120,3.338,0.0,38.351041,-92.577313
26470,"El Dorado, AR Urban Cluster","El Dorado, AR",UrbanCluster,05139,17559,8022,20.262,0.0,33.208556,-92.662815
26524,"El Dorado, KS Urban Cluster","El Dorado, KS",UrbanCluster,20015,14673,6059,7.446,0.008,37.815098,-96.85048
26659,"Elgin, TX Urban Cluster","Elgin, TX",UrbanCluster,48021,10734,3787,4.767,0.0,30.349501,-97.379155
26686,"Elizabeth City, NC Urban Cluster","Elizabeth City, NC",UrbanCluster,37139,23280,10144,16.516,0.009,36.297071,-76.233278
26750,"Elizabethtown--Radcliff, KY Urbanized Area","Elizabethtown, KY Urbanized Area",UrbanizedArea,21093,76311,32659,55.826,0.502,37.788108,-85.922881
26767,"Elk City, OK Urban Cluster","Elk City, OK",UrbanCluster,40009,10402,5511,9.013,0.0,35.406842,-99.413365
26794,"Elkhart, IN--MI Urbanized Area","Elkhart, IN",UrbanizedArea,18039,146858,60298,94.939,3.123,41.658247,-85.926438
26821,"Elkhorn, WI Urban Cluster","Elkhorn, WI",UrbanCluster,55127,12760,5269,6.94,0.056,42.692381,-88.53822
26875,"Elkins, WV Urban Cluster","Elkins, WV",UrbanCluster,54083,10877,4957,7.121,0.0,38.934469,-79.846002
26902,"Elko, NV Urban Cluster","Elko, NV",UrbanCluster,32007,20049,7889,12.56,0.0,40.83677,-115.772716
26956,"Elkton, VA Urban Cluster","Elkton, VA",UrbanCluster,51165,3949,1699,4.805,0.025,38.404206,-78.628321
26983,"Ellensburg, WA Urban Cluster","Ellensburg, WA",UrbanCluster,53037,21782,9876,8.84,0.021,47.001211,-120.535513
27010,"Ellenville, NY Urban Cluster","Ellenville, NY",UrbanCluster,36111,6152,2667,3.303,0.03,41.730481,-74.387697
27037,"Ellijay, GA Urban Cluster","Ellijay, GA",UrbanCluster,13123,4223,2042,13.212,0.112,34.683566,-84.486367
27085,"Ellwood City, PA Urban Cluster","Ellwood City, PA",UrbanCluster,42073,11582,6102,7.36,0.125,40.853149,-80.268213
27118,"Elmira, NY Urbanized Area","Elmira, NY Urbanized Area",UrbanizedArea,36015,65266,29958,31.698,0.456,42.071566,-76.809034
27253,"El Paso, TX--NM Urbanized Area","El Paso, TX",UrbanizedArea,48141,808316,296888,255.883,0.987,31.780239,-106.389031
27261,"El Paso de Robles (Paso Robles)--Atascadero, CA Urbanized Area","El Paso de Robles (Paso Robles), CA Urbanized Area",UrbanizedArea,06079,68213,27456,29.963,0.044,35.453541,-120.633753
27280,"El Reno, OK Urban Cluster","El Reno, OK",UrbanCluster,40017,15139,6209,8.715,0.005,35.522928,-97.958573
27290,"Elroy, TX Urban Cluster","Elroy, TX",UrbanCluster,48215,3407,1205,6.255,0.0,30.128189,-97.592709
27307,"Elwood, IN Urban Cluster","Elwood, IN",UrbanCluster,18095,9053,4284,4.632,0.0,40.274227,-85.839502
27361,"Ely, NV Urban Cluster","Ely, NV",UrbanCluster,32033,4189,2043,3.096,0.0,39.247984,-114.874495
27469,"Emmett, ID Urban Cluster","Emmett, ID",UrbanCluster,16045,9665,4115,5.73,0.079,43.878179,-116.490113
27523,"Emporia, KS Urban Cluster","Emporia, KS",UrbanCluster,20111,24207,11234,11.187,0.081,38.4114,-96.19078
27550,"Emporia, VA Urban Cluster","Emporia, VA",UrbanCluster,51595,6960,3186,6.542,0.059,36.698482,-77.545666
27631,"Enid, OK Urban Cluster","Enid, OK",UrbanCluster,40047,49280,21710,29.487,0.014,36.401999,-97.89186
27658,"Ennis, TX Urban Cluster","Ennis, TX",UrbanCluster,48139,19832,7232,12.418,0.349,32.332346,-96.630807
27685,"Enterprise, AL Urban Cluster","Enterprise, AL",UrbanCluster,01031,38335,16524,23.747,0.058,31.329138,-85.794079
27712,"Ephraim, UT Urban Cluster","Ephraim, UT",UrbanCluster,49039,5258,1633,1.746,0.0,39.357377,-111.581384
27739,"Ephrata, WA Urban Cluster","Ephrata, WA",UrbanCluster,53025,7518,3143,4.272,0.0,47.312698,-119.550128
27766,"Erie, PA Urbanized Area","Erie, PA Urbanized Area",UrbanizedArea,42049,191560,85343,73.339,0.23,42.08554,-80.114855
27793,"Erwin, TN Urban Cluster","Erwin, TN",UrbanCluster,47171,9920,4604,5.926,0.005,36.143997,-82.408735
27820,"Escalon, CA Urban Cluster","Escalon, CA",UrbanCluster,06077,7426,2901,1.988,0.0,37.792498,-120.995498
27847,"Escanaba, MI Urban Cluster","Escanaba, MI",UrbanCluster,26041,21247,10156,18.063,0.16,45.727457,-87.082446
27874,"Espanola, NM Urban Cluster","Espanola, NM",UrbanCluster,35039,27180,11995,20.137,0.163,35.986739,-106.085246
27901,"Estacada, OR Urban Cluster","Estacada, OR",UrbanCluster,41005,4797,1659,2.991,0.006,45.298199,-122.332394
27928,"Estes Park, CO Urban Cluster","Estes Park, CO",UrbanCluster,08069,7800,5176,12.15,0.271,40.363508,-105.518915
27955,"Estherville, IA Urban Cluster","Estherville, IA",UrbanCluster,19063,5818,2634,3.45,0.0,43.404057,-94.83446
28009,"Etowah, TN Urban Cluster","Etowah, TN",UrbanCluster,47107,4122,2040,4.505,0.0,35.336866,-84.52521
28063,"Eudora, KS Urban Cluster","Eudora, KS",UrbanCluster,20045,6494,2372,2.62,0.042,38.932378,-95.096848
28090,"Eufaula, AL--GA Urban Cluster","Eufaula, AL",UrbanCluster,01005,8958,4286,6.954,0.011,31.879574,-85.141788
28117,"Eugene, OR Urbanized Area","Eugene, OR Urbanized Area",UrbanizedArea,41039,269869,115830,73.485,0.064,44.065995,-123.076636
28144,"Eunice, LA Urban Cluster","Eunice, LA",UrbanCluster,22097,11617,4975,7.133,0.03,30.491126,-92.419264
28198,"Eureka, CA Urban Cluster","Eureka, CA",UrbanCluster,06023,45365,20373,18.795,1.459,40.777356,-124.169828
28225,"Eureka, IL Urban Cluster","Eureka, IL",UrbanCluster,17203,6046,2447,2.522,0.048,40.713988,-89.274949
28262,"Eureka, MO Urban Cluster","Eureka, MO",UrbanCluster,29189,11474,4068,9.335,0.017,38.499469,-90.632649
28306,"Evanston, WY Urban Cluster","Evanston, WY",UrbanCluster,56041,11612,5120,7.674,0.044,41.260088,-110.963739
28333,"Evansville, IN--KY Urbanized Area","Evansville, IN",UrbanizedArea,18163,228533,105257,112.753,1.124,37.978539,-87.537393
28360,"Evansville, WI Urban Cluster","Evansville, WI",UrbanCluster,55105,6002,2532,2.803,0.0,42.777863,-89.296152
28441,"Evergreen, CO Urban Cluster","Evergreen, CO",UrbanCluster,08059,14136,5962,9.46,0.085,39.659075,-105.311475
28495,"Excelsior Springs, MO Urban Cluster","Excelsior Springs, MO",UrbanCluster,29047,10504,4224,5.7,0.0,39.344176,-94.233468
28522,"Fabens, TX Urban Cluster","Fabens, TX",UrbanCluster,48141,5254,2158,1.691,0.023,31.505886,-106.153246
28549,"Fairbanks, AK Urbanized Area","Fairbanks, AK Urbanized Area",UrbanizedArea,02090,65521,27239,74.303,2.54,64.846308,-147.711393
28603,"Fairbury, NE Urban Cluster","Fairbury, NE",UrbanCluster,31095,3946,1951,2.36,0.004,40.142462,-97.177617
28657,"Fairfield, CA Urbanized Area","Fairfield, CA Urbanized Area",UrbanizedArea,06095,146348,48226,40.809,0.239,38.259143,-122.036061
28684,"Fairfield, IL Urban Cluster","Fairfield, IL",UrbanCluster,17191,4950,2616,3.262,0.025,38.380391,-88.369938
28711,"Fairfield, IA Urban Cluster","Fairfield, IA",UrbanCluster,19101,9610,4603,5.383,0.046,41.009343,-91.953915
28765,"Fairfield Glade, TN Urban Cluster","Fairfield Glade, TN",UrbanCluster,47035,7296,4379,9.635,0.4,36.031454,-84.87053
28846,"Fairmont, MN Urban Cluster","Fairmont, MN",UrbanCluster,27091,9784,4543,3.638,0.381,43.644753,-94.464015
28873,"Fairmont, WV Urban Cluster","Fairmont, WV",UrbanCluster,54049,34321,16523,20.188,0.704,39.469497,-80.149881
28981,"Fajardo, PR Urbanized Area","Fajardo, PR Urbanized Area",UrbanizedArea,72053,75972,41383,34.359,0.221,18.282618,-65.711953
29008,"Falfurrias, TX Urban Cluster","Falfurrias, TX",UrbanCluster,48047,4581,2270,2.186,0.0,27.223874,-98.146944
29035,"Fallon, NV Urban Cluster","Fallon, NV",UrbanCluster,32001,16002,7145,13.961,0.007,39.487781,-118.792129
29062,"Falls City, NE Urban Cluster","Falls City, NE",UrbanCluster,31147,3932,1920,3.353,0.005,40.061254,-95.600291
29089,"Fargo, ND--MN Urbanized Area","Fargo, ND",UrbanizedArea,38017,205690,94336,77.731,0.114,46.86245,-96.82068
29116,"Faribault, MN Urban Cluster","Faribault, MN",UrbanCluster,27131,24561,9442,10.241,0.237,44.29407,-93.281853
29251,"Farmington, MO Urban Cluster","Farmington, MO",UrbanCluster,29187,40997,15961,18.053,0.04,37.838181,-90.485144
29278,"Farmington, NM Urbanized Area","Farmington, NM Urbanized Area",UrbanizedArea,35045,51942,19659,32.623,0.014,36.745269,-108.160222
29305,"Farmville, NC Urban Cluster","Farmville, NC",UrbanCluster,37147,4082,1925,2.948,0.0,35.584426,-77.589521
29332,"Farmville, VA Urban Cluster","Farmville, VA",UrbanCluster,51147,7899,2902,6.563,0.113,37.286016,-78.39096
29440,"Fayetteville, NC Urbanized Area","Fayetteville, NC Urbanized Area",UrbanizedArea,37051,324394,137576,195.924,2.05,35.052628,-78.97684
29467,"Fayetteville, TN Urban Cluster","Fayetteville, TN",UrbanCluster,47103,9149,3974,12.435,0.0,35.115318,-86.574431
29494,"Fayetteville--Springdale--Rogers, AR--MO Urbanized Area","Fayetteville, AR",UrbanizedArea,05007,356930,143330,198.27,2.421,36.267415,-94.179758
29575,"Fergus Falls, MN Urban Cluster","Fergus Falls, MN",UrbanCluster,27111,12051,6240,7.636,0.604,46.289201,-96.069742
29656,"Fernley, NV Urban Cluster","Fernley, NV",UrbanCluster,32019,22025,8107,10.597,0.0,39.598048,-119.228975
29683,"Ferriday, LA Urban Cluster","Ferriday, LA",UrbanCluster,22029,5970,2185,4.836,0.0,31.6388,-91.556864
29710,"Fillmore, CA Urban Cluster","Fillmore, CA",UrbanCluster,06111,16669,5171,2.633,0.0,34.40158,-118.915573
29737,"Findlay, OH Urban Cluster","Findlay, OH",UrbanCluster,39063,47084,21812,25.63,0.158,41.052564,-83.640581
29764,"Firebaugh, CA Urban Cluster","Firebaugh, CA",UrbanCluster,06019,7143,2163,2.488,0.055,36.860053,-120.459006
29775,"Firestone--Frederick, CO Urban Cluster","Firestone, CO",UrbanCluster,08123,28501,9413,15.216,0.195,40.118686,-104.944081
29791,"Fitzgerald, GA Urban Cluster","Fitzgerald, GA",UrbanCluster,13017,10679,4912,8.504,0.203,31.712975,-83.257838
29818,"Flagstaff, AZ Urbanized Area","Flagstaff, AZ Urbanized Area",UrbanizedArea,04005,81904,32674,29.263,0.03,35.1995,-111.623994
29872,"Flint, MI Urbanized Area","Flint, MI Urbanized Area",UrbanizedArea,26049,335620,156204,205.457,1.741,42.988756,-83.694698
29899,"Flora, IL Urban Cluster","Flora, IL",UrbanCluster,17025,4565,2275,3.185,0.0,38.671793,-88.485968
29953,"Florence, AL Urbanized Area","Florence, AL Urbanized Area",UrbanizedArea,01077,80524,39183,54.627,0.142,34.74708,-87.676087
29980,"Florence, AZ Urban Cluster","Florence, AZ",UrbanCluster,04021,12136,3322,2.655,0.0,33.060988,-111.376412
30034,"Florence, OR Urban Cluster","Florence, OR",UrbanCluster,41039,11064,6463,7.98,0.015,43.994236,-124.108268
30061,"Florence, SC Urbanized Area","Florence, SC Urbanized Area",UrbanizedArea,45041,91829,41041,68.038,0.566,34.202185,-79.808352
30088,"Floresville, TX Urban Cluster","Floresville, TX",UrbanCluster,48493,6491,2483,3.853,0.006,29.14131,-98.156623
30171,"Foley, AL Urban Cluster","Foley, AL",UrbanCluster,01003,31557,23264,49.045,0.424,30.349787,-87.686189
30223,"Fond du Lac, WI Urbanized Area","Fond du Lac, WI Urbanized Area",UrbanizedArea,55039,55981,25182,24.69,0.313,43.781484,-88.441302
30331,"Forest City, NC Urban Cluster","Forest City, NC",UrbanCluster,37161,24198,11408,26.891,0.074,35.330746,-81.877374
30358,"Forest Lake, MN Urban Cluster","Forest Lake, MN",UrbanCluster,27163,23153,9396,14.013,4.39,45.284491,-92.95594
30439,"Forney, TX Urban Cluster","Forney, TX",UrbanCluster,48257,37148,12728,19.678,0.071,32.733207,-96.433992
30466,"Forrest City, AR Urban Cluster","Forrest City, AR",UrbanCluster,05123,10192,3847,7.014,0.02,35.009508,-90.785982
30493,"Forsyth, GA Urban Cluster","Forsyth, GA",UrbanCluster,13207,4070,1932,5.202,0.012,33.03924,-83.947879
30520,"Forsyth, MO Urban Cluster","Forsyth, MO",UrbanCluster,29213,7298,3645,6.597,0.017,36.71569,-93.173816
30547,"Fort Atkinson, WI Urban Cluster","Fort Atkinson, WI",UrbanCluster,55055,20992,9449,6.904,0.113,42.992731,-88.814383
30574,"Fort Bragg, CA Urban Cluster","Fort Bragg, CA",UrbanCluster,06045,10075,4880,9.808,0.137,39.422456,-123.786707
30628,"Fort Collins, CO Urbanized Area","Fort Collins, CO Urbanized Area",UrbanizedArea,08069,300026,127507,117.977,7.051,40.499545,-105.058836
30682,"Fort Dodge, IA Urban Cluster","Fort Dodge, IA",UrbanCluster,19187,24943,11232,13.615,0.199,42.510479,-94.183965
30736,"Fort Irwin, CA Urban Cluster","Fort Irwin, CA",UrbanCluster,06071,9100,3036,3.617,0.0,35.26146,-116.690324
30748,"Fort Leonard Wood, MO Urban Cluster","Fort Leonard Wood, MO",UrbanCluster,29169,29037,9736,26.177,0.008,37.831182,-92.123554
30755,"Fort Lupton, CO Urban Cluster","Fort Lupton, CO",UrbanCluster,08123,9423,3247,2.33,0.0,40.08806,-104.794704
30763,"Fort Madison, IA--IL Urban Cluster","Fort Madison, IA",UrbanCluster,19111,10087,4783,5.962,0.0,40.629756,-91.334287
30790,"Fort Meade, FL Urban Cluster","Fort Meade, FL",UrbanCluster,12105,5707,2756,2.319,0.026,27.75587,-81.795336
30817,"Fort Morgan, CO Urban Cluster","Fort Morgan, CO",UrbanCluster,08087,13559,5081,5.542,0.0,40.251444,-103.7997
30844,"Fort Payne, AL Urban Cluster","Fort Payne, AL",UrbanCluster,01049,6843,2933,8.646,0.012,34.45576,-85.709231
30871,"Fort Polk, LA Urban Cluster","Fort Polk, LA",UrbanCluster,22115,12774,4669,9.457,0.025,31.067239,-93.213757
30898,"Fort Scott, KS Urban Cluster","Fort Scott, KS",UrbanCluster,20011,7452,3757,5.103,0.006,37.830598,-94.703504
30925,"Fort Smith, AR--OK Urbanized Area","Fort Smith, AR",UrbanizedArea,05131,125681,54270,73.973,0.324,35.307922,-94.413604
30952,"Fort Stockton, TX Urban Cluster","Fort Stockton, TX",UrbanCluster,48371,9110,3842,5.985,0.0,30.892709,-102.882701
30979,"Fortuna, CA Urban Cluster","Fortuna, CA",UrbanCluster,06023,14491,5867,5.821,0.0,40.582327,-124.138562
31033,"Fort Valley, GA Urban Cluster","Fort Valley, GA",UrbanCluster,13225,9707,4447,5.81,0.013,32.550906,-83.889126
31087,"Fort Wayne, IN Urbanized Area","Fort Wayne, IN Urbanized Area",UrbanizedArea,18003,333075,143223,163.595,0.27,41.100389,-85.138898
31114,"Fostoria, OH Urban Cluster","Fostoria, OH",UrbanCluster,39147,13705,6492,8.309,0.083,41.159927,-83.4137
31150,"Four Corners, FL Urban Cluster","Four Corners, FL",UrbanCluster,12105,61256,29775,84.483,4.056,28.375358,-81.669522
31195,"Frankenmuth, MI Urban Cluster","Frankenmuth, MI",UrbanCluster,26145,5048,2412,2.923,0.038,43.332753,-83.737571
31222,"Frankfort, IN Urban Cluster","Frankfort, IN",UrbanCluster,18023,16333,6837,7.486,0.0,40.28326,-86.514895
31249,"Frankfort, KY Urban Cluster","Frankfort, KY",UrbanCluster,21073,36188,16855,22.328,0.516,38.193914,-84.821102
31276,"Franklin, KY Urban Cluster","Franklin, KY",UrbanCluster,21213,10205,4015,8.337,0.018,36.725774,-86.581032
31303,"Franklin, LA Urban Cluster","Franklin, LA",UrbanCluster,22101,13556,6018,6.197,0.061,29.803285,-91.504414
31330,"Franklin, NH Urban Cluster","Franklin, NH",UrbanCluster,33013,9404,4512,4.225,0.208,43.445618,-71.622554
31384,"Franklin, NC Urban Cluster","Franklin, NC",UrbanCluster,37113,6845,4121,13.965,0.318,35.185699,-83.384666
31411,"Franklin (Venango County), PA Urban Cluster","Franklin (Venango County), PA",UrbanCluster,42121,9045,4499,5.623,0.029,41.39626,-79.838336
31438,"Franklin, VA Urban Cluster","Franklin, VA",UrbanCluster,51620,8378,3919,6.439,0.043,36.681452,-76.938609
31478,"Fraser, CO Urban Cluster","Fraser, CO",UrbanCluster,08049,2582,3999,4.454,0.005,39.935982,-105.798878
31519,"Frederick, MD Urbanized Area","Frederick, MD Urbanized Area",UrbanizedArea,24021,164306,64148,80.292,0.68,39.415817,-77.408163
31573,"Fredericksburg, TX Urban Cluster","Fredericksburg, TX",UrbanCluster,48171,11758,6375,7.829,0.006,30.27382,-98.869249
31600,"Fredericksburg, VA Urbanized Area","Fredericksburg, VA Urbanized Area",UrbanizedArea,51177,155106,57840,89.619,1.221,38.282028,-77.502692
31627,"Fredericktown, MO Urban Cluster","Fredericktown, MO",UrbanCluster,29123,4366,2105,3.269,0.006,37.561065,-90.289915
31681,"Freeport, IL Urban Cluster","Freeport, IL",UrbanCluster,17177,24159,12026,10.621,0.037,42.293495,-89.63027
31735,"Fremont, MI Urban Cluster","Fremont, MI",UrbanCluster,26123,4920,2047,3.832,0.062,43.465758,-85.951597
31762,"Fremont, NE Urban Cluster","Fremont, NE",UrbanCluster,31053,28494,11828,13.771,0.326,41.440935,-96.494819
31789,"Fremont, OH Urban Cluster","Fremont, OH",UrbanCluster,39143,22414,10782,13.395,0.364,41.349654,-83.118293
31843,"Fresno, CA Urbanized Area","Fresno, CA Urbanized Area",UrbanizedArea,06019,717900,245267,159.111,1.246,36.787755,-119.761114
31924,"Front Royal, VA Urban Cluster","Front Royal, VA",UrbanCluster,51187,19586,7790,10.707,0.021,38.93311,-78.165713
31978,"Frostproof, FL Urban Cluster","Frostproof, FL",UrbanCluster,12105,7549,3594,7.493,1.935,27.733078,-81.559135
32032,"Fulton, KY--TN Urban Cluster","Fulton, KY",UrbanCluster,21075,4059,2056,3.156,0.018,36.504438,-88.879996
32086,"Fulton, MO Urban Cluster","Fulton, MO",UrbanCluster,29027,11849,3693,8.671,0.091,38.852856,-91.949109
32113,"Gadsden, AL Urbanized Area","Gadsden, AL Urbanized Area",UrbanizedArea,01055,64980,30435,61.209,2.029,33.982174,-86.013707
32140,"Gaffney, SC Urban Cluster","Gaffney, SC",UrbanCluster,45021,19413,9208,15.427,0.048,35.085468,-81.656738
32167,"Gainesville, FL Urbanized Area","Gainesville, FL Urbanized Area",UrbanizedArea,12001,209103,93727,87.697,1.345,29.656824,-82.371036
32194,"Gainesville, GA Urbanized Area","Gainesville, GA Urbanized Area",UrbanizedArea,13139,144217,52459,251.664,11.57,34.262481,-83.855497
32221,"Gainesville, TX Urban Cluster","Gainesville, TX",UrbanCluster,48097,16530,6852,9.555,0.01,33.629767,-97.13669
32248,"Galax, VA Urban Cluster","Galax, VA",UrbanCluster,51640,6325,3129,6.621,0.026,36.66996,-80.910802
32329,"Galesburg, IL Urban Cluster","Galesburg, IL",UrbanCluster,17095,34044,15962,21.923,0.055,40.941849,-90.355829
32356,"Galion, OH Urban Cluster","Galion, OH",UrbanCluster,39033,15610,7424,6.414,0.016,40.731873,-82.806993
32383,"Galliano--Larose--Cut Off, LA Urban Cluster","Galliano, LA",UrbanCluster,22057,20379,8901,18.698,0.367,29.492773,-90.321378
32437,"Gallup, NM Urban Cluster","Gallup, NM",UrbanCluster,35031,23704,8089,13.678,0.0,35.521103,-108.74095
32451,"Galt, CA Urban Cluster","Galt, CA",UrbanCluster,06067,26253,8803,7.087,0.0,38.269365,-121.300215
32491,"Galveston, TX Urban Cluster","Galveston, TX",UrbanCluster,48167,49617,27787,108.981,3.065,29.287801,-94.822135
32518,"Garden City, KS Urban Cluster","Garden City, KS",UrbanCluster,20055,30345,11302,12.749,0.026,37.972333,-100.852871
32572,"Gardnerville Ranchos, NV Urban Cluster","Gardnerville Ranchos, NV",UrbanCluster,32005,21216,9005,12.679,0.019,38.926121,-119.736521
32653,"Gastonia, NC--SC Urbanized Area","Gastonia, NC",UrbanizedArea,37071,185881,79322,124.579,1.333,35.258871,-81.151724
32707,"Gatesville, TX Urban Cluster","Gatesville, TX",UrbanCluster,48099,14915,3022,10.175,0.012,31.439728,-97.741337
32734,"Gaylord, MI Urban Cluster","Gaylord, MI",UrbanCluster,26137,9011,4848,10.26,3.314,44.989318,-84.680677
32761,"Geneseo, IL Urban Cluster","Geneseo, IL",UrbanCluster,17073,6503,3258,3.757,0.0,41.450205,-90.155638
32788,"Geneseo, NY Urban Cluster","Geneseo, NY",UrbanCluster,36051,8288,2343,2.411,0.0,42.796608,-77.80851
32842,"Geneva, NY Urban Cluster","Geneva, NY",UrbanCluster,36099,28626,13491,16.759,0.29,42.887355,-76.973266
32850,"Geneva, OH Urban Cluster","Geneva, OH",UrbanCluster,39007,6999,3109,4.833,0.0,41.801578,-80.943528
32869,"Genoa, IL Urban Cluster","Genoa, IL",UrbanCluster,17037,5913,2311,2.195,0.05,42.088574,-88.703087
32950,"Georgetown, DE Urban Cluster","Georgetown, DE",UrbanCluster,10005,9933,2906,4.933,0.0,38.690218,-75.382283
32977,"Georgetown, KY Urban Cluster","Georgetown, KY",UrbanCluster,21209,36246,14393,15.061,0.152,38.229848,-84.560767
33031,"Georgetown, SC Urban Cluster","Georgetown, SC",UrbanCluster,45043,11370,5418,9.246,0.496,33.364641,-79.298223
33220,"Gillespie, IL Urban Cluster","Gillespie, IL",UrbanCluster,17117,5074,2566,2.84,0.0,39.104137,-89.81404
33247,"Gillette, WY Urban Cluster","Gillette, WY",UrbanCluster,56005,32663,14094,19.652,0.028,44.273303,-105.484013
33301,"Gilmer, TX Urban Cluster","Gilmer, TX",UrbanCluster,48459,5051,2164,4.091,0.013,32.732263,-94.946939
33328,"Gilroy--Morgan Hill, CA Urbanized Area","Gilroy, CA Urbanized Area",UrbanizedArea,06085,113485,35837,42.54,0.0,37.080866,-121.609942
33436,"Glasgow, KY Urban Cluster","Glasgow, KY",UrbanCluster,21009,14534,6686,11.798,0.025,36.998885,-85.921711
33490,"Glencoe, MN Urban Cluster","Glencoe, MN",UrbanCluster,27085,5655,2189,3.194,0.007,44.771601,-94.14892
33517,"Glendive, MT Urban Cluster","Glendive, MT",UrbanCluster,30021,6481,2990,5.426,0.012,47.123455,-104.700056
33598,"Glens Falls, NY Urbanized Area","Glens Falls, NY Urbanized Area",UrbanizedArea,36113,67672,31705,51.618,3.015,43.321292,-73.654361
33625,"Glenwood, IA Urban Cluster","Glenwood, IA",UrbanCluster,19129,5697,2465,2.403,0.012,41.042938,-95.756488
33652,"Glenwood Springs, CO Urban Cluster","Glenwood Springs, CO",UrbanCluster,08045,11966,4806,5.461,0.0,39.514529,-107.313447
33679,"Globe, AZ Urban Cluster","Globe, AZ",UrbanCluster,04007,11363,6160,8.139,0.0,33.406349,-110.797714
33733,"Gloversville, NY Urban Cluster","Gloversville, NY",UrbanCluster,36035,27558,13509,15.536,0.01,42.993676,-74.388959
33814,"Goldsboro, NC Urbanized Area","Goldsboro, NC Urbanized Area",UrbanizedArea,37191,56699,26751,53.16,0.157,35.387238,-77.983388
33841,"Gonzales, CA Urban Cluster","Gonzales, CA",UrbanCluster,06053,8628,2312,1.542,0.003,36.509642,-121.439172
33868,"Gonzales, TX Urban Cluster","Gonzales, TX",UrbanCluster,48177,6473,2836,4.356,0.0,29.511692,-97.44634
33922,"Goodland, KS Urban Cluster","Goodland, KS",UrbanCluster,20181,3916,2216,2.794,0.0,39.345288,-101.713783
34111,"Grafton, WV Urban Cluster","Grafton, WV",UrbanCluster,54091,4945,2506,3.484,0.131,39.338094,-80.032363
34138,"Graham, TX Urban Cluster","Graham, TX",UrbanCluster,48503,8686,3931,4.701,0.0,33.100905,-98.579295
34165,"Granbury, TX Urban Cluster","Granbury, TX",UrbanCluster,48221,33199,16361,21.866,1.832,32.44482,-97.761482
34219,"Grand Forks, ND--MN Urbanized Area","Grand Forks, ND",UrbanizedArea,38035,66770,31119,26.484,0.093,47.906425,-97.057269
34246,"Grand Island, NE Urbanized Area","Grand Island, NE Urbanized Area",UrbanizedArea,31079,53427,21141,29.602,0.268,40.925749,-98.354756
34273,"Grand Junction, CO Urbanized Area","Grand Junction, CO Urbanized Area",UrbanizedArea,08077,135462,57757,75.608,1.373,39.089062,-108.567452
34300,"Grand Rapids, MI Urbanized Area","Grand Rapids, MI Urbanized Area",UrbanizedArea,26081,618788,246211,274.359,6.138,42.942857,-85.6686
34327,"Grand Rapids, MN Urban Cluster","Grand Rapids, MN",UrbanCluster,27061,8792,3811,10.454,0.83,47.231797,-93.525399
34381,"Grandview, WA Urban Cluster","Grandview, WA",UrbanCluster,53077,19034,6350,4.125,0.0,46.240153,-119.846969
34470,"Granite Falls, WA Urban Cluster","Granite Falls, WA",UrbanCluster,53061,6725,3042,3.097,0.087,48.095141,-121.973287
34489,"Grants, NM Urban Cluster","Grants, NM",UrbanCluster,35006,11376,4212,6.145,0.0,35.160016,-107.84808
34516,"Grants Pass, OR Urbanized Area","Grants Pass, OR Urbanized Area",UrbanizedArea,41033,52805,23161,30.417,0.805,42.428843,-123.321497
34543,"Grantsville, UT Urban Cluster","Grantsville, UT",UrbanCluster,49045,8428,2503,4.394,0.0,40.591111,-112.457352
34597,"Grass Valley, CA Urban Cluster","Grass Valley, CA",UrbanCluster,06057,37250,17680,29.652,0.021,39.230984,-120.999216
34651,"Grayson, KY Urban Cluster","Grayson, KY",UrbanCluster,21043,4701,2384,5.202,0.088,38.336337,-82.926051
34705,"Great Bend, KS Urban Cluster","Great Bend, KS",UrbanCluster,20009,14862,7077,6.241,0.104,38.368092,-98.777648
34759,"Great Falls, MT Urbanized Area","Great Falls, MT Urbanized Area",UrbanizedArea,30013,65351,29602,30.305,0.705,47.501365,-111.284285
34786,"Greeley, CO Urbanized Area","Greeley, CO Urbanized Area",UrbanizedArea,08123,134964,48233,37.299,0.143,40.404427,-104.731568
34813,"Green Bay, WI Urbanized Area","Green Bay, WI Urbanized Area",UrbanizedArea,55009,215081,91457,113.658,2.848,44.507214,-88.039503
34840,"Greencastle, IN Urban Cluster","Greencastle, IN",UrbanCluster,18133,10327,3772,4.758,0.051,39.646777,-86.848102
34894,"Greeneville, TN Urban Cluster","Greeneville, TN",UrbanCluster,47059,23801,9982,21.97,0.005,36.166767,-82.809958
34921,"Greenfield, CA Urban Cluster","Greenfield, CA",UrbanCluster,06053,18833,4347,2.138,0.0,36.326581,-121.245075
34975,"Greenfield, MA Urban Cluster","Greenfield, MA",UrbanCluster,25011,22531,11131,14.251,0.097,42.587261,-72.566394
35002,"Greenfield, OH Urban Cluster","Greenfield, OH",UrbanCluster,39071,4640,2305,1.703,0.0,39.35012,-83.390314
35083,"Green River, WY Urban Cluster","Green River, WY",UrbanCluster,56037,11704,4872,5.559,0.08,41.519134,-109.471774
35164,"Greensboro, NC Urbanized Area","Greensboro, NC Urbanized Area",UrbanizedArea,37081,339684,148314,169.307,2.174,36.097302,-79.843953
35191,"Greensburg, IN Urban Cluster","Greensburg, IN",UrbanCluster,18031,11619,5210,8.747,0.035,39.341455,-85.485296
35272,"Greenville, AL Urban Cluster","Greenville, AL",UrbanCluster,01013,5250,2569,5.607,0.0,31.830685,-86.625151
35299,"Greenville, IL Urban Cluster","Greenville, IL",UrbanCluster,17005,6509,2342,2.986,0.0,38.887317,-89.400433
35326,"Greenville, MI Urban Cluster","Greenville, MI",UrbanCluster,26117,10792,4336,6.643,0.122,43.181411,-85.263948
35353,"Greenville, MS Urban Cluster","Greenville, MS",UrbanCluster,28151,30116,14371,16.786,0.023,33.397293,-91.038903
35380,"Greenville, NC Urbanized Area","Greenville, NC Urbanized Area",UrbanizedArea,37147,120667,56891,66.378,0.351,35.582955,-77.370517
35407,"Greenville, OH Urban Cluster","Greenville, OH",UrbanCluster,39037,12815,6550,6.653,0.062,40.103992,-84.62491
35434,"Greenville, PA Urban Cluster","Greenville, PA",UrbanCluster,42085,10488,4432,7.932,0.011,41.415097,-80.362757
35461,"Greenville, SC Urbanized Area","Greenville, SC Urbanized Area",UrbanizedArea,45045,445104,196316,262.168,2.23,34.844374,-82.442284
35488,"Greenville, TX Urban Cluster","Greenville, TX",UrbanCluster,48231,24794,10616,17.303,0.024,33.124169,-96.109955
35542,"Greenwood, AR Urban Cluster","Greenwood, AR",UrbanCluster,05131,8657,3830,6.612,0.143,35.214647,-94.255183
35569,"Greenwood, MS Urban Cluster","Greenwood, MS",UrbanCluster,28083,21340,9183,10.677,0.028,33.512656,-90.174088
35596,"Greenwood, SC Urban Cluster","Greenwood, SC",UrbanCluster,45047,41646,18962,35.519,0.258,34.205121,-82.168376
35623,"Grenada, MS Urban Cluster","Grenada, MS",UrbanCluster,28043,10525,5389,7.121,0.0,33.763394,-89.806541
35677,"Gridley, CA Urban Cluster","Gridley, CA",UrbanCluster,06007,9339,3290,3.98,0.0,39.359784,-121.685582
